{"items":[{	"arName":"سوبر ماركت خير زمان",
	"enName":"Kheir Zaman Supermarket",
	"hotline":"16007",
	"facebook":"http://www.facebook.com/KheirZamanEgypt",
	"web":"",
	"arCategory":[
		"سوبر ماركت"
	],
	"enCategories":[
		"Supermarkets"
	],
	"contacts":[
		{	"profileId":"396079",
	"profileURL":"//www.yellowpages.com.eg/en/profile/kheir-zaman-supermarket/396079?b=32&k=16007&l=search",
	"arName":"32 ش ميشيل باخوم متفرع من ش مصدق, الدقى, الجيزة",
	"lat":"30.040175999999999",
	"lng":"31.205251000000001",
	"enName":"32 Micheal Bakhoum St. Off Mossadak St., Dokki, Giza"
},
		{	"profileId":"291139",
	"profileURL":"//www.yellowpages.com.eg/en/profile/kheir-zaman-supermarket/291139?b=37&k=16007&l=search",
	"arName":"15 ش زكى رجب - عزبة سعد, سموحة, الاسكندرية",
	"lat":"31.207567000000001",
	"lng":"29.935689",
	"enName":"15 Zaky Ragab St., Ezbet Saad, Semouha, Alexandria"
},
		{	"profileId":"291134",
	"profileURL":"//www.yellowpages.com.eg/en/profile/kheir-zaman-supermarket/291134?b=36&k=16007&l=search",
	"arName":"488 طريق الحرية, بولكلى, الاسكندرية",
	"lat":"31.231576",
	"lng":"29.955572",
	"enName":"488 El Horreya Rd., Bolkeley, Alexandria"
},
		{	"profileId":"370228",
	"profileURL":"//www.yellowpages.com.eg/en/profile/kheir-zaman-supermarket/370228?b=21&k=16007&l=search",
	"arName":"القطعة 10/2 - - منطقة ل, حدائق الاهرام, الهرم, الجيزة",
	"lat":"29.962862000000001",
	"lng":"31.092714999999998",
	"enName":"Plot 10/2, , Zone L, Hadayek El Ahram, El haram, Giza"
},
		{	"profileId":"291012",
	"profileURL":"//www.yellowpages.com.eg/en/profile/kheir-zaman-supermarket/291012?b=25&k=16007&l=search",
	"arName":"37 ش البطل احمد عبد العزيز, المهندسين, الجيزة",
	"lat":"30.054098",
	"lng":"31.205425000000002",
	"enName":"37 El Batal Ahmed Abdel Aziz St., Mohandeseen, Giza"
},
		{	"profileId":"205318",
	"profileURL":"//www.yellowpages.com.eg/en/profile/kheir-zaman-supermarket/205318?b=14&k=16007&l=search",
	"arName":"20 ش جوزيف تيتو, النزهة الجديدة, القاهرة",
	"lat":"30.134522",
	"lng":"31.388833999999999",
	"enName":"20 Joseph Tito St., El nozha el gadida, Cairo"
},
		{	"profileId":"229229",
	"profileURL":"//www.yellowpages.com.eg/en/profile/kheir-zaman-supermarket/229229?b=17&k=16007&l=search",
	"arName":"263 ش ترعة الجبل, الزيتون, القاهرة",
	"lat":"30.103742",
	"lng":"31.306308999999999",
	"enName":"263 Teraet El Gabal St., El zaytoun, Cairo"
},
		{	"profileId":"169555",
	"profileURL":"//www.yellowpages.com.eg/en/profile/kheir-zaman-supermarket/169555?b=2&k=16007&l=search",
	"arName":"39 ش راغب, حلوان, القاهرة",
	"lat":"29.846942200000001",
	"lng":"31.3316397",
	"enName":"39 Ragheb St., Helwan, Cairo"
},
		{	"profileId":"205325",
	"profileURL":"//www.yellowpages.com.eg/en/profile/kheir-zaman-supermarket/205325?b=15&k=16007&l=search",
	"arName":"204 ش شبرا, شبرا, القاهرة",
	"lat":"30.092814000000001",
	"lng":"31.244978",
	"enName":"204 Shoubra St., Shoubra, Cairo"
},
		{	"profileId":"275485",
	"profileURL":"//www.yellowpages.com.eg/en/profile/kheir-zaman-supermarket/275485?b=5&k=16007&l=search",
	"arName":"14 ش الطاقة, المنطقة السادسة, مدينة نصر, القاهرة",
	"lat":"30.064197",
	"lng":"31.360859000000001",
	"enName":"14 El Taqqa St., 6th Zone, Nasr city, Cairo"
},
		{	"profileId":"205322",
	"profileURL":"//www.yellowpages.com.eg/en/profile/kheir-zaman-supermarket/205322?b=28&k=16007&l=search",
	"arName":"ش النصر, الدهار, الغردقة",
	"lat":"27.246603",
	"lng":"33.824655999999997",
	"enName":"El Nasr St., Dahar, Hurghada"
},
		{	"profileId":"174960",
	"profileURL":"//www.yellowpages.com.eg/en/profile/kheir-zaman-supermarket/174960?b=20&k=16007&l=search",
	"arName":"434 ش فيصل, حسن محمد, فيصل, الجيزة",
	"lat":"30.003291999999998",
	"lng":"31.173162999999999",
	"enName":"434 Faisal St., Hassan Mohamed, Faisal, Giza"
},
		{	"profileId":"229173",
	"profileURL":"//www.yellowpages.com.eg/en/profile/kheir-zaman-supermarket/229173?b=16&k=16007&l=search",
	"arName":"29 ش الجميل ميدان الظاهر, الظاهر, القاهرة",
	"lat":"30.061553",
	"lng":"31.255693000000001",
	"enName":"29 El Gamil St. El Zaher Sq., El zaher, Cairo"
},
		{	"profileId":"237007",
	"profileURL":"//www.yellowpages.com.eg/en/profile/kheir-zaman-supermarket/237007?b=13&k=16007&l=search",
	"arName":"182 ش الترعة البولاقية, شبرا, القاهرة",
	"lat":"30.072033000000001",
	"lng":"31.247358999999999",
	"enName":"182 El Teraa El Boulaqeya St., Shoubra, Cairo"
},
		{	"profileId":"396322",
	"profileURL":"//www.yellowpages.com.eg/en/profile/kheir-zaman-supermarket/396322?b=33&k=16007&l=search",
	"arName":"ش قناة السويس - برج النور, المنصورة, الدقهلية",
	"lat":"31.052340999999998",
	"lng":"31.403185000000001",
	"enName":"Suez Canal St., El Nour Tower, El mansoura, El dakahleya"
},
		{	"profileId":"237045",
	"profileURL":"//www.yellowpages.com.eg/en/profile/kheir-zaman-supermarket/237045?b=31&k=16007&l=search",
	"arName":"120 ش حوض الساحل متفرع من ش التليفزيون, الاقصر, الاقصر",
	"lat":"25.691004",
	"lng":"32.640723999999999",
	"enName":"120 Houd El Sahel St. Off Television St., LUXOR, Luxor, Luxor"
},
		{	"profileId":"355617",
	"profileURL":"//www.yellowpages.com.eg/en/profile/kheir-zaman-supermarket/355617?b=22&k=16007&l=search",
	"arName":"ش احمد حسن الباقورى - برج الاحلام, اسيوط, اسيوط",
	"lat":"27.190373999999998",
	"lng":"31.178796999999999",
	"enName":"Ahmed Hassan El Baqoury St., El Ahlam Tower, Assyout, Assyout"
},
		{	"profileId":"295686",
	"profileURL":"//www.yellowpages.com.eg/en/profile/kheir-zaman-supermarket/295686?b=19&k=16007&l=search",
	"arName":"33 ش الحجاز, مصر الجديدة, القاهرة",
	"lat":"30.099226999999999",
	"lng":"31.323501",
	"enName":"33 El Hegaz St., Heliopolis, Cairo"
},
		{	"profileId":"396745",
	"profileURL":"//www.yellowpages.com.eg/en/profile/kheir-zaman-supermarket/396745?b=34&k=16007&l=search",
	"arName":"26 ش الدلتا, سبورتنج, الاسكندرية",
	"lat":"31.220403000000001",
	"lng":"29.931027",
	"enName":"26 El Delta St., Sporting, Alexandria"
},
		{	"profileId":"487538",
	"profileURL":"//www.yellowpages.com.eg/en/profile/kheir-zaman-supermarket/487538?b=30&k=16007&l=search",
	"arName":"ش كوبرى دندرة, وسط البلد, قنا",
	"lat":"26.159406000000001",
	"lng":"32.706429999999997",
	"enName":"Kobry Dandara St., Downtown, Qena"
},
		{	"profileId":"229225",
	"profileURL":"//www.yellowpages.com.eg/en/profile/kheir-zaman-supermarket/229225?b=11&k=16007&l=search",
	"arName":"59 عمارات صقر قريش -, مساكن شيراتون, مصر الجديدة, القاهرة",
	"lat":"30.106338999999998",
	"lng":"31.373517",
	"enName":"59 Saqr Qoraish Bldgs.,, Sheraton Bldgs., Heliopolis, Cairo"
},
		{	"profileId":"142101",
	"profileURL":"//www.yellowpages.com.eg/en/profile/kheir-zaman-supermarket/142101?b=18&k=16007&l=search",
	"arName":"4 ش مصر والسودان متفرع من ش رمسيس, حدائق القبة, القاهرة",
	"lat":"30.070941999999999",
	"lng":"31.271134",
	"enName":"4 Misr & Sudan St. Off Ramsis St., Hadayek el kobba, Cairo"
},
		{	"profileId":"142100",
	"profileURL":"//www.yellowpages.com.eg/en/profile/kheir-zaman-supermarket/142100?b=9&k=16007&l=search",
	"arName":"53 ش المنيل, المنيل, القاهرة",
	"lat":"30.018383",
	"lng":"31.225231000000001",
	"enName":"53 Manial St., El manyal, Cairo"
},
		{	"profileId":"229222",
	"profileURL":"//www.yellowpages.com.eg/en/profile/kheir-zaman-supermarket/229222?b=8&k=16007&l=search",
	"arName":"9 ش نوبار, السيدة زينب, القاهرة",
	"lat":"30.036017999999999",
	"lng":"31.239612000000001",
	"enName":"9 Noubar St., El sayeda zeinab, Cairo"
},
		{	"profileId":"229145",
	"profileURL":"//www.yellowpages.com.eg/en/profile/kheir-zaman-supermarket/229145?b=24&k=16007&l=search",
	"arName":"49 أ ش السودان, المهندسين, الجيزة",
	"lat":"30.039328000000001",
	"lng":"31.195962000000002",
	"enName":"49 A Sudan St., Mohandeseen, Giza"
},
		{	"profileId":"142102",
	"profileURL":"//www.yellowpages.com.eg/en/profile/kheir-zaman-supermarket/142102?b=1&k=16007&l=search",
	"arName":"87 ش مجلس الامة متفرع من ش بورسعيد, السيدة زينب, القاهرة",
	"lat":"30.036819999999999",
	"lng":"31.247358999999999",
	"enName":"87 Magles El Ommah St. Off Port Said St., El sayeda zeinab, Cairo"
},
		{	"profileId":"229221",
	"profileURL":"//www.yellowpages.com.eg/en/profile/kheir-zaman-supermarket/229221?b=27&k=16007&l=search",
	"arName":"40 ش الجيش, حى الشرق, بور سعيد",
	"lat":"31.265395999999999",
	"lng":"32.311230999999999",
	"enName":"40 El Guish St., El shark district, Port said"
},
		{	"profileId":"142105",
	"profileURL":"//www.yellowpages.com.eg/en/profile/kheir-zaman-supermarket/142105?b=10&k=16007&l=search",
	"arName":"بلوك 6035 - ش 9 ميدان النافورة, المقطم, القاهرة",
	"lat":"30.013361",
	"lng":"31.298753000000001",
	"enName":"Block 6035, Rd. 9 El Nafoura Sq., Mokattam, Cairo"
},
		{	"profileId":"229223",
	"profileURL":"//www.yellowpages.com.eg/en/profile/kheir-zaman-supermarket/229223?b=4&k=16007&l=search",
	"arName":"132 ش سليم الاول, حلمية الزيتون, القاهرة",
	"lat":"30.118867999999999",
	"lng":"31.320492000000002",
	"enName":"132 Selim El Awal St., Helmeyet el zaitoun, Cairo"
},
		{	"profileId":"170611",
	"profileURL":"//www.yellowpages.com.eg/en/profile/kheir-zaman-supermarket/170611?b=23&k=16007&l=search",
	"arName":"16 ش محمد خلف متفرع من ش التحرير, الدقى, الجيزة",
	"lat":"30.040669000000001",
	"lng":"31.214009000000001",
	"enName":"16 Mohamed Khalaf St. Off El Tahrir St., Dokki, Giza"
},
		{	"profileId":"142104",
	"profileURL":"//www.yellowpages.com.eg/en/profile/kheir-zaman-supermarket/142104?b=26&k=16007&l=search",
	"arName":"ش الفردوس متفرع من ش فيكتور عمانويل - عمارة امن الدولة, سموحة, الاسكندرية",
	"lat":"31.209195999999999",
	"lng":"29.950901000000002",
	"enName":"El Fardous St. Off Victor Emanuel St., Amn El Dawla Bldg., Semouha, Alexandria"
},
		{	"profileId":"384772",
	"profileURL":"//www.yellowpages.com.eg/en/profile/kheir-zaman-supermarket/384772?b=29&k=16007&l=search",
	"arName":"30 ش هارون الرشيد, الدقى, الجيزة",
	"lat":"30.036847000000002",
	"lng":"31.216825",
	"enName":"30 Haroun El Rashid St., Dokki, Giza"
},
		{	"profileId":"229141",
	"profileURL":"//www.yellowpages.com.eg/en/profile/kheir-zaman-supermarket/229141?b=3&k=16007&l=search",
	"arName":"17 ش ذاكر حسين, الحى السابع, مدينة نصر, القاهرة",
	"lat":"30.047342",
	"lng":"31.360703000000001",
	"enName":"17 Zaker Hussein St., 7th District, Nasr city, Cairo"
},
		{	"profileId":"142106",
	"profileURL":"//www.yellowpages.com.eg/en/profile/kheir-zaman-supermarket/142106?b=35&k=16007&l=search",
	"arName":"خدمة توصيل الطلبات للمنازل, الحى الثالث, السادس من اكتوبر, الجيزة",
	"lat":"",
	"lng":"",
	"enName":"Home Delivery, 3rd District, 6th of october, Giza"
},
		{	"profileId":"370082",
	"profileURL":"//www.yellowpages.com.eg/en/profile/kheir-zaman-supermarket/370082?b=6&k=16007&l=search",
	"arName":"بلوك 86 - القطعة 28 - ش الخمسين الشطر 13, زهراء المعادى, المعادى, القاهرة",
	"lat":"29.967903",
	"lng":"31.314737999999998",
	"enName":"Block 86, Plot 28, El Khamseen St. Sector 13, Zahraa El Maadi, Maadi, Cairo"
},
		{	"profileId":"475322",
	"profileURL":"//www.yellowpages.com.eg/en/profile/kheir-zaman-supermarket/475322?b=38&k=16007&l=search",
	"arName":"ميدان الحصرى - المحور المركزى, الحى الثامن, السادس من اكتوبر, الجيزة",
	"lat":"29.972297000000001",
	"lng":"30.938759999999998",
	"enName":"El Hosary Sq., Central Spine, 8th District, 6th of october, Giza"
},
		{	"profileId":"229164",
	"profileURL":"//www.yellowpages.com.eg/en/profile/kheir-zaman-supermarket/229164?b=7&k=16007&l=search",
	"arName":"طريق الزهراء الرئيسى, زهراء المعادى, المعادى, القاهرة",
	"lat":"29.960316599999999",
	"lng":"31.289966400000001",
	"enName":"El Zahraa Main Rd., Zahraa El Maadi, Maadi, Cairo"
},
		{	"profileId":"236989",
	"profileURL":"//www.yellowpages.com.eg/en/profile/kheir-zaman-supermarket/236989?b=12&k=16007&l=search",
	"arName":"58 طريق مصر حلوان الزراعى - برج حسين صدقى, المعادى, القاهرة",
	"lat":"29.958704000000001",
	"lng":"31.251211999999999",
	"enName":"58 Misr Helwan Agricultural Rd., Hussein Sedqy Tower, Maadi, Cairo"
}
	]
}]}