{"items":[{	"arName":"الشيف سرحان",
	"enName":"Chef Sarhan",
	"hotline":"16014",
	"facebook":"http://www.facebook.com/Chef.Sarhan",
	"web":"http://www.chefsarhan.com/",
	"arCategory":[
		"ماكولات شرقية",
		"مطاعم",
		"مطاعم صالات طعام"
	],
	"enCategories":[
		"Oriental Food",
		"Restaurants",
		"Restaurants Eat Out"
	],
	"contacts":[
		{	"profileId":"165692",
	"profileURL":"//www.yellowpages.com.eg/en/profile/chef-sarhan/165692?b=1&k=16014&l=search",
	"arName":"عمارة التوحيد - القطعة 8129 - ش 9, المقطم, القاهرة",
	"lat":"30.00929",
	"lng":"31.318878999999999",
	"enName":"El Tawhid Bldg., Plot 8129, Rd. 9, Mokattam, Cairo"
},
		{	"profileId":"381939",
	"profileURL":"//www.yellowpages.com.eg/en/profile/chef-sarhan/381939?b=2&k=16014&l=search",
	"arName":"5 ش عمر لطفى متفرع من ش عباس العقاد, مدينة نصر, القاهرة",
	"lat":"30.052365999999999",
	"lng":"31.339552000000001",
	"enName":"5 Omar Lotfy St. Off Abbas El Akkad St., Nasr city, Cairo"
},
		{	"profileId":"165690",
	"profileURL":"//www.yellowpages.com.eg/en/profile/chef-sarhan/165690?b=4&k=16014&l=search",
	"arName":"السوق التجارى, مدينة الرحاب, القاهرة",
	"lat":"30.056567000000001",
	"lng":"31.491710999999999",
	"enName":"Commercial Market, Al rehab city, Cairo"
},
		{	"profileId":"381947",
	"profileURL":"//www.yellowpages.com.eg/en/profile/chef-sarhan/381947?b=8&k=16014&l=search",
	"arName":"خدمة توصيل الطلبات للمنازل, الحى الثامن, مدينة نصر, القاهرة",
	"lat":"",
	"lng":"",
	"enName":"Home Delivery, 8th District, Nasr city, Cairo"
},
		{	"profileId":"418359",
	"profileURL":"//www.yellowpages.com.eg/en/profile/chef-sarhan/418359?b=5&k=16014&l=search",
	"arName":"ش عباس العقاد, الحى السابع, مدينة نصر, القاهرة",
	"lat":"30.048376000000001",
	"lng":"31.338943",
	"enName":"Abbas El Akkad St., 7th District, Nasr city, Cairo"
},
		{	"profileId":"561688",
	"profileURL":"//www.yellowpages.com.eg/en/profile/chef-sarhan/561688?b=10&k=16014&l=search",
	"arName":"ش الجيش, المنصورة, الدقهلية",
	"lat":"31.031215",
	"lng":"31.394003999999999",
	"enName":"El Guish St., El mansoura, El dakahleya"
},
		{	"profileId":"176280",
	"profileURL":"//www.yellowpages.com.eg/en/profile/chef-sarhan/176280?b=3&k=16014&l=search",
	"arName":"184 ش الحجاز, ميدان الحجاز, مصر الجديدة, القاهرة",
	"lat":"30.115416",
	"lng":"31.351161000000001",
	"enName":"184 El Hegaz St., Hegaz Square, Heliopolis, Cairo"
},
		{	"profileId":"112089",
	"profileURL":"//www.yellowpages.com.eg/en/profile/chef-sarhan/112089?b=7&k=16014&l=search",
	"arName":"18 ش نجيب محفوظ متفرع من ش عباس العقاد, الحى الثامن, مدينة نصر, القاهرة",
	"lat":"30.049084000000001",
	"lng":"31.342039",
	"enName":"18 Naguib Mahfouz St. Off Abbas El Akkad St., 8th District, Nasr city, Cairo"
},
		{	"profileId":"418373",
	"profileURL":"//www.yellowpages.com.eg/en/profile/chef-sarhan/418373?b=6&k=16014&l=search",
	"arName":"5 ش الاهرام, الكوربة, مصر الجديدة, القاهرة",
	"lat":"30.090699999999998",
	"lng":"31.320675000000001",
	"enName":"5 El Ahram St., El Korba, Heliopolis, Cairo"
},
		{	"profileId":"553563",
	"profileURL":"//www.yellowpages.com.eg/en/profile/chef-sarhan/553563?b=9&k=16014&l=search",
	"arName":"منطقة الكورنيش, حى السويس, السويس",
	"lat":"29.960450999999999",
	"lng":"32.560423999999998",
	"enName":"El Corniche Zone, Suez district, Suez"
}
	]
}]}