{"items":[{	"arName":"صيدليات ابو زيادة",
	"enName":"Abou Zeyada Pharmacies",
	"hotline":"16027",
	"facebook":"http://www.facebook.com/AbouZeyadaPharmacy",
	"web":"http://www.abouzeyada.com/",
	"arCategory":[
		"صيدليات"
	],
	"enCategories":[
		"Pharmacies"
	],
	"contacts":[
		{	"profileId":"536287",
	"profileURL":"//www.yellowpages.com.eg/en/profile/abou-zeyada-pharmacies/536287?b=68&k=16027&l=search",
	"arName":"17 ميدان سعد زغلول, محطة الرمل, الاسكندرية",
	"lat":"31.202455",
	"lng":"29.902087000000002",
	"enName":"17 Saad Zaghloul Sq., Raml station, Alexandria"
},
		{	"profileId":"221209",
	"profileURL":"//www.yellowpages.com.eg/en/profile/abou-zeyada-pharmacies/221209?b=34&k=16027&l=search",
	"arName":"35 ش قصر رأس التين, الجمرك, الاسكندرية",
	"lat":"31.206674",
	"lng":"29.879055000000001",
	"enName":"35 Kasr Ras El Teen St., El gomrok, Alexandria"
},
		{	"profileId":"536524",
	"profileURL":"//www.yellowpages.com.eg/en/profile/abou-zeyada-pharmacies/536524?b=14&k=16027&l=search",
	"arName":"25 ش يحيى ابراهيم متفرع من ش 26 يوليو, الزمالك, القاهرة",
	"lat":"30.060199999999998",
	"lng":"31.223099999999999",
	"enName":"25 Yehia Ibrahim St. Off 26th Of July St., Zamalek, Cairo"
},
		{	"profileId":"64554",
	"profileURL":"//www.yellowpages.com.eg/en/profile/abou-zeyada-pharmacies/64554?b=20&k=16027&l=search",
	"arName":"310 ش ملك حفنى تقاطع ش اسكندر ابراهيم, ميامى, الاسكندرية",
	"lat":"31.263347",
	"lng":"29.999216000000001",
	"enName":"310 Malak Hefny St. Intersection Of Iskandar Ibrahim St., Miami, Alexandria"
},
		{	"profileId":"518452",
	"profileURL":"//www.yellowpages.com.eg/en/profile/abou-zeyada-pharmacies/518452?b=10&k=16027&l=search",
	"arName":"25 /17 ش العزيز بالله, حدائق الزيتون, القاهرة",
	"lat":"",
	"lng":"",
	"enName":"25 /17 El Aziz Bellah St., Hadayek el zaitoun, Cairo"
},
		{	"profileId":"536480",
	"profileURL":"//www.yellowpages.com.eg/en/profile/abou-zeyada-pharmacies/536480?b=13&k=16027&l=search",
	"arName":"بلوك S/81 - - المنطقة الاولى - الحى الثانى, التجمع الخامس, القاهرة الجديدة, القاهرة",
	"lat":"30.012848000000002",
	"lng":"31.440189",
	"enName":"Block S/81, , 1St Zone, 2nd District, 5th Compound, New cairo, Cairo"
},
		{	"profileId":"575453",
	"profileURL":"//www.yellowpages.com.eg/en/profile/abou-zeyada-pharmacies/575453?b=50&k=16027&l=search",
	"arName":"35 ش احمد عرابى, المهندسين, الجيزة",
	"lat":"30.064299999999999",
	"lng":"31.204799999999999",
	"enName":"35 Ahmed Orabi St., Mohandeseen, Giza"
},
		{	"profileId":"195821",
	"profileURL":"//www.yellowpages.com.eg/en/profile/abou-zeyada-pharmacies/195821?b=65&k=16027&l=search",
	"arName":"8 ش شكور متفرع من ش سعد زغلول, محطة الرمل, الاسكندرية",
	"lat":"31.199625999999999",
	"lng":"29.900846000000001",
	"enName":"8 Shakour St. Off Saad Zaghloul St., Raml station, Alexandria"
},
		{	"profileId":"580115",
	"profileURL":"//www.yellowpages.com.eg/en/profile/abou-zeyada-pharmacies/580115?b=62&k=16027&l=search",
	"arName":"34 ش الامان, الورديان, الاسكندرية",
	"lat":"31.163934000000001",
	"lng":"29.868129",
	"enName":"34 El Aman St., Wardeyan, Alexandria"
},
		{	"profileId":"25782",
	"profileURL":"//www.yellowpages.com.eg/en/profile/abou-zeyada-pharmacies/25782?b=53&k=16027&l=search",
	"arName":"21 ش المستشفى الايطالى, الحضرة, الاسكندرية",
	"lat":"31.197865",
	"lng":"29.924723",
	"enName":"21 El Mostashfa El Italy St., El hadara, Alexandria"
},
		{	"profileId":"564085",
	"profileURL":"//www.yellowpages.com.eg/en/profile/abou-zeyada-pharmacies/564085?b=29&k=16027&l=search",
	"arName":"374 طريق الجيش, جليم, الاسكندرية",
	"lat":"31.241167999999998",
	"lng":"29.960103",
	"enName":"374 El Guish Rd., Glim, Alexandria"
},
		{	"profileId":"536514",
	"profileURL":"//www.yellowpages.com.eg/en/profile/abou-zeyada-pharmacies/536514?b=38&k=16027&l=search",
	"arName":"19 ش عبد الرحمن الرافعى, الدقى, الجيزة",
	"lat":"30.048994",
	"lng":"31.201509999999999",
	"enName":"19 Abdel Rahman El Rafaey St., Dokki, Giza"
},
		{	"profileId":"137794",
	"profileURL":"//www.yellowpages.com.eg/en/profile/abou-zeyada-pharmacies/137794?b=43&k=16027&l=search",
	"arName":"6 ش السودان, الدقى, الجيزة",
	"lat":"30.035900000000002",
	"lng":"31.197800000000001",
	"enName":"6 Sudan St., Dokki, Giza"
},
		{	"profileId":"564283",
	"profileURL":"//www.yellowpages.com.eg/en/profile/abou-zeyada-pharmacies/564283?b=70&k=16027&l=search",
	"arName":"391 ش ملك حفنى, العصافرة قبلى, الاسكندرية",
	"lat":"31.271667000000001",
	"lng":"30.007439000000002",
	"enName":"391 Malak Hefny St., El asafra kebly, Alexandria"
},
		{	"profileId":"233388",
	"profileURL":"//www.yellowpages.com.eg/en/profile/abou-zeyada-pharmacies/233388?b=16&k=16027&l=search",
	"arName":"7 ش خليل بن قلاوون, ميدان الحجاز, مصر الجديدة, القاهرة",
	"lat":"30.109134999999998",
	"lng":"31.349875999999998",
	"enName":"7 Khalil Ibn Qalawoun St., Hegaz Square, Heliopolis, Cairo"
},
		{	"profileId":"12598",
	"profileURL":"//www.yellowpages.com.eg/en/profile/abou-zeyada-pharmacies/12598?b=42&k=16027&l=search",
	"arName":"501 ش الاهرام ميدان الجيزة, الجيزة, الجيزة",
	"lat":"30.014399999999998",
	"lng":"31.210000000000001",
	"enName":"501 El Ahram St. Giza Sq., Giza, Giza"
},
		{	"profileId":"580113",
	"profileURL":"//www.yellowpages.com.eg/en/profile/abou-zeyada-pharmacies/580113?b=27&k=16027&l=search",
	"arName":"115 ش راغب باشا, كرموز, الاسكندرية",
	"lat":"31.188212",
	"lng":"29.900825999999999",
	"enName":"115 Ragheb Pasha St., Karmouz, Alexandria"
},
		{	"profileId":"536319",
	"profileURL":"//www.yellowpages.com.eg/en/profile/abou-zeyada-pharmacies/536319?b=17&k=16027&l=search",
	"arName":"20 ش اسماء زغلول, مدينة نصر, القاهرة",
	"lat":"30.07696",
	"lng":"31.318299",
	"enName":"20 Asmaa Zaghloul St., Nasr city, Cairo"
},
		{	"profileId":"564087",
	"profileURL":"//www.yellowpages.com.eg/en/profile/abou-zeyada-pharmacies/564087?b=61&k=16027&l=search",
	"arName":"3 ش اجياد مكة متفرع من ش الهانوفيل, الهانوفيل, الاسكندرية",
	"lat":"31.105281999999999",
	"lng":"29.764938999999998",
	"enName":"3 Agiad Mekka St. Off Hannoville St., Hannoville, Alexandria"
},
		{	"profileId":"536331",
	"profileURL":"//www.yellowpages.com.eg/en/profile/abou-zeyada-pharmacies/536331?b=4&k=16027&l=search",
	"arName":"5 عمارات المبعوثين - ش حسن المأمون, الحى الثامن, مدينة نصر, القاهرة",
	"lat":"30.061067000000001",
	"lng":"31.358521",
	"enName":"5 El Mabaoutheen Bldgs., Hassan El Maamoun St., 8th District, Nasr city, Cairo"
},
		{	"profileId":"558780",
	"profileURL":"//www.yellowpages.com.eg/en/profile/abou-zeyada-pharmacies/558780?b=28&k=16027&l=search",
	"arName":"23 ش فوزى معاذ, سموحة, الاسكندرية",
	"lat":"31.212645999999999",
	"lng":"29.941168999999999",
	"enName":"23 Fawzy Moaz St., Semouha, Alexandria"
},
		{	"profileId":"216465",
	"profileURL":"//www.yellowpages.com.eg/en/profile/abou-zeyada-pharmacies/216465?b=23&k=16027&l=search",
	"arName":"5 ش مسجد سيدى بشر, سيدى بشر بحرى, الاسكندرية",
	"lat":"31.256983999999999",
	"lng":"29.991826",
	"enName":"5 Masged Sidi Beshr St., Sidi beshr bahary, Alexandria"
},
		{	"profileId":"130042",
	"profileURL":"//www.yellowpages.com.eg/en/profile/abou-zeyada-pharmacies/130042?b=55&k=16027&l=search",
	"arName":"1 ابراج الوطنية - , سموحة, الاسكندرية",
	"lat":"31.209651999999998",
	"lng":"29.960251",
	"enName":"1 El Wataneya Towers, , Semouha, Alexandria"
},
		{	"profileId":"536379",
	"profileURL":"//www.yellowpages.com.eg/en/profile/abou-zeyada-pharmacies/536379?b=5&k=16027&l=search",
	"arName":"6 ش العباسية, الظاهر, القاهرة",
	"lat":"30.0624",
	"lng":"31.265799999999999",
	"enName":"6 Abbaseya St., El zaher, Cairo"
},
		{	"profileId":"561533",
	"profileURL":"//www.yellowpages.com.eg/en/profile/abou-zeyada-pharmacies/561533?b=15&k=16027&l=search",
	"arName":"7 ش عبد الخالق ثروت, وسط البلد, القاهرة",
	"lat":"30.051295",
	"lng":"31.239325999999998",
	"enName":"7 Abdel Khaleq Tharwat St., Downtown, Cairo"
},
		{	"profileId":"389552",
	"profileURL":"//www.yellowpages.com.eg/en/profile/abou-zeyada-pharmacies/389552?b=35&k=16027&l=search",
	"arName":"كم 21 - طريق اسكندرية مطروح الصحراوى, العجمى, الاسكندرية",
	"lat":"31.07836",
	"lng":"29.735517000000002",
	"enName":"Km 21, Alex Matrouh Desert Rd., Agami, Alexandria"
},
		{	"profileId":"226568",
	"profileURL":"//www.yellowpages.com.eg/en/profile/abou-zeyada-pharmacies/226568?b=46&k=16027&l=search",
	"arName":"كم 17.5 - طريق اسكندرية مطروح الصحراوى, ابو يوسف, الاسكندرية",
	"lat":"",
	"lng":"",
	"enName":"Km 17.5, Alex Matrouh Desert Rd., Abou youssef, Alexandria"
},
		{	"profileId":"536296",
	"profileURL":"//www.yellowpages.com.eg/en/profile/abou-zeyada-pharmacies/536296?b=7&k=16027&l=search",
	"arName":"68 ش 105, حدائق المعادى, المعادى, القاهرة",
	"lat":"29.969999999999999",
	"lng":"31.248699999999999",
	"enName":"68 Rd. 105, Hadayek El Maadi, Maadi, Cairo"
},
		{	"profileId":"29319",
	"profileURL":"//www.yellowpages.com.eg/en/profile/abou-zeyada-pharmacies/29319?b=32&k=16027&l=search",
	"arName":"ش فرنسا امتداد ش مسجد تربانة, المنشية, الاسكندرية",
	"lat":"31.200994000000001",
	"lng":"29.887122999999999",
	"enName":"France St. Extension Of Masged Terbana St., El mansheya, Alexandria"
},
		{	"profileId":"226255",
	"profileURL":"//www.yellowpages.com.eg/en/profile/abou-zeyada-pharmacies/226255?b=25&k=16027&l=search",
	"arName":"ش خير الله, الهانوفيل, الاسكندرية",
	"lat":"31.107503000000001",
	"lng":"29.776593999999999",
	"enName":"Khairallah St., Hannoville, Alexandria"
},
		{	"profileId":"580009",
	"profileURL":"//www.yellowpages.com.eg/en/profile/abou-zeyada-pharmacies/580009?b=40&k=16027&l=search",
	"arName":"ش 311 تقاطع ش محمود شكرى, سموحة, الاسكندرية",
	"lat":"31.218693999999999",
	"lng":"29.944344999999998",
	"enName":"Rd. 311 Intersection Of Mahmoud Shokry St., Semouha, Alexandria"
},
		{	"profileId":"450643",
	"profileURL":"//www.yellowpages.com.eg/en/profile/abou-zeyada-pharmacies/450643?b=48&k=16027&l=search",
	"arName":"خدمة توصيل الطلبات للمنازل, محطة الرمل, الاسكندرية",
	"lat":"",
	"lng":"",
	"enName":"Home Delivery, Raml station, Alexandria"
},
		{	"profileId":"536529",
	"profileURL":"//www.yellowpages.com.eg/en/profile/abou-zeyada-pharmacies/536529?b=60&k=16027&l=search",
	"arName":"3 ش عثمان محرم متفرع من ش الهرم, الطالبية, الهرم, الجيزة",
	"lat":"30.001241",
	"lng":"31.181585999999999",
	"enName":"3 Othman Moharram St. Off Haram St., El Talbeya, El haram, Giza"
},
		{	"profileId":"453236",
	"profileURL":"//www.yellowpages.com.eg/en/profile/abou-zeyada-pharmacies/453236?b=49&k=16027&l=search",
	"arName":"ش كلية الطب, محطة الرمل, الاسكندرية",
	"lat":"31.201651999999999",
	"lng":"29.90382",
	"enName":"Koleyet El Teb St., Raml station, Alexandria"
},
		{	"profileId":"157990",
	"profileURL":"//www.yellowpages.com.eg/en/profile/abou-zeyada-pharmacies/157990?b=54&k=16027&l=search",
	"arName":"291 ش فيصل, حسن محمد, فيصل, الجيزة",
	"lat":"29.998107999999998",
	"lng":"31.158501000000001",
	"enName":"291 Faisal St., Hassan Mohamed, Faisal, Giza"
},
		{	"profileId":"536462",
	"profileURL":"//www.yellowpages.com.eg/en/profile/abou-zeyada-pharmacies/536462?b=9&k=16027&l=search",
	"arName":"26 ش شريف, وسط البلد, القاهرة",
	"lat":"30.048936999999999",
	"lng":"31.242289",
	"enName":"26 Sherif St., Downtown, Cairo"
},
		{	"profileId":"536342",
	"profileURL":"//www.yellowpages.com.eg/en/profile/abou-zeyada-pharmacies/536342?b=8&k=16027&l=search",
	"arName":"بلوك 65 - ش نجاتى سراج, الحى الثامن, مدينة نصر, القاهرة",
	"lat":"30.051884999999999",
	"lng":"31.350804",
	"enName":"Block 65, Nagaty Serag St., 8th District, Nasr city, Cairo"
},
		{	"profileId":"561661",
	"profileURL":"//www.yellowpages.com.eg/en/profile/abou-zeyada-pharmacies/561661?b=51&k=16027&l=search",
	"arName":"25 طريق الجيش - عمارة قرطبة, كامب شيزار, الاسكندرية",
	"lat":"31.213864999999998",
	"lng":"29.919663",
	"enName":"25 El Guish Rd., Qortoba Bldg., Camp shizar, Alexandria"
},
		{	"profileId":"160868",
	"profileURL":"//www.yellowpages.com.eg/en/profile/abou-zeyada-pharmacies/160868?b=2&k=16027&l=search",
	"arName":"24 ش 159 تقاطع ش 107, المعادى, القاهرة",
	"lat":"29.967813",
	"lng":"31.251632000000001",
	"enName":"24 Rd. 159 Intersection Of Rd. 107, Maadi, Cairo"
},
		{	"profileId":"536469",
	"profileURL":"//www.yellowpages.com.eg/en/profile/abou-zeyada-pharmacies/536469?b=3&k=16027&l=search",
	"arName":"15 أ ش شريف, وسط البلد, القاهرة",
	"lat":"30.0474",
	"lng":"31.2424",
	"enName":"15 A Sherif St., Downtown, Cairo"
},
		{	"profileId":"536502",
	"profileURL":"//www.yellowpages.com.eg/en/profile/abou-zeyada-pharmacies/536502?b=37&k=16027&l=search",
	"arName":"ش العشرين تقاطع ش الملكة - برج المصطفى, مدكور, فيصل, الجيزة",
	"lat":"30.018183000000001",
	"lng":"31.184488999999999",
	"enName":"El Eshreen St. Intersection Of El Maleka St., El Mostafa Tower, Madkour, Faisal, Giza"
},
		{	"profileId":"561667",
	"profileURL":"//www.yellowpages.com.eg/en/profile/abou-zeyada-pharmacies/561667?b=39&k=16027&l=search",
	"arName":"52 طريق الجيش, الابراهيمية, الاسكندرية",
	"lat":"31.217119",
	"lng":"29.925006",
	"enName":"52 El Guish Rd., El ibrahimeya, Alexandria"
},
		{	"profileId":"294365",
	"profileURL":"//www.yellowpages.com.eg/en/profile/abou-zeyada-pharmacies/294365?b=24&k=16027&l=search",
	"arName":"1 ش الجلاء تقاطع ش البحر - عمارة الاوقاف, طنطا, الغربية",
	"lat":"30.774975999999999",
	"lng":"30.993917",
	"enName":"1 El Galaa St. Intersection Of El Bahr St., El Awqaf Bldg., Tanta, El gharbeya"
},
		{	"profileId":"449773",
	"profileURL":"//www.yellowpages.com.eg/en/profile/abou-zeyada-pharmacies/449773?b=47&k=16027&l=search",
	"arName":"8 ش كلية الطب - برج الاطباء, محطة الرمل, الاسكندرية",
	"lat":"31.200931799999999",
	"lng":"29.902086799999999",
	"enName":"8 Koleyet El Teb St., El Atebaa Tower, Raml station, Alexandria"
},
		{	"profileId":"221144",
	"profileURL":"//www.yellowpages.com.eg/en/profile/abou-zeyada-pharmacies/221144?b=56&k=16027&l=search",
	"arName":"23 ش العبدانى متفرع من ش الامير لؤلؤ, الورديان, الاسكندرية",
	"lat":"31.168040000000001",
	"lng":"29.870370000000001",
	"enName":"23 El Abdany St. Off El Amir Loualoa St., Wardeyan, Alexandria"
},
		{	"profileId":"224814",
	"profileURL":"//www.yellowpages.com.eg/en/profile/abou-zeyada-pharmacies/224814?b=59&k=16027&l=search",
	"arName":"ش 30 تقاطع ش العاشر من رمضان, سيدى بشر قبلى, الاسكندرية",
	"lat":"31.256906000000001",
	"lng":"30.005859000000001",
	"enName":"Rd. 30 Intersection Of 10th Of Ramadan St., Sidi beshr kebly, Alexandria"
},
		{	"profileId":"23547",
	"profileURL":"//www.yellowpages.com.eg/en/profile/abou-zeyada-pharmacies/23547?b=63&k=16027&l=search",
	"arName":"19 ش عبد القادر الغريانى, محرم بك, الاسكندرية",
	"lat":"31.190369",
	"lng":"29.922654000000001",
	"enName":"19 Abdel Qader El Gheriany St., Moharram bey, Alexandria"
},
		{	"profileId":"558528",
	"profileURL":"//www.yellowpages.com.eg/en/profile/abou-zeyada-pharmacies/558528?b=1&k=16027&l=search",
	"arName":"127 ش فؤاد, الشلالات, الاسكندرية",
	"lat":"31.200825999999999",
	"lng":"29.914078",
	"enName":"127 Fouad St., El shalalat, Alexandria"
},
		{	"profileId":"233443",
	"profileURL":"//www.yellowpages.com.eg/en/profile/abou-zeyada-pharmacies/233443?b=45&k=16027&l=search",
	"arName":"589 طريق الجيش, ميامى, الاسكندرية",
	"lat":"31.267474",
	"lng":"29.987476999999998",
	"enName":"589 EL Guish Rd., Miami, Alexandria"
},
		{	"profileId":"536539",
	"profileURL":"//www.yellowpages.com.eg/en/profile/abou-zeyada-pharmacies/536539?b=26&k=16027&l=search",
	"arName":"443 ح ش الجيش, حدائق الاهرام, الهرم, الجيزة",
	"lat":"29.973441999999999",
	"lng":"31.090890999999999",
	"enName":"443 H El Guish St., Hadayek El Ahram, El haram, Giza"
},
		{	"profileId":"237689",
	"profileURL":"//www.yellowpages.com.eg/en/profile/abou-zeyada-pharmacies/237689?b=57&k=16027&l=search",
	"arName":"88 ش عبد السلام عارف, جليم, الاسكندرية",
	"lat":"31.239581999999999",
	"lng":"29.959792",
	"enName":"88 Abdel Salam Aref St., Glim, Alexandria"
},
		{	"profileId":"561670",
	"profileURL":"//www.yellowpages.com.eg/en/profile/abou-zeyada-pharmacies/561670?b=30&k=16027&l=search",
	"arName":"ش 20 تقاطع ش السوق, باكوس, الاسكندرية",
	"lat":"31.22803",
	"lng":"29.974236000000001",
	"enName":"Rd. 20 Intersection Of El Souk St., Bakoos, Alexandria"
},
		{	"profileId":"536473",
	"profileURL":"//www.yellowpages.com.eg/en/profile/abou-zeyada-pharmacies/536473?b=12&k=16027&l=search",
	"arName":"5107 ش 9 تقاطع ش المقطم, المقطم, القاهرة",
	"lat":"30.012599999999999",
	"lng":"31.290800000000001",
	"enName":"5107 Rd. 9 Intersection Of Mokattam St., Mokattam, Cairo"
},
		{	"profileId":"151161",
	"profileURL":"//www.yellowpages.com.eg/en/profile/abou-zeyada-pharmacies/151161?b=33&k=16027&l=search",
	"arName":"25 ش عثمان محمد متفرع من ش المديرية - برج القصراوى, طنطا, الغربية",
	"lat":"30.7869581",
	"lng":"30.990779199999999",
	"enName":"25 Othman Mohamed St. Off El Modereya St., El Kasrawy Tower, Tanta, El gharbeya"
},
		{	"profileId":"453066",
	"profileURL":"//www.yellowpages.com.eg/en/profile/abou-zeyada-pharmacies/453066?b=36&k=16027&l=search",
	"arName":"22 ش الامل متفرع من ش الامير لؤلؤ, القبارى, الاسكندرية",
	"lat":"31.166530000000002",
	"lng":"29.877777999999999",
	"enName":"22 El Amal St. Off El Amir Loualoa St., El kabbari, Alexandria"
},
		{	"profileId":"129135",
	"profileURL":"//www.yellowpages.com.eg/en/profile/abou-zeyada-pharmacies/129135?b=67&k=16027&l=search",
	"arName":"16 ش قناة السويس, محرم بك, الاسكندرية",
	"lat":"31.191977000000001",
	"lng":"29.923525999999999",
	"enName":"16 Suez Canal St., Moharram bey, Alexandria"
},
		{	"profileId":"38397",
	"profileURL":"//www.yellowpages.com.eg/en/profile/abou-zeyada-pharmacies/38397?b=41&k=16027&l=search",
	"arName":"18 ش خليل حمادة, سيدى بشر قبلى, الاسكندرية",
	"lat":"31.260439000000002",
	"lng":"29.995342000000001",
	"enName":"18 Khalil Hamada St., Sidi beshr kebly, Alexandria"
},
		{	"profileId":"38036",
	"profileURL":"//www.yellowpages.com.eg/en/profile/abou-zeyada-pharmacies/38036?b=31&k=16027&l=search",
	"arName":"189 ش خالد بن الوليد, سيدى بشر, الاسكندرية",
	"lat":"31.265284999999999",
	"lng":"29.988624999999999",
	"enName":"189 Khaled Ibn El Walid St., Sidi beshr, Alexandria"
},
		{	"profileId":"536557",
	"profileURL":"//www.yellowpages.com.eg/en/profile/abou-zeyada-pharmacies/536557?b=6&k=16027&l=search",
	"arName":"10 ش احمد تيسير متفرع من ش الميرغنى, كلية البنات, مصر الجديدة, القاهرة",
	"lat":"30.082996999999999",
	"lng":"31.328887000000002",
	"enName":"10 Ahmed Tayseer St. Off El Merghany St., koleyet El Banat, Heliopolis, Cairo"
},
		{	"profileId":"221210",
	"profileURL":"//www.yellowpages.com.eg/en/profile/abou-zeyada-pharmacies/221210?b=44&k=16027&l=search",
	"arName":"2 ش ابن مرشد متفرع من ش الاسلامى, الورديان, الاسكندرية",
	"lat":"31.162837",
	"lng":"29.866876999999999",
	"enName":"2 Ibn Morshed St. Off El Islamy St., Wardeyan, Alexandria"
},
		{	"profileId":"536390",
	"profileURL":"//www.yellowpages.com.eg/en/profile/abou-zeyada-pharmacies/536390?b=18&k=16027&l=search",
	"arName":"16 ش شريف الكبير متفرع من ش عبد العزيز, العتبة, القاهرة",
	"lat":"30.046399999999998",
	"lng":"31.251000000000001",
	"enName":"16 Sherif El Kabir St. Off Abdel Aziz St., Ataba, Cairo"
},
		{	"profileId":"518464",
	"profileURL":"//www.yellowpages.com.eg/en/profile/abou-zeyada-pharmacies/518464?b=11&k=16027&l=search",
	"arName":"27 ش العزيز بالله, حدائق الزيتون, القاهرة",
	"lat":"30.100940999999999",
	"lng":"31.313296000000001",
	"enName":"27 El Aziz Bellah St., Hadayek el zaitoun, Cairo"
},
		{	"profileId":"27956",
	"profileURL":"//www.yellowpages.com.eg/en/profile/abou-zeyada-pharmacies/27956?b=19&k=16027&l=search",
	"arName":"27 ش القفال, الورديان, الاسكندرية",
	"lat":"31.165479000000001",
	"lng":"29.871686",
	"enName":"27 El Qaffal St., Wardeyan, Alexandria"
},
		{	"profileId":"209903",
	"profileURL":"//www.yellowpages.com.eg/en/profile/abou-zeyada-pharmacies/209903?b=21&k=16027&l=search",
	"arName":"18 ش عرفان تقاطع ش الاسكندرانى, محرم بك, الاسكندرية",
	"lat":"31.187341",
	"lng":"29.910896000000001",
	"enName":"18 Erfan St. Intersection Of El Iskandarany St., Moharram bey, Alexandria"
},
		{	"profileId":"253027",
	"profileURL":"//www.yellowpages.com.eg/en/profile/abou-zeyada-pharmacies/253027?b=58&k=16027&l=search",
	"arName":"721 ش جمال عبد الناصر, المندرة البحرية, الاسكندرية",
	"lat":"31.280616999999999",
	"lng":"30.012280000000001",
	"enName":"721 Gamal Abdel Nasser St., El mandara el bahareya, Alexandria"
},
		{	"profileId":"115451",
	"profileURL":"//www.yellowpages.com.eg/en/profile/abou-zeyada-pharmacies/115451?b=66&k=16027&l=search",
	"arName":"179 ش ملك حفنى, سيدى بشر قبلى, الاسكندرية",
	"lat":"31.256195000000002",
	"lng":"29.993380999999999",
	"enName":"179 Malak Hefny St., Sidi beshr kebly, Alexandria"
},
		{	"profileId":"579715",
	"profileURL":"//www.yellowpages.com.eg/en/profile/abou-zeyada-pharmacies/579715?b=52&k=16027&l=search",
	"arName":"ش المديرية - برج المروة, طنطا, الغربية",
	"lat":"30.782907000000002",
	"lng":"30.995532000000001",
	"enName":"El Modereya St., El Marwa Tower, Tanta, El gharbeya"
},
		{	"profileId":"51036",
	"profileURL":"//www.yellowpages.com.eg/en/profile/abou-zeyada-pharmacies/51036?b=64&k=16027&l=search",
	"arName":"603 طريق الحرية, زيزينيا, الاسكندرية",
	"lat":"31.240295",
	"lng":"29.965907000000001",
	"enName":"603 El Horreya Rd., Zezenia, Alexandria"
},
		{	"profileId":"215506",
	"profileURL":"//www.yellowpages.com.eg/en/profile/abou-zeyada-pharmacies/215506?b=22&k=16027&l=search",
	"arName":"3 ش مسجد حجاج متفرع من ش محرم بك, محرم بك, الاسكندرية",
	"lat":"31.191499",
	"lng":"29.906697999999999",
	"enName":"3 Masged Haggag St. Off Moharram Bey St., Moharram bey, Alexandria"
},
		{	"profileId":"536509",
	"profileURL":"//www.yellowpages.com.eg/en/profile/abou-zeyada-pharmacies/536509?b=69&k=16027&l=search",
	"arName":"31 ميدان المساحة, الدقى, الجيزة",
	"lat":"30.037763999999999",
	"lng":"31.216671999999999",
	"enName":"31 El Messaha Sq., Dokki, Giza"
}
	]
}]}