{"items":[{	"arName":"شاورما الريم",
	"enName":"Shawerma El Reem",
	"hotline":"16068",
	"facebook":"http://www.facebook.com/SHAWERMAELREEM",
	"web":"http://www.shawermaelreem.com/",
	"arCategory":[
		"وجبات سريعة",
		"مطاعم",
		"مطاعم صالات طعام",
		"فنادق ومطاعم شركات ادارة"
	],
	"enCategories":[
		"Fast Food",
		"Restaurants",
		"Restaurants Eat Out",
		"Hotel & Restaurant Management"
	],
	"contacts":[
		{	"profileId":"403269",
	"profileURL":"//www.yellowpages.com.eg/en/profile/shawerma-el-reem/403269?b=2&k=16068&l=search",
	"arName":"36 ش الاهرام, الكوربة, مصر الجديدة, القاهرة",
	"lat":"30.092762",
	"lng":"31.323212000000002",
	"enName":"36 El Ahram St., El Korba, Heliopolis, Cairo"
},
		{	"profileId":"354653",
	"profileURL":"//www.yellowpages.com.eg/en/profile/shawerma-el-reem/354653?b=17&k=16068&l=search",
	"arName":"32 ش الهرم, مشعل, الهرم, الجيزة",
	"lat":"29.987804000000001",
	"lng":"31.143408999999998",
	"enName":"32 Haram St., Mashaal, El haram, Giza"
},
		{	"profileId":"372857",
	"profileURL":"//www.yellowpages.com.eg/en/profile/shawerma-el-reem/372857?b=16&k=16068&l=search",
	"arName":"كم 82.5 -, طريق اسكندرية مطروح الصحراوى, الساحل الشمالى",
	"lat":"30.822273599999999",
	"lng":"29.173159399999999",
	"enName":"Km 82.5,, Alex. matrouh desert rd., North coast"
},
		{	"profileId":"353366",
	"profileURL":"//www.yellowpages.com.eg/en/profile/shawerma-el-reem/353366?b=5&k=16068&l=search",
	"arName":"3 ش 269 متفرع من ش النصر, المعادى الجديدة, المعادى, القاهرة",
	"lat":"29.974978",
	"lng":"31.279900999999999",
	"enName":"3 Rd. 269 Off El Nasr St., New Maadi, Maadi, Cairo"
},
		{	"profileId":"447000",
	"profileURL":"//www.yellowpages.com.eg/en/profile/shawerma-el-reem/447000?b=14&k=16068&l=search",
	"arName":"كم 105 - طريق اسكندرية مطروح الصحراوى - مارينا 3, مارينا, الساحل الشمالى",
	"lat":"30.825603300000001",
	"lng":"29.003955900000001",
	"enName":"Km 105, Alex Matrouh Desert Rd., Marina 3, Marina, North coast"
},
		{	"profileId":"173816",
	"profileURL":"//www.yellowpages.com.eg/en/profile/shawerma-el-reem/173816?b=1&k=16068&l=search",
	"arName":"145 ش النزهة, سانت فاتيما, مصر الجديدة, القاهرة",
	"lat":"30.106531",
	"lng":"31.344525000000001",
	"enName":"145 El Nozha St., Saint Fatima, Heliopolis, Cairo"
},
		{	"profileId":"354711",
	"profileURL":"//www.yellowpages.com.eg/en/profile/shawerma-el-reem/354711?b=9&k=16068&l=search",
	"arName":"4 ب عمارات الشرق للتأمين -, الحى السابع, مدينة نصر, القاهرة",
	"lat":"30.051859",
	"lng":"31.335709000000001",
	"enName":"4 B El Sharq Lel Taamin Bldgs.,, 7th District, Nasr city, Cairo"
},
		{	"profileId":"398092",
	"profileURL":"//www.yellowpages.com.eg/en/profile/shawerma-el-reem/398092?b=3&k=16068&l=search",
	"arName":"5 عمارات مصر للتعمير - ش انقرة, مساكن شيراتون, مصر الجديدة, القاهرة",
	"lat":"30.104689",
	"lng":"31.380106000000001",
	"enName":"5 Misr Lel Taamir Bldgs., Anqara St., Sheraton Bldgs., Heliopolis, Cairo"
},
		{	"profileId":"227660",
	"profileURL":"//www.yellowpages.com.eg/en/profile/shawerma-el-reem/227660?b=8&k=16068&l=search",
	"arName":"6 ش حافظ رمضان متفرع من ش احمد فخرى, المنطقة السادسة, مدينة نصر, القاهرة",
	"lat":"30.068612999999999",
	"lng":"31.350849",
	"enName":"6 Hafez Ramadan St. Off Ahmed Fakhry St., 6th Zone, Nasr city, Cairo"
},
		{	"profileId":"582218",
	"profileURL":"//www.yellowpages.com.eg/en/profile/shawerma-el-reem/582218?b=13&k=16068&l=search",
	"arName":"219 ش فيصل, التعاون, فيصل, الجيزة",
	"lat":"29.998799999999999",
	"lng":"31.161300000000001",
	"enName":"219 Faisal St., El Taawon, Faisal, Giza"
},
		{	"profileId":"177777",
	"profileURL":"//www.yellowpages.com.eg/en/profile/shawerma-el-reem/177777?b=6&k=16068&l=search",
	"arName":"76 ش عبد العزيز فهمى, سانت فاتيما, مصر الجديدة, القاهرة",
	"lat":"30.104965",
	"lng":"31.345427000000001",
	"enName":"76 Abdel Aziz Fahmy St., Saint Fatima, Heliopolis, Cairo"
},
		{	"profileId":"474224",
	"profileURL":"//www.yellowpages.com.eg/en/profile/shawerma-el-reem/474224?b=7&k=16068&l=search",
	"arName":"ش 9 - المنطقة ج, المقطم, القاهرة",
	"lat":"30.012136999999999",
	"lng":"31.300245",
	"enName":"Rd. 9, Zone C, Mokattam, Cairo"
},
		{	"profileId":"438764",
	"profileURL":"//www.yellowpages.com.eg/en/profile/shawerma-el-reem/438764?b=12&k=16068&l=search",
	"arName":"1 ش الدقى, الدقى, الجيزة",
	"lat":"30.031102000000001",
	"lng":"31.212575999999999",
	"enName":"1 Dokki St., Dokki, Giza"
},
		{	"profileId":"398087",
	"profileURL":"//www.yellowpages.com.eg/en/profile/shawerma-el-reem/398087?b=15&k=16068&l=search",
	"arName":"122 ش الجيش, حى الافرنج, الاسماعيلية",
	"lat":"30.589374400000001",
	"lng":"32.272458100000001",
	"enName":"122 El Guish St., El afrang district, Ismaileya"
},
		{	"profileId":"582215",
	"profileURL":"//www.yellowpages.com.eg/en/profile/shawerma-el-reem/582215?b=11&k=16068&l=search",
	"arName":"القطعة 1/1 - المحور المركزى, الحى الاول, السادس من اكتوبر, الجيزة",
	"lat":"29.973775",
	"lng":"30.946812999999999",
	"enName":"Plot 1/1, Central Spine, 1st District, 6th of october, Giza"
},
		{	"profileId":"454523",
	"profileURL":"//www.yellowpages.com.eg/en/profile/shawerma-el-reem/454523?b=10&k=16068&l=search",
	"arName":"خدمة توصيل الطلبات للمنازل, سانت فاتيما, مصر الجديدة, القاهرة",
	"lat":"",
	"lng":"",
	"enName":"Home Delivery, Saint Fatima, Heliopolis, Cairo"
},
		{	"profileId":"582221",
	"profileURL":"//www.yellowpages.com.eg/en/profile/shawerma-el-reem/582221?b=4&k=16068&l=search",
	"arName":"الرحاب 2 - السوق الشرقى - قطاع ج, مدينة الرحاب, القاهرة",
	"lat":"30.070668000000001",
	"lng":"31.516852",
	"enName":"El Rehab 2, Eastern Market, Sector C, Al rehab city, Cairo"
}
	]
}]}