{"items":[{	"arName":"اور كيدز - ملابس ولعب الاطفال",
	"enName":"Our Kids - Toys & Clothing Stores",
	"hotline":"16074",
	"facebook":"http://www.facebook.com/ourkids.eg",
	"web":"http://www.ourkids-eg.com/",
	"arCategory":[
		"لعب",
		"ملابس - تسوق",
		"اطفال - ملابس ومستلزمات"
	],
	"enCategories":[
		"Toys",
		"Clothing - Shopping",
		"Kids Clothing & Accessories"
	],
	"contacts":[
		{	"profileId":"453264",
	"profileURL":"//www.yellowpages.com.eg/en/profile/our-kids-_-toys-&-clothing-stores/453264?b=5&k=16074&l=search",
	"arName":"خدمة العملاء, الدقى, الجيزة",
	"lat":"",
	"lng":"",
	"enName":"Customer Service, Dokki, Giza"
},
		{	"profileId":"302282",
	"profileURL":"//www.yellowpages.com.eg/en/profile/our-kids-_-toys-&-clothing-stores/302282?b=2&k=16074&l=search",
	"arName":"11 و/6 ش اللاسلكى امتداد ش النصر, المعادى الجديدة, المعادى, القاهرة",
	"lat":"29.977510800000001",
	"lng":"31.2889412",
	"enName":"11 W/6 El Laselky St. Extension Of El Nasr St., New Maadi, Maadi, Cairo"
},
		{	"profileId":"5434",
	"profileURL":"//www.yellowpages.com.eg/en/profile/our-kids-_-toys-&-clothing-stores/5434?b=1&k=16074&l=search",
	"arName":"5 ميدان المساحة, الدقى, الجيزة",
	"lat":"30.035311",
	"lng":"31.214545999999999",
	"enName":"5 El Messaha Sq., Dokki, Giza"
},
		{	"profileId":"71780",
	"profileURL":"//www.yellowpages.com.eg/en/profile/our-kids-_-toys-&-clothing-stores/71780?b=4&k=16074&l=search",
	"arName":"26 ش عبد العزيز عيسى متفرع من ش مصطفى النحاس, الحى الثامن, مدينة نصر, القاهرة",
	"lat":"30.056011999999999",
	"lng":"31.365928",
	"enName":"26 Abdel Aziz Eissa St. Off Mostafa El Nahhas St., 8th District, Nasr city, Cairo"
},
		{	"profileId":"465438",
	"profileURL":"//www.yellowpages.com.eg/en/profile/our-kids-_-toys-&-clothing-stores/465438?b=6&k=16074&l=search",
	"arName":"ش عبد المنعم رياض, الحى المتميز, السادس من اكتوبر, الجيزة",
	"lat":"29.991496999999999",
	"lng":"30.966522000000001",
	"enName":"Abdel Moneim Riad St., El Motamayez District, 6th of october, Giza"
},
		{	"profileId":"451596",
	"profileURL":"//www.yellowpages.com.eg/en/profile/our-kids-_-toys-&-clothing-stores/451596?b=3&k=16074&l=search",
	"arName":"محور السادات, التجمع الاول, القاهرة الجديدة, القاهرة",
	"lat":"30.053051",
	"lng":"31.488731999999999",
	"enName":"El Sadat Spine, 1st Compound, New cairo, Cairo"
}
	]
}]}