{"items":[{	"arName":"اكاديمية يوسى ماس الدولية",
	"enName":"UCMAS International Academy",
	"hotline":"16145",
	"facebook":"http://www.facebook.com/UCMASEgypt",
	"web":"http://www.ucmasegypt.org/",
	"arCategory":[
		"مدارس متخصصة ومراكز تدريب"
	],
	"enCategories":[
		"Schools - Specialized & Training Centers"
	],
	"contacts":[
		{	"profileId":"323157",
	"profileURL":"//www.yellowpages.com.eg/en/profile/ucmas-international-academy/323157?b=1&k=16145&l=search",
	"arName":"خدمة العملاء, ميدان هليوبوليس, مصر الجديدة, القاهرة",
	"lat":"",
	"lng":"",
	"enName":"Customer Service, Heliopolis Square, Heliopolis, Cairo"
},
		{	"profileId":"135843",
	"profileURL":"//www.yellowpages.com.eg/en/profile/ucmas-international-academy/135843?b=3&k=16145&l=search",
	"arName":"48 ش 104 ميدان الاتحاد, حدائق المعادى, المعادى, القاهرة",
	"lat":"29.963605999999999",
	"lng":"31.250851999999998",
	"enName":"48 Rd. 104 El Ethad Sq., Hadayek El Maadi, Maadi, Cairo"
},
		{	"profileId":"545712",
	"profileURL":"//www.yellowpages.com.eg/en/profile/ucmas-international-academy/545712?b=17&k=16145&l=search",
	"arName":"9 ش كورنيش النيل, حى شرق, سوهاج",
	"lat":"",
	"lng":"",
	"enName":"9 Corniche El Nil St., Shark district, Sohag"
},
		{	"profileId":"131703",
	"profileURL":"//www.yellowpages.com.eg/en/profile/ucmas-international-academy/131703?b=5&k=16145&l=search",
	"arName":"88 ش الحجاز, ميدان هليوبوليس, مصر الجديدة, القاهرة",
	"lat":"30.109089999999998",
	"lng":"31.339713",
	"enName":"88 El Hegaz St., Heliopolis Square, Heliopolis, Cairo"
},
		{	"profileId":"225547",
	"profileURL":"//www.yellowpages.com.eg/en/profile/ucmas-international-academy/225547?b=15&k=16145&l=search",
	"arName":"27 ميدان فيكتور عمانويل, سموحة, الاسكندرية",
	"lat":"31.213723999999999",
	"lng":"29.937808",
	"enName":"27 Victor Emanuel Sq., Semouha, Alexandria"
},
		{	"profileId":"225525",
	"profileURL":"//www.yellowpages.com.eg/en/profile/ucmas-international-academy/225525?b=29&k=16145&l=search",
	"arName":"630 طريق الحرية, جناكليس, الاسكندرية",
	"lat":"31.242301999999999",
	"lng":"29.968223999999999",
	"enName":"630 El Horreya Rd., Ganaklis, Alexandria"
},
		{	"profileId":"534144",
	"profileURL":"//www.yellowpages.com.eg/en/profile/ucmas-international-academy/534144?b=25&k=16145&l=search",
	"arName":"8 ش الفاتح, طنطا, الغربية",
	"lat":"30.792776",
	"lng":"30.988864",
	"enName":"8 El Fateh St., Tanta, El gharbeya"
},
		{	"profileId":"226437",
	"profileURL":"//www.yellowpages.com.eg/en/profile/ucmas-international-academy/226437?b=16&k=16145&l=search",
	"arName":"كم 17.5 - طريق اسكندرية مطروح, الهانوفيل, الاسكندرية",
	"lat":"",
	"lng":"",
	"enName":"Km 17.5, Alex Matrouh Rd., Hannoville, Alexandria"
},
		{	"profileId":"225527",
	"profileURL":"//www.yellowpages.com.eg/en/profile/ucmas-international-academy/225527?b=21&k=16145&l=search",
	"arName":"325 طريق الحرية, سيدى جابر, الاسكندرية",
	"lat":"31.217317999999999",
	"lng":"29.939661999999998",
	"enName":"325 El Horreya Rd., Sidi gaber, Alexandria"
},
		{	"profileId":"225549",
	"profileURL":"//www.yellowpages.com.eg/en/profile/ucmas-international-academy/225549?b=30&k=16145&l=search",
	"arName":"65 ش محرم بك, محرم بك, الاسكندرية",
	"lat":"31.196362000000001",
	"lng":"29.916142000000001",
	"enName":"65 Moharram Bey St., Moharram bey, Alexandria"
},
		{	"profileId":"533945",
	"profileURL":"//www.yellowpages.com.eg/en/profile/ucmas-international-academy/533945?b=4&k=16145&l=search",
	"arName":"فيلا 38 - ش رفعت الجمال - الحى السابع, مدينة الشروق, القاهرة",
	"lat":"",
	"lng":"",
	"enName":"Villa 38, Refaat El Gamal St., 7th District, El sherouk city, Cairo"
},
		{	"profileId":"533987",
	"profileURL":"//www.yellowpages.com.eg/en/profile/ucmas-international-academy/533987?b=23&k=16145&l=search",
	"arName":"11 ش عبد الجليل سعد, لوران, الاسكندرية",
	"lat":"31.247364999999999",
	"lng":"29.974986999999999",
	"enName":"11 Abdel Galil Saad St., Loran, Alexandria"
},
		{	"profileId":"437653",
	"profileURL":"//www.yellowpages.com.eg/en/profile/ucmas-international-academy/437653?b=7&k=16145&l=search",
	"arName":"ش الصفا متفرع من ش معهد الجزيرة, المقطم, القاهرة",
	"lat":"",
	"lng":"",
	"enName":"El Safa St. Off Maahad El Gezirah St., Mokattam, Cairo"
},
		{	"profileId":"173211",
	"profileURL":"//www.yellowpages.com.eg/en/profile/ucmas-international-academy/173211?b=2&k=16145&l=search",
	"arName":"2 ش النصر, المعادى الجديدة, المعادى, القاهرة",
	"lat":"29.972743999999999",
	"lng":"31.271045999999998",
	"enName":"2 El Nasr St., New Maadi, Maadi, Cairo"
},
		{	"profileId":"173256",
	"profileURL":"//www.yellowpages.com.eg/en/profile/ucmas-international-academy/173256?b=26&k=16145&l=search",
	"arName":"6 ميدان ابن عفان, الدقى, الجيزة",
	"lat":"30.042379",
	"lng":"31.201667",
	"enName":"6 Ibn Affan Sq., Dokki, Giza"
},
		{	"profileId":"437656",
	"profileURL":"//www.yellowpages.com.eg/en/profile/ucmas-international-academy/437656?b=10&k=16145&l=search",
	"arName":"4 ش الاتربى ابو العز, جسر السويس, القاهرة",
	"lat":"30.116109000000002",
	"lng":"31.337039000000001",
	"enName":"4 El Etreby Abou El Ezz St., Gesr el suez, Cairo"
},
		{	"profileId":"199822",
	"profileURL":"//www.yellowpages.com.eg/en/profile/ucmas-international-academy/199822?b=8&k=16145&l=search",
	"arName":"1 ش المنتزة ميدان محمد شفيق, ميدان هليوبوليس, مصر الجديدة, القاهرة",
	"lat":"30.105526000000001",
	"lng":"31.338263000000001",
	"enName":"1 El Montazah St. Mohamed Shafiq Sq., Heliopolis Square, Heliopolis, Cairo"
},
		{	"profileId":"173296",
	"profileURL":"//www.yellowpages.com.eg/en/profile/ucmas-international-academy/173296?b=11&k=16145&l=search",
	"arName":"12 ش فاطمة الزهراء, دمنهور, البحيرة",
	"lat":"31.043453",
	"lng":"30.467143",
	"enName":"12 Fatema El Zahraa St., Damanhour, El beheira"
},
		{	"profileId":"173293",
	"profileURL":"//www.yellowpages.com.eg/en/profile/ucmas-international-academy/173293?b=18&k=16145&l=search",
	"arName":"ش نادى الصيد, الدقى, الجيزة",
	"lat":"30.043066",
	"lng":"31.201947000000001",
	"enName":"Nady El Seid St., Dokki, Giza"
},
		{	"profileId":"437657",
	"profileURL":"//www.yellowpages.com.eg/en/profile/ucmas-international-academy/437657?b=27&k=16145&l=search",
	"arName":"357 ش السودان, المهندسين, الجيزة",
	"lat":"30.070450000000001",
	"lng":"31.198831999999999",
	"enName":"357 Sudan St., Mohandeseen, Giza"
},
		{	"profileId":"534137",
	"profileURL":"//www.yellowpages.com.eg/en/profile/ucmas-international-academy/534137?b=24&k=16145&l=search",
	"arName":"عمارة مهندسى الرى - ش الغنام, المحلة الكبرى, الغربية",
	"lat":"30.974629",
	"lng":"31.172053999999999",
	"enName":"Mohandesi El Ray Bldg., El Ghannam St., El mahalla el kobra, El gharbeya"
},
		{	"profileId":"225414",
	"profileURL":"//www.yellowpages.com.eg/en/profile/ucmas-international-academy/225414?b=19&k=16145&l=search",
	"arName":"5 ش بنى عامر متفرع من ش مراد, الجيزة, الجيزة",
	"lat":"30.019969",
	"lng":"31.214877000000001",
	"enName":"5 Bani Amer St. Off Mourad St., Giza, Giza"
},
		{	"profileId":"225515",
	"profileURL":"//www.yellowpages.com.eg/en/profile/ucmas-international-academy/225515?b=20&k=16145&l=search",
	"arName":"6 أ ش خالد امين متفرع من ش التعاون, التعاون, الهرم, الجيزة",
	"lat":"29.996438000000001",
	"lng":"31.159455999999999",
	"enName":"6 A Khaled Amin St. Off El Taawon St., El Taawon, El haram, Giza"
},
		{	"profileId":"533955",
	"profileURL":"//www.yellowpages.com.eg/en/profile/ucmas-international-academy/533955?b=28&k=16145&l=search",
	"arName":"88 ش الاندلس المجاورة السابعة, العاشر من رمضان, الشرقية",
	"lat":"30.298563000000001",
	"lng":"31.736211000000001",
	"enName":"88 El Andalus St. 7th Neighbourhood, 10th of ramadan, El sharkeya"
},
		{	"profileId":"225543",
	"profileURL":"//www.yellowpages.com.eg/en/profile/ucmas-international-academy/225543?b=12&k=16145&l=search",
	"arName":"269 ش جمال عبد الناصر, ميامى, الاسكندرية",
	"lat":"31.264156",
	"lng":"29.996435999999999",
	"enName":"269 Gamal Abdel Nasser St., Miami, Alexandria"
},
		{	"profileId":"225421",
	"profileURL":"//www.yellowpages.com.eg/en/profile/ucmas-international-academy/225421?b=6&k=16145&l=search",
	"arName":"14 ش جمال الدين عفيفى متفرع من ش حسن المأمون, مدينة نصر, القاهرة",
	"lat":"30.064713000000001",
	"lng":"31.354212",
	"enName":"14 Gamal El Din Afify St. Off Hassan El Maamoun St., Nasr city, Cairo"
},
		{	"profileId":"551921",
	"profileURL":"//www.yellowpages.com.eg/en/profile/ucmas-international-academy/551921?b=9&k=16145&l=search",
	"arName":"المجاورة الثالثة, مدينة 15 مايو, القاهرة",
	"lat":"29.830137000000001",
	"lng":"31.367146999999999",
	"enName":"3rd Neighbourhood, 15th of may city, Cairo"
},
		{	"profileId":"225542",
	"profileURL":"//www.yellowpages.com.eg/en/profile/ucmas-international-academy/225542?b=14&k=16145&l=search",
	"arName":"253 ش جمال عبد الناصر, ميامى, الاسكندرية",
	"lat":"31.263182",
	"lng":"29.995023",
	"enName":"253 Gamal Abdel Nasser St., Miami, Alexandria"
},
		{	"profileId":"173283",
	"profileURL":"//www.yellowpages.com.eg/en/profile/ucmas-international-academy/173283?b=31&k=16145&l=search",
	"arName":"247 ش جمال عبد الناصر - الدور 3, ميامى, الاسكندرية",
	"lat":"31.262913000000001",
	"lng":"29.994758000000001",
	"enName":"247 Gamal Abdel Nasser St., Floor 3, Miami, Alexandria"
},
		{	"profileId":"437662",
	"profileURL":"//www.yellowpages.com.eg/en/profile/ucmas-international-academy/437662?b=13&k=16145&l=search",
	"arName":"11 ش ابو حازم متفرع من ش الهرم, الطالبية, الهرم, الجيزة",
	"lat":"30.004607",
	"lng":"31.184405000000002",
	"enName":"11 Abou Hazem St. Off Haram St., El Talbeya, El haram, Giza"
},
		{	"profileId":"533937",
	"profileURL":"//www.yellowpages.com.eg/en/profile/ucmas-international-academy/533937?b=22&k=16145&l=search",
	"arName":"1 ش اللواء على هلال ابو الدهب متفرع من طريق مصر اسيوط الزراعى, الحوامدية, الجيزة",
	"lat":"29.901409999999998",
	"lng":"31.270555000000002",
	"enName":"1 El Lewaa Aly Helal Abou El Dahab St. Off Misr Asiout Agricultural Rd., El hawamdeya, Giza"
}
	]
}]}