{"items":[{	"arName":"معامل النخبة للتحاليل الطبية",
	"enName":"El Nokhba Laboratories",
	"hotline":"16435",
	"facebook":"",
	"web":"http://www.alnokhbalabsghgroup.com/",
	"arCategory":[
		"معامل طبية"
	],
	"enCategories":[
		"Laboratories Medical"
	],
	"contacts":[
		{	"profileId":"452197",
	"profileURL":"//www.yellowpages.com.eg/en/profile/el-nokhba-laboratories/452197?b=9&k=16435&l=search",
	"arName":"91 ش محمد فريد, ميدان الحجاز, مصر الجديدة, القاهرة",
	"lat":"30.114015999999999",
	"lng":"31.342403000000001",
	"enName":"91 Mohamed Farid St., Hegaz Square, Heliopolis, Cairo"
},
		{	"profileId":"239594",
	"profileURL":"//www.yellowpages.com.eg/en/profile/el-nokhba-laboratories/239594?b=11&k=16435&l=search",
	"arName":"1 ش المنشية تقاطع ش كعبيش - الدور 3, الطوابق, فيصل, الجيزة",
	"lat":"29.998605999999999",
	"lng":"31.159472999999998",
	"enName":"1 El Mansheya St. Intersection Of Kaabish St., Floor 3, El Tawabeq, Faisal, Giza"
},
		{	"profileId":"452182",
	"profileURL":"//www.yellowpages.com.eg/en/profile/el-nokhba-laboratories/452182?b=14&k=16435&l=search",
	"arName":"45 ش الدقى - الدور 2, الدقى, الجيزة",
	"lat":"30.037752000000001",
	"lng":"31.211707000000001",
	"enName":"45 Dokki St., Floor 2, Dokki, Giza"
},
		{	"profileId":"452194",
	"profileURL":"//www.yellowpages.com.eg/en/profile/el-nokhba-laboratories/452194?b=15&k=16435&l=search",
	"arName":"مبارك 2, الكوثر, الغردقة",
	"lat":"27.194019999999998",
	"lng":"33.829312999999999",
	"enName":"Mubarak 2, El kawther, Hurghada"
},
		{	"profileId":"153308",
	"profileURL":"//www.yellowpages.com.eg/en/profile/el-nokhba-laboratories/153308?b=4&k=16435&l=search",
	"arName":"47 ش كليوباترا متفرع من ميدان صلاح الدين - عمارة سنتر حورس, ميدان الجامع, مصر الجديدة, القاهرة",
	"lat":"30.09469",
	"lng":"31.329930000000001",
	"enName":"47 Cleopatra St. Off Salah El Din Sq., Horas Center Bldg., El Gamea Square, Heliopolis, Cairo"
},
		{	"profileId":"574592",
	"profileURL":"//www.yellowpages.com.eg/en/profile/el-nokhba-laboratories/574592?b=17&k=16435&l=search",
	"arName":"66 ش جامعة الدول العربية, المهندسين, الجيزة",
	"lat":"30.050386",
	"lng":"31.199546999999999",
	"enName":"66 Gamaet El Dewal El Arabeya St., Mohandeseen, Giza"
},
		{	"profileId":"574562",
	"profileURL":"//www.yellowpages.com.eg/en/profile/el-nokhba-laboratories/574562?b=8&k=16435&l=search",
	"arName":"19 ش المهندس محمد ابو الليل متفرع من ش شمس الدين الذهبى, كلية البنات, مصر الجديدة, القاهرة",
	"lat":"30.08146",
	"lng":"31.33248",
	"enName":"19 El Mohandes Mohamed Abou El Lail St. Off Shams El Din El Zahaby St., koleyet El Banat, Heliopolis, Cairo"
},
		{	"profileId":"315878",
	"profileURL":"//www.yellowpages.com.eg/en/profile/el-nokhba-laboratories/315878?b=5&k=16435&l=search",
	"arName":"19 ش البستان متفرع من ش طلعت حرب, وسط البلد, القاهرة",
	"lat":"30.045256999999999",
	"lng":"31.238641999999999",
	"enName":"19 El Bostan St. Off Talaat Harb St., Downtown, Cairo"
},
		{	"profileId":"574596",
	"profileURL":"//www.yellowpages.com.eg/en/profile/el-nokhba-laboratories/574596?b=13&k=16435&l=search",
	"arName":"244 ش السودان - الدور 2, امبابة, الجيزة",
	"lat":"30.063120000000001",
	"lng":"31.18976",
	"enName":"244 El Sudan St., Floor 2, Imbaba, Giza"
},
		{	"profileId":"574014",
	"profileURL":"//www.yellowpages.com.eg/en/profile/el-nokhba-laboratories/574014?b=2&k=16435&l=search",
	"arName":"خدمة العملاء, ميدان الجامع, مصر الجديدة, القاهرة",
	"lat":"",
	"lng":"",
	"enName":"Customer Service, El Gamea Square, Heliopolis, Cairo"
},
		{	"profileId":"574487",
	"profileURL":"//www.yellowpages.com.eg/en/profile/el-nokhba-laboratories/574487?b=3&k=16435&l=search",
	"arName":"119 ش عبد القادر الجرجانى, الحى السابع, مدينة نصر, القاهرة",
	"lat":"30.0423051",
	"lng":"31.339061999999998",
	"enName":"119 Abdel Qader El Gergany St., 7th District, Nasr city, Cairo"
},
		{	"profileId":"574586",
	"profileURL":"//www.yellowpages.com.eg/en/profile/el-nokhba-laboratories/574586?b=16&k=16435&l=search",
	"arName":"14 ش عبد العزيز سليم متفرع من ش الثورة, الدقى, الجيزة",
	"lat":"30.048497999999999",
	"lng":"31.205082999999998",
	"enName":"14 Abdel Aziz Selim St. Off El Thawra St., Dokki, Giza"
},
		{	"profileId":"314766",
	"profileURL":"//www.yellowpages.com.eg/en/profile/el-nokhba-laboratories/314766?b=7&k=16435&l=search",
	"arName":"10 ش سمير عبد الرؤوف امتداد ش مكرم عبيد, الحى الثامن, مدينة نصر, القاهرة",
	"lat":"30.053117",
	"lng":"31.346744999999999",
	"enName":"10 Samir Abdel Raouf St. Extension Of Makram Ebaid St., 8th District, Nasr city, Cairo"
},
		{	"profileId":"574577",
	"profileURL":"//www.yellowpages.com.eg/en/profile/el-nokhba-laboratories/574577?b=12&k=16435&l=search",
	"arName":"29 ص طريق الواحات, حدائق الاهرام, الهرم, الجيزة",
	"lat":"29.948371000000002",
	"lng":"31.097702999999999",
	"enName":"29 S Oasis Rd., Hadayek El Ahram, El haram, Giza"
},
		{	"profileId":"574602",
	"profileURL":"//www.yellowpages.com.eg/en/profile/el-nokhba-laboratories/574602?b=6&k=16435&l=search",
	"arName":"96 ش مصطفى النحاس - برج الاطباء - الدور 4, المنطقة السادسة, مدينة نصر, القاهرة",
	"lat":"30.055820000000001",
	"lng":"31.355291999999999",
	"enName":"96 Mostafa El Nahhas St., El Atebaa Tower, Floor 4, 6th Zone, Nasr city, Cairo"
},
		{	"profileId":"196320",
	"profileURL":"//www.yellowpages.com.eg/en/profile/el-nokhba-laboratories/196320?b=10&k=16435&l=search",
	"arName":"21 ش البطل احمد عبد العزيز - الدور 2, المهندسين, الجيزة",
	"lat":"30.052828000000002",
	"lng":"31.207228000000001",
	"enName":"21 El Batal Ahmed Abdel Aziz St., Floor 2, Mohandeseen, Giza"
},
		{	"profileId":"452189",
	"profileURL":"//www.yellowpages.com.eg/en/profile/el-nokhba-laboratories/452189?b=1&k=16435&l=search",
	"arName":"1 ش دمشق متفرع من ميدان سوارس, المعادى, القاهرة",
	"lat":"29.963061199999999",
	"lng":"31.2649124",
	"enName":"1 Demascus St. Off Sawares Sq., Maadi, Cairo"
}
	]
}]}