{"items":[{	"arName":"كوستا كوفى",
	"enName":"Costa Coffee",
	"hotline":"16460",
	"facebook":"http://www.facebook.com/CostaCoffeeEgypt",
	"web":"http://www.americana-group.net/OUR-BRANDS/Restaurants/Costa-Coffee.aspx",
	"arCategory":[
		"مقاهى",
		"مطاعم",
		"مطاعم صالات طعام",
		"وجبات سريعة"
	],
	"enCategories":[
		"Cafes and Coffee Shops",
		"Restaurants",
		"Restaurants Eat Out",
		"Fast Food"
	],
	"contacts":[
		{	"profileId":"139627",
	"profileURL":"//www.yellowpages.com.eg/en/profile/costa-coffee/139627?b=36&k=16460&l=search",
	"arName":"مارينا 5, مارينا, الساحل الشمالى",
	"lat":"30.834458999999999",
	"lng":"28.963387000000001",
	"enName":"Marina 5, Marina, North coast"
},
		{	"profileId":"102162",
	"profileURL":"//www.yellowpages.com.eg/en/profile/costa-coffee/102162?b=15&k=16460&l=search",
	"arName":"16 ش الميرغنى, روكسى, مصر الجديدة, القاهرة",
	"lat":"30.090543",
	"lng":"31.315657999999999",
	"enName":"16 El Merghany St., Roxy, Heliopolis, Cairo"
},
		{	"profileId":"108745",
	"profileURL":"//www.yellowpages.com.eg/en/profile/costa-coffee/108745?b=31&k=16460&l=search",
	"arName":"كم 28 -, طريق القاهرة الاسكندرية الصحرا, طريق القاهرة الاسكندرية الصحراوى, الجيزة",
	"lat":"30.062851999999999",
	"lng":"31.027342999999998",
	"enName":"Km 28,, Cairo alex desert rd., Giza"
},
		{	"profileId":"113611",
	"profileURL":"//www.yellowpages.com.eg/en/profile/costa-coffee/113611?b=7&k=16460&l=search",
	"arName":"15 ش المرعشلى, الزمالك, القاهرة",
	"lat":"30.065097000000002",
	"lng":"31.221571999999998",
	"enName":"15 El Maraashly St., Zamalek, Cairo"
},
		{	"profileId":"129028",
	"profileURL":"//www.yellowpages.com.eg/en/profile/costa-coffee/129028?b=21&k=16460&l=search",
	"arName":"399 طريق الجيش, سان استيفانو, الاسكندرية",
	"lat":"31.245228000000001",
	"lng":"29.967646999999999",
	"enName":"399 El Guish Rd., San stefano, Alexandria"
},
		{	"profileId":"93776",
	"profileURL":"//www.yellowpages.com.eg/en/profile/costa-coffee/93776?b=10&k=16460&l=search",
	"arName":"37 ش عباس العقاد, المنطقة الاولى, مدينة نصر, القاهرة",
	"lat":"30.062543999999999",
	"lng":"31.336821",
	"enName":"37 Abbas El Akkad St., 1st Zone, Nasr city, Cairo"
},
		{	"profileId":"144183",
	"profileURL":"//www.yellowpages.com.eg/en/profile/costa-coffee/144183?b=17&k=16460&l=search",
	"arName":"73 ش 9, المعادى, القاهرة",
	"lat":"29.957052999999998",
	"lng":"31.260660999999999",
	"enName":"73 Rd. 9, Maadi, Cairo"
},
		{	"profileId":"447134",
	"profileURL":"//www.yellowpages.com.eg/en/profile/costa-coffee/447134?b=28&k=16460&l=search",
	"arName":"كم 129 - طريق اسكندرية مطروح الصحراوى, سيدى عبد الرحمن, الساحل الشمالى",
	"lat":"30.9790715",
	"lng":"28.752728000000001",
	"enName":"Km 129, Alex Matrouh Desert Rd., Sidi abdel rahman, North coast"
},
		{	"profileId":"441765",
	"profileURL":"//www.yellowpages.com.eg/en/profile/costa-coffee/441765?b=19&k=16460&l=search",
	"arName":"طريق النصر, مساكن شيراتون, مصر الجديدة, القاهرة",
	"lat":"30.091630500000001",
	"lng":"31.384119800000001",
	"enName":"El Nasr Rd., Sheraton Bldgs., Heliopolis, Cairo"
},
		{	"profileId":"144184",
	"profileURL":"//www.yellowpages.com.eg/en/profile/costa-coffee/144184?b=1&k=16460&l=search",
	"arName":"ش 250 ميدان المعادى جراند مول, المعادى, القاهرة",
	"lat":"29.965568999999999",
	"lng":"31.269704000000001",
	"enName":"Rd. 250 Maadi Grand Mall Sq., Maadi, Cairo"
},
		{	"profileId":"573196",
	"profileURL":"//www.yellowpages.com.eg/en/profile/costa-coffee/573196?b=35&k=16460&l=search",
	"arName":"ميدان ماجدة - المحور المركزى, السادس من اكتوبر, الجيزة",
	"lat":"29.974243999999999",
	"lng":"30.942354999999999",
	"enName":"Magda Sq., Central Spine, 6th of october, Giza"
},
		{	"profileId":"148236",
	"profileURL":"//www.yellowpages.com.eg/en/profile/costa-coffee/148236?b=18&k=16460&l=search",
	"arName":"ش عمر بن الخطاب, مصر الجديدة, القاهرة",
	"lat":"30.073430999999999",
	"lng":"31.347339000000002",
	"enName":"Omar Ibn El Khattab St., Heliopolis, Cairo"
},
		{	"profileId":"387013",
	"profileURL":"//www.yellowpages.com.eg/en/profile/costa-coffee/387013?b=27&k=16460&l=search",
	"arName":"امتداد محور 26 يوليو, الشيخ زايد, السادس من اكتوبر, الجيزة",
	"lat":"30.027032999999999",
	"lng":"31.013698999999999",
	"enName":"Extension Of 26Th Of July Spine, El Sheikh Zayed, 6th of october, Giza"
},
		{	"profileId":"359277",
	"profileURL":"//www.yellowpages.com.eg/en/profile/costa-coffee/359277?b=22&k=16460&l=search",
	"arName":"طريق 14 مايو, سموحة, الاسكندرية",
	"lat":"31.206814000000001",
	"lng":"29.964224999999999",
	"enName":"14th Of May Rd., Semouha, Alexandria"
},
		{	"profileId":"431272",
	"profileURL":"//www.yellowpages.com.eg/en/profile/costa-coffee/431272?b=3&k=16460&l=search",
	"arName":"الطريق الدائرى, كايرو فيستيفال, القاهرة الجديدة, القاهرة",
	"lat":"30.028863000000001",
	"lng":"31.407785000000001",
	"enName":"Ring Rd., Cairo Festival City, New cairo, Cairo"
},
		{	"profileId":"182737",
	"profileURL":"//www.yellowpages.com.eg/en/profile/costa-coffee/182737?b=30&k=16460&l=search",
	"arName":"45 ش مصدق, الدقى, الجيزة",
	"lat":"30.039724",
	"lng":"31.205683000000001",
	"enName":"45 Mossadak St., Dokki, Giza"
},
		{	"profileId":"175038",
	"profileURL":"//www.yellowpages.com.eg/en/profile/costa-coffee/175038?b=2&k=16460&l=search",
	"arName":"منطقة المطاعم - محل 5, مدينة الرحاب, القاهرة",
	"lat":"30.059080999999999",
	"lng":"31.489536000000001",
	"enName":"Food Court, Shop 5, Al rehab city, Cairo"
},
		{	"profileId":"431271",
	"profileURL":"//www.yellowpages.com.eg/en/profile/costa-coffee/431271?b=8&k=16460&l=search",
	"arName":"الطريق الدائرى, كايرو فيستيفال, القاهرة الجديدة, القاهرة",
	"lat":"30.028863000000001",
	"lng":"31.407785000000001",
	"enName":"Ring Rd., Cairo Festival City, New cairo, Cairo"
},
		{	"profileId":"468191",
	"profileURL":"//www.yellowpages.com.eg/en/profile/costa-coffee/468191?b=34&k=16460&l=search",
	"arName":"بفرلى هيلز, السادس من اكتوبر, الجيزة",
	"lat":"30.073081999999999",
	"lng":"30.946187999999999",
	"enName":"Beverly Hills, 6th of october, Giza"
},
		{	"profileId":"175054",
	"profileURL":"//www.yellowpages.com.eg/en/profile/costa-coffee/175054?b=29&k=16460&l=search",
	"arName":"274 طريق الجيش, ستانلى, الاسكندرية",
	"lat":"31.235590999999999",
	"lng":"29.950451999999999",
	"enName":"274 El Guish Rd., Stanly, Alexandria"
},
		{	"profileId":"173153",
	"profileURL":"//www.yellowpages.com.eg/en/profile/costa-coffee/173153?b=5&k=16460&l=search",
	"arName":"الطريق الدائرى - مدينة المعراج, زهراء المعادى, المعادى, القاهرة",
	"lat":"29.982492000000001",
	"lng":"31.316680999999999",
	"enName":"Ring Rd., El Mearag City, Zahraa El Maadi, Maadi, Cairo"
},
		{	"profileId":"175034",
	"profileURL":"//www.yellowpages.com.eg/en/profile/costa-coffee/175034?b=6&k=16460&l=search",
	"arName":"125 ش حسن المأمون, المنطقة السادسة, مدينة نصر, القاهرة",
	"lat":"30.068974000000001",
	"lng":"31.355934999999999",
	"enName":"125 Hassan El Maamoun St., 6th Zone, Nasr city, Cairo"
},
		{	"profileId":"159622",
	"profileURL":"//www.yellowpages.com.eg/en/profile/costa-coffee/159622?b=25&k=16460&l=search",
	"arName":"35 ش جامعة الدول العربية, المهندسين, الجيزة",
	"lat":"30.059459",
	"lng":"31.206883999999999",
	"enName":"35 Gamaet El Dewal El Arabeya St., Mohandeseen, Giza"
},
		{	"profileId":"578097",
	"profileURL":"//www.yellowpages.com.eg/en/profile/costa-coffee/578097?b=9&k=16460&l=search",
	"arName":"., مدينة الرحاب, القاهرة",
	"lat":"30.054638000000001",
	"lng":"31.492152000000001",
	"enName":"., Al rehab city, Cairo"
},
		{	"profileId":"65757",
	"profileURL":"//www.yellowpages.com.eg/en/profile/costa-coffee/65757?b=12&k=16460&l=search",
	"arName":"ش عمر بن الخطاب, مصر الجديدة, القاهرة",
	"lat":"30.073031",
	"lng":"31.347348",
	"enName":"Omar Ibn El Khattab St., Heliopolis, Cairo"
},
		{	"profileId":"501296",
	"profileURL":"//www.yellowpages.com.eg/en/profile/costa-coffee/501296?b=4&k=16460&l=search",
	"arName":"26 ش شريف - عمارة الايموبيليا, وسط البلد, القاهرة",
	"lat":"30.048936999999999",
	"lng":"31.242289",
	"enName":"26 Sherif St., Imobilia Bldg., Downtown, Cairo"
},
		{	"profileId":"425405",
	"profileURL":"//www.yellowpages.com.eg/en/profile/costa-coffee/425405?b=14&k=16460&l=search",
	"arName":"ش التسعين, التجمع الخامس, القاهرة الجديدة, القاهرة",
	"lat":"30.0260055",
	"lng":"31.496136199999999",
	"enName":"El Tesaeen St., 5th Compound, New cairo, Cairo"
},
		{	"profileId":"359288",
	"profileURL":"//www.yellowpages.com.eg/en/profile/costa-coffee/359288?b=26&k=16460&l=search",
	"arName":"كم 65 - طريق مرسى علم, جنوب قصير, القصير",
	"lat":"25.559830999999999",
	"lng":"34.588023999999997",
	"enName":"Km 65, Marsa Alam Rd., South quseir, Quseir"
},
		{	"profileId":"359282",
	"profileURL":"//www.yellowpages.com.eg/en/profile/costa-coffee/359282?b=11&k=16460&l=search",
	"arName":"خدمة توصيل الطلبات للمنازل, مصر الجديدة, القاهرة",
	"lat":"",
	"lng":"",
	"enName":"Home Delivery, Heliopolis, Cairo"
},
		{	"profileId":"175025",
	"profileURL":"//www.yellowpages.com.eg/en/profile/costa-coffee/175025?b=16&k=16460&l=search",
	"arName":"39 ش كليوباترا ميدان صلاح الدين, مصر الجديدة, القاهرة",
	"lat":"30.093167000000001",
	"lng":"31.329511",
	"enName":"39 Cleopatra St. Salah El Din Sq., Heliopolis, Cairo"
},
		{	"profileId":"583136",
	"profileURL":"//www.yellowpages.com.eg/en/profile/costa-coffee/583136?b=24&k=16460&l=search",
	"arName":"ش فؤاب, السلطان حسين, الاسكندرية",
	"lat":"",
	"lng":"",
	"enName":"Fouad St., Sultan hussein, Alexandria"
},
		{	"profileId":"101674",
	"profileURL":"//www.yellowpages.com.eg/en/profile/costa-coffee/101674?b=32&k=16460&l=search",
	"arName":"كم 6 -, طريق الاسكندرية القاهرة الصحرا, طريق الاسكندرية القاهرة الصحراوى, الاسكندرية",
	"lat":"31.167404000000001",
	"lng":"29.933047999999999",
	"enName":"Km 6,, Alex. cairo desert rd., Alexandria"
},
		{	"profileId":"341287",
	"profileURL":"//www.yellowpages.com.eg/en/profile/costa-coffee/341287?b=20&k=16460&l=search",
	"arName":"مربع 1258ف - طريق الاوتوستراد, مصر الجديدة, القاهرة",
	"lat":"30.102922",
	"lng":"31.386609",
	"enName":"Square 1258f, Autostrad Rd., Heliopolis, Cairo"
},
		{	"profileId":"396098",
	"profileURL":"//www.yellowpages.com.eg/en/profile/costa-coffee/396098?b=13&k=16460&l=search",
	"arName":"ش 254 تقاطع ش 206, دجلة, المعادى, القاهرة",
	"lat":"29.961592",
	"lng":"31.275941",
	"enName":"Rd. 254 Intersection Of Rd. 206, Degla, Maadi, Cairo"
},
		{	"profileId":"245570",
	"profileURL":"//www.yellowpages.com.eg/en/profile/costa-coffee/245570?b=33&k=16460&l=search",
	"arName":"طريق مصر اسماعيلية الصحراوى - جولف سيتى, مدينة العبور, القليوبية",
	"lat":"30.176138000000002",
	"lng":"31.474488999999998",
	"enName":"Misr Ismaileya Desert Rd., Golf City, Obour city, Kaliobeya"
},
		{	"profileId":"283130",
	"profileURL":"//www.yellowpages.com.eg/en/profile/costa-coffee/283130?b=23&k=16460&l=search",
	"arName":"ش الشيراتون, سقالة, الغردقة",
	"lat":"27.213514",
	"lng":"33.840207999999997",
	"enName":"Sheraton St., Sekala, Hurghada"
}
	]
}]}