{"items":[{	"arName":"ان اند اوت",
	"enName":"In & Out",
	"hotline":"16663",
	"facebook":"http://www.facebook.com/InOut.Furniture",
	"web":"http://www.inoutfurniture.com/",
	"arCategory":[
		"اثاث منزلى ومكتبى واثاث حدائق"
	],
	"enCategories":[
		"Furniture - Home, Office & Garden"
	],
	"contacts":[
		{	"profileId":"51392",
	"profileURL":"//www.yellowpages.com.eg/en/profile/in-&-out/51392?b=1&k=16663&l=search",
	"arName":"ش عمر بن الخطاب - الدور 7, مدينة نصر, القاهرة",
	"lat":"30.073430999999999",
	"lng":"31.347339000000002",
	"enName":"Omar Ibn El Khattab St., Floor 7, Nasr city, Cairo"
},
		{	"profileId":"248443",
	"profileURL":"//www.yellowpages.com.eg/en/profile/in-&-out/248443?b=5&k=16663&l=search",
	"arName":"طريق النصر, الدهار, الغردقة",
	"lat":"27.238289999999999",
	"lng":"33.831861000000004",
	"enName":"El Nasr Rd., Dahar, Hurghada"
},
		{	"profileId":"165956",
	"profileURL":"//www.yellowpages.com.eg/en/profile/in-&-out/165956?b=7&k=16663&l=search",
	"arName":"11 ش عبد الحميد لطفى متفرع من ش البطل احمد عبد العزيز, المهندسين, الجيزة",
	"lat":"30.052337999999999",
	"lng":"31.204328",
	"enName":"11 Abdel Hamid Lotfy St. Off El Batal Ahmed Abdel Aziz St., Mohandeseen, Giza"
},
		{	"profileId":"316728",
	"profileURL":"//www.yellowpages.com.eg/en/profile/in-&-out/316728?b=8&k=16663&l=search",
	"arName":"413 ش الهرم, المساحة, الهرم, الجيزة",
	"lat":"30.007069000000001",
	"lng":"31.195761000000001",
	"enName":"413 Haram St., El Messaha, El haram, Giza"
},
		{	"profileId":"432756",
	"profileURL":"//www.yellowpages.com.eg/en/profile/in-&-out/432756?b=3&k=16663&l=search",
	"arName":"75 طريق النصر, مدينة نصر, القاهرة",
	"lat":"30.067571999999998",
	"lng":"31.329775000000001",
	"enName":"75 El Nasr Rd., Nasr city, Cairo"
},
		{	"profileId":"260897",
	"profileURL":"//www.yellowpages.com.eg/en/profile/in-&-out/260897?b=2&k=16663&l=search",
	"arName":"خدمة العملاء, مدينة نصر, القاهرة",
	"lat":"",
	"lng":"",
	"enName":"Customer Service, Nasr city, Cairo"
},
		{	"profileId":"468625",
	"profileURL":"//www.yellowpages.com.eg/en/profile/in-&-out/468625?b=4&k=16663&l=search",
	"arName":"21 ش مكرم عبيد, المنطقة السادسة, مدينة نصر, القاهرة",
	"lat":"30.057323",
	"lng":"31.345976",
	"enName":"21 Makram Ebaid St., 6th Zone, Nasr city, Cairo"
},
		{	"profileId":"316732",
	"profileURL":"//www.yellowpages.com.eg/en/profile/in-&-out/316732?b=6&k=16663&l=search",
	"arName":"عمارات لاند مارك - طريق 14 مايو, سموحة, الاسكندرية",
	"lat":"31.210256000000001",
	"lng":"29.961338000000001",
	"enName":"Land Mark Bldgs., 14th Of May Rd., Semouha, Alexandria"
}
	]
}]}