{"items":[{	"arName":"صيدليات الوليد",
	"enName":"El Waleed Pharmacies",
	"hotline":"16719",
	"facebook":"http://www.facebook.com/ELWALEEDPHARMACIES",
	"web":"",
	"arCategory":[
		"صيدليات"
	],
	"enCategories":[
		"Pharmacies"
	],
	"contacts":[
		{	"profileId":"555271",
	"profileURL":"//www.yellowpages.com.eg/en/profile/el-waleed-pharmacies/555271?b=5&k=16719&l=search",
	"arName":"45 ش العشرين متفرع من ش فيصل, فيصل, الجيزة",
	"lat":"30.013376000000001",
	"lng":"31.185267",
	"enName":"45 El Eshreen St. Off Faisal St., Faisal, Giza"
},
		{	"profileId":"273960",
	"profileURL":"//www.yellowpages.com.eg/en/profile/el-waleed-pharmacies/273960?b=1&k=16719&l=search",
	"arName":"1 ش اشرف البطران متفرع من ش اللبينى, المريوطية, الهرم, الجيزة",
	"lat":"30.002714000000001",
	"lng":"31.163733000000001",
	"enName":"1 Ashraf El Batran St. Off El Lebbiny St., El Mariouteya, El haram, Giza"
},
		{	"profileId":"173485",
	"profileURL":"//www.yellowpages.com.eg/en/profile/el-waleed-pharmacies/173485?b=8&k=16719&l=search",
	"arName":"113 ش فيصل, الكوم الاخضر, فيصل, الجيزة",
	"lat":"29.995125999999999",
	"lng":"31.151085999999999",
	"enName":"113 Faisal St., El Koum El Akhdar, Faisal, Giza"
},
		{	"profileId":"555299",
	"profileURL":"//www.yellowpages.com.eg/en/profile/el-waleed-pharmacies/555299?b=9&k=16719&l=search",
	"arName":"عمارة 120س, حدائق الاهرام, الهرم, الجيزة",
	"lat":"29.954446000000001",
	"lng":"31.096637999999999",
	"enName":"Bldg. 120S, Hadayek El Ahram, El haram, Giza"
},
		{	"profileId":"545695",
	"profileURL":"//www.yellowpages.com.eg/en/profile/el-waleed-pharmacies/545695?b=4&k=16719&l=search",
	"arName":"4 ش التوحيد متفرع من ش فيصل, التعاون, فيصل, الجيزة",
	"lat":"30.000326999999999",
	"lng":"31.163554000000001",
	"enName":"4 El Tawhid St. Off Faisal St., El Taawon, Faisal, Giza"
},
		{	"profileId":"555322",
	"profileURL":"//www.yellowpages.com.eg/en/profile/el-waleed-pharmacies/555322?b=7&k=16719&l=search",
	"arName":"خدمة العملاء, فيصل, الجيزة",
	"lat":"",
	"lng":"",
	"enName":"Customer Service, Faisal, Giza"
},
		{	"profileId":"555312",
	"profileURL":"//www.yellowpages.com.eg/en/profile/el-waleed-pharmacies/555312?b=3&k=16719&l=search",
	"arName":"38 ش دمشق تقاطع ش عدن, المهندسين, الجيزة",
	"lat":"30.050104000000001",
	"lng":"31.193919000000001",
	"enName":"38 Demascus St. Intersection Of Aden St., Mohandeseen, Giza"
},
		{	"profileId":"555295",
	"profileURL":"//www.yellowpages.com.eg/en/profile/el-waleed-pharmacies/555295?b=6&k=16719&l=search",
	"arName":"40 ش الانصار متفرع من ش محيى الدين ابو العز, الدقى, الجيزة",
	"lat":"30.039491999999999",
	"lng":"31.199092",
	"enName":"40 El Ansar St. Off Mohy El Din Abou El Ezz St., Dokki, Giza"
},
		{	"profileId":"555285",
	"profileURL":"//www.yellowpages.com.eg/en/profile/el-waleed-pharmacies/555285?b=2&k=16719&l=search",
	"arName":"28 ش المستشفى, المريوطية, الهرم, الجيزة",
	"lat":"29.993583000000001",
	"lng":"31.152194000000001",
	"enName":"28 El Mostashfa St., El Mariouteya, El haram, Giza"
}
	]
}]}