{"items":[{	"arName":"فيش ماركت",
	"enName":"Fish Market",
	"hotline":"16770",
	"facebook":"http://www.facebook.com/FishMarketEgypt",
	"web":"http://www.americana-group.net/Our-Brands/Restaurants/Fish-Market.aspx",
	"arCategory":[
		"مطاعم",
		"مطاعم صالات طعام",
		"مطاعم توصيل الطلبات للمنازل",
		"مطاعم عائمة"
	],
	"enCategories":[
		"Restaurants",
		"Restaurants Eat Out",
		"Restaurants Home Delivery",
		"Restaurants - Floating"
	],
	"contacts":[
		{	"profileId":"85713",
	"profileURL":"//www.yellowpages.com.eg/en/profile/fish-market/85713?b=6&k=16770&l=search",
	"arName":"طريق الجيش, بحرى, الاسكندرية",
	"lat":"31.205228999999999",
	"lng":"29.884848999999999",
	"enName":"El Guish Rd., Bahary, Alexandria"
},
		{	"profileId":"85712",
	"profileURL":"//www.yellowpages.com.eg/en/profile/fish-market/85712?b=2&k=16770&l=search",
	"arName":"كورنيش النيل, كورنيش المعادى, المعادى, القاهرة",
	"lat":"29.955479",
	"lng":"31.252721999999999",
	"enName":"Corniche El Nil, Corniche El Maadi, Maadi, Cairo"
},
		{	"profileId":"206470",
	"profileURL":"//www.yellowpages.com.eg/en/profile/fish-market/206470?b=4&k=16770&l=search",
	"arName":"خدمة توصيل الطلبات للمنازل, الجيزة, الجيزة",
	"lat":"",
	"lng":"",
	"enName":"Home Delivery, Giza, Giza"
},
		{	"profileId":"425109",
	"profileURL":"//www.yellowpages.com.eg/en/profile/fish-market/425109?b=1&k=16770&l=search",
	"arName":"ش التسعين, التجمع الخامس, القاهرة الجديدة, القاهرة",
	"lat":"30.0260055",
	"lng":"31.496136199999999",
	"enName":"El Tesaeen St., 5th Compound, New cairo, Cairo"
},
		{	"profileId":"60490",
	"profileURL":"//www.yellowpages.com.eg/en/profile/fish-market/60490?b=3&k=16770&l=search",
	"arName":"26 ش النيل, الجيزة, الجيزة",
	"lat":"30.025589",
	"lng":"31.218128",
	"enName":"26 El Nil St., Giza, Giza"
},
		{	"profileId":"386979",
	"profileURL":"//www.yellowpages.com.eg/en/profile/fish-market/386979?b=5&k=16770&l=search",
	"arName":"امتداد محور 26 يوليو, الشيخ زايد, السادس من اكتوبر, الجيزة",
	"lat":"30.027032999999999",
	"lng":"31.013698999999999",
	"enName":"Extension Of 26Th Of July Spine, El Sheikh Zayed, 6th of october, Giza"
}
	]
}]}