{"items":[{	"arName":"سكيب للدهانات",
	"enName":"Scib Paints",
	"hotline":"16815",
	"facebook":"http://www.facebook.com/SCIB.Paints",
	"web":"http://www.scibpaints.com/",
	"arCategory":[
		"دهان وطلاء"
	],
	"enCategories":[
		"Paints & Coatings"
	],
	"contacts":[
		{	"profileId":"214585",
	"profileURL":"//www.yellowpages.com.eg/en/profile/scib-paints/214585?b=4&k=16815&l=search",
	"arName":"السوق التجارى - محل 114, مدينة الرحاب, القاهرة",
	"lat":"30.055771",
	"lng":"31.492674999999998",
	"enName":"Commercial Market, Shop 114, Al rehab city, Cairo"
},
		{	"profileId":"373787",
	"profileURL":"//www.yellowpages.com.eg/en/profile/scib-paints/373787?b=6&k=16815&l=search",
	"arName":"1 /أ ابراج النصر - ش جامعة الازهر - الدور 1 شقة 104, اسيوط, اسيوط",
	"lat":"27.194869000000001",
	"lng":"31.177627000000001",
	"enName":"1 /A El Nasr Towers, Gamaet El Azhar St., Floor 1 Flat 104, Assyout, Assyout"
},
		{	"profileId":"113757",
	"profileURL":"//www.yellowpages.com.eg/en/profile/scib-paints/113757?b=8&k=16815&l=search",
	"arName":"ش الزهراء, حى شرق, سوهاج",
	"lat":"26.567986999999999",
	"lng":"31.692965999999998",
	"enName":"El Zahraa St., Shark district, Sohag"
},
		{	"profileId":"60238",
	"profileURL":"//www.yellowpages.com.eg/en/profile/scib-paints/60238?b=3&k=16815&l=search",
	"arName":"17 ش بهجت على, الزمالك, القاهرة",
	"lat":"30.069609",
	"lng":"31.220275000000001",
	"enName":"17 Bahgat Aly St., Zamalek, Cairo"
},
		{	"profileId":"60237",
	"profileURL":"//www.yellowpages.com.eg/en/profile/scib-paints/60237?b=2&k=16815&l=search",
	"arName":"10 ش على الروبى متفرع من ش الخليفة المأمون, روكسى, مصر الجديدة, القاهرة",
	"lat":"30.092199999999998",
	"lng":"31.3154",
	"enName":"10 Aly El Rouby St. Off El Khalifa El Maamoun St., Roxy, Heliopolis, Cairo"
},
		{	"profileId":"192720",
	"profileURL":"//www.yellowpages.com.eg/en/profile/scib-paints/192720?b=7&k=16815&l=search",
	"arName":"31 ميدان فيكتور عمانويل, سموحة, الاسكندرية",
	"lat":"31.215021",
	"lng":"29.944977000000002",
	"enName":"31 Victor Emanuel Sq., Semouha, Alexandria"
},
		{	"profileId":"373782",
	"profileURL":"//www.yellowpages.com.eg/en/profile/scib-paints/373782?b=5&k=16815&l=search",
	"arName":"ش دير مارمينا متفرع من ش الحجاز, الدهار, الغردقة",
	"lat":"27.248377000000001",
	"lng":"33.805506000000001",
	"enName":"Deir Mar Mena St. Off El Hegaz St., Dahar, Hurghada"
},
		{	"profileId":"373818",
	"profileURL":"//www.yellowpages.com.eg/en/profile/scib-paints/373818?b=10&k=16815&l=search",
	"arName":"خدمة العملاء, السادس من اكتوبر, الجيزة",
	"lat":"",
	"lng":"",
	"enName":"Customer Service, 6th of october, Giza"
},
		{	"profileId":"373729",
	"profileURL":"//www.yellowpages.com.eg/en/profile/scib-paints/373729?b=9&k=16815&l=search",
	"arName":"طريق القاهرة اسكندرية الزراعى - ميت حلفا, قليوب, القليوبية",
	"lat":"30.163969000000002",
	"lng":"31.227833",
	"enName":"Cairo Alex Agricultural Rd., Meet Halfa, Qalyub, Kaliobeya"
},
		{	"profileId":"85494",
	"profileURL":"//www.yellowpages.com.eg/en/profile/scib-paints/85494?b=1&k=16815&l=search",
	"arName":"القطعة 3/1/ب - ب - - المنطقة الصناعية الرابعة, السادس من اكتوبر, الجيزة",
	"lat":"29.946881000000001",
	"lng":"30.887992000000001",
	"enName":"Plot 1/3/ B - B, , 4Th Industrial Zone, 6th of october, Giza"
},
		{	"profileId":"373843",
	"profileURL":"//www.yellowpages.com.eg/en/profile/scib-paints/373843?b=11&k=16815&l=search",
	"arName":"القطعة 17 - - المنطقة الصناعية الرابعة - منطقة التوسعات الشمالية - منطقة المطورون - مجمع بولاريس, المنطقة الصناعية, السادس من اكتوبر, الجيزة",
	"lat":"29.957342000000001",
	"lng":"30.874998999999999",
	"enName":"Plot 17, , 4th Industrial, Northern Extentions Area, Developers Area, Bolares Complex, Industrial Zone, 6th of october, Giza"
}
	]
}]}