{"items":[{	"arName":"صيدليات جراند",
	"enName":"Grand Pharmacies",
	"hotline":"16834",
	"facebook":"http://www.facebook.com/GrandPharmacies/",
	"web":"",
	"arCategory":[
		"صيدليات"
	],
	"enCategories":[
		"Pharmacies"
	],
	"contacts":[
		{	"profileId":"452939",
	"profileURL":"//www.yellowpages.com.eg/en/profile/grand-pharmacies/452939?b=6&k=16834&l=search",
	"arName":"92 ش التحرير - برج ساريدار, الدقى, الجيزة",
	"lat":"30.038335",
	"lng":"31.2100312",
	"enName":"92 El Tahrir St., Saridar Tower, Dokki, Giza"
},
		{	"profileId":"452943",
	"profileURL":"//www.yellowpages.com.eg/en/profile/grand-pharmacies/452943?b=2&k=16834&l=search",
	"arName":"خدمة العملاء, التجمع الخامس, القاهرة الجديدة, القاهرة",
	"lat":"",
	"lng":"",
	"enName":"Customer Service, 5th Compound, New cairo, Cairo"
},
		{	"profileId":"557564",
	"profileURL":"//www.yellowpages.com.eg/en/profile/grand-pharmacies/557564?b=3&k=16834&l=search",
	"arName":"82 ش الميثاق, زهراء مدينة نصر, مدينة نصر, القاهرة",
	"lat":"30.049192999999999",
	"lng":"31.385857999999999",
	"enName":"82 El Mithaq St., Zahraa Nasr City, Nasr city, Cairo"
},
		{	"profileId":"452940",
	"profileURL":"//www.yellowpages.com.eg/en/profile/grand-pharmacies/452940?b=5&k=16834&l=search",
	"arName":"142 اسكان الشباب الجنوبى - , التجمع الاول, القاهرة الجديدة, القاهرة",
	"lat":"30.058378999999999",
	"lng":"31.459973000000002",
	"enName":"142 Southern Youth Housing, , 1st Compound, New cairo, Cairo"
},
		{	"profileId":"557582",
	"profileURL":"//www.yellowpages.com.eg/en/profile/grand-pharmacies/557582?b=7&k=16834&l=search",
	"arName":"ش بورسعيد ميدان الامام الشافعى, ميت غمر, الدقهلية",
	"lat":"30.711548000000001",
	"lng":"31.264358999999999",
	"enName":"Port Said St. El Emam El Shafaey Sq., Mit ghamr, El dakahleya"
},
		{	"profileId":"547177",
	"profileURL":"//www.yellowpages.com.eg/en/profile/grand-pharmacies/547177?b=4&k=16834&l=search",
	"arName":"22 ش سمير عبد الرؤوف امتداد ش مكرم عبيد, مدينة نصر, القاهرة",
	"lat":"30.052114",
	"lng":"31.346765999999999",
	"enName":"22 Samir Abdel Raouf St. Extension Of Makram Ebaid St., Nasr city, Cairo"
},
		{	"profileId":"547000",
	"profileURL":"//www.yellowpages.com.eg/en/profile/grand-pharmacies/547000?b=1&k=16834&l=search",
	"arName":"القطعة التاسعة - محور محمد نجيب - منطقة المستثمرين الشمالية, التجمع الاول, القاهرة الجديدة, القاهرة",
	"lat":"30.046194",
	"lng":"31.475541",
	"enName":"9th Plot, Mohamed Naguib Spine, Northern Investors Area, 1st Compound, New cairo, Cairo"
}
	]
}]}