{"items":[{	"arName":"صيدلية بخيت",
	"enName":"Bekhit Pharmacy",
	"hotline":"16909",
	"facebook":"http://www.facebook.com/pg/Bekhit-pharmacy-online-1485039891707689",
	"web":"",
	"arCategory":[
		"صيدليات"
	],
	"enCategories":[
		"Pharmacies"
	],
	"contacts":[
		{	"profileId":"57216",
	"profileURL":"//www.yellowpages.com.eg/en/profile/bekhit-pharmacy/57216?b=5&k=16909&l=search",
	"arName":"27 ش جواد حسنى, الابراهيمية, الاسكندرية",
	"lat":"31.208649000000001",
	"lng":"29.933081999999999",
	"enName":"27 Gawwad Hosny St., El ibrahimeya, Alexandria"
},
		{	"profileId":"545957",
	"profileURL":"//www.yellowpages.com.eg/en/profile/bekhit-pharmacy/545957?b=3&k=16909&l=search",
	"arName":"خدمة توصيل الطلبات للمنازل, مصطفى كامل, الاسكندرية",
	"lat":"",
	"lng":"",
	"enName":"Home Delivery, Mostafa kamel, Alexandria"
},
		{	"profileId":"112433",
	"profileURL":"//www.yellowpages.com.eg/en/profile/bekhit-pharmacy/112433?b=6&k=16909&l=search",
	"arName":"9 ش ابراهيم الشريف - ابراج كيروسيز, مصطفى كامل, الاسكندرية",
	"lat":"31.223101",
	"lng":"29.948366",
	"enName":"9 Ibrahim El Sherif St., Kiroseiz Towers, Mostafa kamel, Alexandria"
},
		{	"profileId":"545941",
	"profileURL":"//www.yellowpages.com.eg/en/profile/bekhit-pharmacy/545941?b=2&k=16909&l=search",
	"arName":"735 طريق الحرية, فيكتوريا, الاسكندرية",
	"lat":"31.247291000000001",
	"lng":"29.977926",
	"enName":"735 El Horreya Rd., Victoria, Alexandria"
},
		{	"profileId":"545951",
	"profileURL":"//www.yellowpages.com.eg/en/profile/bekhit-pharmacy/545951?b=4&k=16909&l=search",
	"arName":"ش 45, ميامى, الاسكندرية",
	"lat":"31.268363000000001",
	"lng":"29.999462000000001",
	"enName":"Rd. 45, Miami, Alexandria"
},
		{	"profileId":"545939",
	"profileURL":"//www.yellowpages.com.eg/en/profile/bekhit-pharmacy/545939?b=1&k=16909&l=search",
	"arName":"طريق كوبرى 14 مايو, سموحة, الاسكندرية",
	"lat":"31.207915",
	"lng":"29.965159",
	"enName":"14th Of May Bridge Rd., Semouha, Alexandria"
}
	]
}]}