{"items":[{	"arName":"ارابياتا",
	"enName":"Arabiata",
	"hotline":"16919",
	"facebook":"http://www.facebook.com/arabiata.eg",
	"web":"http://www.a-arabiata.com/",
	"arCategory":[
		"فول وطعمية",
		"مطاعم",
		"مطاعم صالات طعام"
	],
	"enCategories":[
		"Foul & Ta'mya",
		"Restaurants",
		"Restaurants Eat Out"
	],
	"contacts":[
		{	"profileId":"178262",
	"profileURL":"//www.yellowpages.com.eg/en/profile/arabiata/178262?b=6&k=16919&l=search",
	"arName":"منطقة المطاعم, مدينة الرحاب, القاهرة",
	"lat":"30.059089",
	"lng":"31.489937999999999",
	"enName":"food Court, Al rehab city, Cairo"
},
		{	"profileId":"178263",
	"profileURL":"//www.yellowpages.com.eg/en/profile/arabiata/178263?b=9&k=16919&l=search",
	"arName":"خدمة توصيل الطلبات للمنازل, مدينة نصر, القاهرة",
	"lat":"",
	"lng":"",
	"enName":"Home Delivery, Nasr city, Cairo"
},
		{	"profileId":"73621",
	"profileURL":"//www.yellowpages.com.eg/en/profile/arabiata/73621?b=3&k=16919&l=search",
	"arName":"1 ش ابراهيم ميدان الكوربة, الكوربة, مصر الجديدة, القاهرة",
	"lat":"30.091785000000002",
	"lng":"31.323599000000002",
	"enName":"1 Ibrahim St. El Korba Sq., El Korba, Heliopolis, Cairo"
},
		{	"profileId":"173091",
	"profileURL":"//www.yellowpages.com.eg/en/profile/arabiata/173091?b=5&k=16919&l=search",
	"arName":"39 ش الخليفة المأمون تقاطع ش الميرغنى, روكسى, مصر الجديدة, القاهرة",
	"lat":"30.091646999999998",
	"lng":"31.313735000000001",
	"enName":"39 El Khalifa El Maamoun St. Intersection Of El Merghany St., Roxy, Heliopolis, Cairo"
},
		{	"profileId":"185086",
	"profileURL":"//www.yellowpages.com.eg/en/profile/arabiata/185086?b=12&k=16919&l=search",
	"arName":"17 ش السيد الميرغنى, روكسى, مصر الجديدة, القاهرة",
	"lat":"30.089278",
	"lng":"31.316849000000001",
	"enName":"17 El Sayed El Merghany St., Roxy, Heliopolis, Cairo"
},
		{	"profileId":"391843",
	"profileURL":"//www.yellowpages.com.eg/en/profile/arabiata/391843?b=4&k=16919&l=search",
	"arName":"., مدينة الرحاب, القاهرة",
	"lat":"30.064938000000001",
	"lng":"31.491745999999999",
	"enName":"., Al rehab city, Cairo"
},
		{	"profileId":"448941",
	"profileURL":"//www.yellowpages.com.eg/en/profile/arabiata/448941?b=14&k=16919&l=search",
	"arName":"96 ش التحرير, الدقى, الجيزة",
	"lat":"30.039524",
	"lng":"31.217139",
	"enName":"96 El Tahrir St., Dokki, Giza"
},
		{	"profileId":"489539",
	"profileURL":"//www.yellowpages.com.eg/en/profile/arabiata/489539?b=15&k=16919&l=search",
	"arName":"ش جامعة الازهر, اسيوط, اسيوط",
	"lat":"27.177575999999998",
	"lng":"31.198478999999999",
	"enName":"Gamaet El Azhar St., Assyout, Assyout"
},
		{	"profileId":"464489",
	"profileURL":"//www.yellowpages.com.eg/en/profile/arabiata/464489?b=10&k=16919&l=search",
	"arName":"طريق المطار, منطقة المطار, مصر الجديدة, القاهرة",
	"lat":"30.122783999999999",
	"lng":"31.404547999999998",
	"enName":"Airport Rd., Airport Area, Heliopolis, Cairo"
},
		{	"profileId":"489537",
	"profileURL":"//www.yellowpages.com.eg/en/profile/arabiata/489537?b=18&k=16919&l=search",
	"arName":"2 ش جامعة الدول العربية ميدان سفنكس, المهندسين, الجيزة",
	"lat":"30.059414",
	"lng":"31.207362",
	"enName":"2 Gamaet El Dewal El Arabeya St. Sphinx Sq., Mohandeseen, Giza"
},
		{	"profileId":"435180",
	"profileURL":"//www.yellowpages.com.eg/en/profile/arabiata/435180?b=2&k=16919&l=search",
	"arName":"ش التسعين, التجمع الخامس, القاهرة الجديدة, القاهرة",
	"lat":"30.025057199999999",
	"lng":"31.482787699999999",
	"enName":"El Tesaeen St., 5th Compound, New cairo, Cairo"
},
		{	"profileId":"504831",
	"profileURL":"//www.yellowpages.com.eg/en/profile/arabiata/504831?b=11&k=16919&l=search",
	"arName":"ش الشهيد سيد زكريا, مساكن شيراتون, مصر الجديدة, القاهرة",
	"lat":"30.106574999999999",
	"lng":"31.367892999999999",
	"enName":"El Shaheed Sayed Zakareya St., Sheraton Bldgs., Heliopolis, Cairo"
},
		{	"profileId":"315417",
	"profileURL":"//www.yellowpages.com.eg/en/profile/arabiata/315417?b=13&k=16919&l=search",
	"arName":"17 ش التحرير, الدقى, الجيزة",
	"lat":"30.035852999999999",
	"lng":"31.201492999999999",
	"enName":"17 El Tahrir St., Dokki, Giza"
},
		{	"profileId":"272374",
	"profileURL":"//www.yellowpages.com.eg/en/profile/arabiata/272374?b=16&k=16919&l=search",
	"arName":"طريق مصر اسماعيلية الصحراوى - جولف سيتى, مدينة العبور, القليوبية",
	"lat":"30.174412",
	"lng":"31.474615",
	"enName":"Misr Ismaileya Desert Rd., Golf City, Obour city, Kaliobeya"
},
		{	"profileId":"489532",
	"profileURL":"//www.yellowpages.com.eg/en/profile/arabiata/489532?b=17&k=16919&l=search",
	"arName":"ش البرت الاول, سموحة, الاسكندرية",
	"lat":"31.213352",
	"lng":"29.939606000000001",
	"enName":"Albert El Awal St., Semouha, Alexandria"
},
		{	"profileId":"185084",
	"profileURL":"//www.yellowpages.com.eg/en/profile/arabiata/185084?b=7&k=16919&l=search",
	"arName":"كم 8 - طريق القاهرة السويس الصحراوى - الحى الخامس, مدينة الشروق, القاهرة",
	"lat":"30.1170647",
	"lng":"31.6060433",
	"enName":"Km 8, Cairo Suez Desert Rd., 5th District, El sherouk city, Cairo"
},
		{	"profileId":"173087",
	"profileURL":"//www.yellowpages.com.eg/en/profile/arabiata/173087?b=1&k=16919&l=search",
	"arName":"1 ش زاكر حسين امتداد ش الطيران, الحى السابع, مدينة نصر, القاهرة",
	"lat":"30.043419",
	"lng":"31.329526000000001",
	"enName":"1 Zaker Hussein St. Extension Of El Tayaran St., 7th District, Nasr city, Cairo"
},
		{	"profileId":"327436",
	"profileURL":"//www.yellowpages.com.eg/en/profile/arabiata/327436?b=8&k=16919&l=search",
	"arName":"259 ش شبرا الخلفاوى, شبرا, القاهرة",
	"lat":"30.094847000000001",
	"lng":"31.245636999999999",
	"enName":"259 Shoubra St. El Khalafawy, Shoubra, Cairo"
}
	]
}]}