{"items":[{	"arName":"بيتنا",
	"enName":"Betna",
	"hotline":"16965",
	"facebook":"http://www.facebook.com/pages/Betna/545176962179350",
	"web":"http://www.betna.com.eg/",
	"arCategory":[
		"اثاث منزلى ومكتبى واثاث حدائق"
	],
	"enCategories":[
		"Furniture - Home, Office & Garden"
	],
	"contacts":[
		{	"profileId":"539622",
	"profileURL":"//www.yellowpages.com.eg/en/profile/betna/539622?b=1&k=16965&l=search",
	"arName":"خدمة العملاء, مدينتى, القاهرة",
	"lat":"",
	"lng":"",
	"enName":"Customer Service, Madinty, Cairo"
},
		{	"profileId":"458857",
	"profileURL":"//www.yellowpages.com.eg/en/profile/betna/458857?b=2&k=16965&l=search",
	"arName":"ش التسعين, التجمع الخامس, القاهرة الجديدة, القاهرة",
	"lat":"30.024871399999999",
	"lng":"31.482787699999999",
	"enName":"El Tesaeen St., 5th Compound, New cairo, Cairo"
},
		{	"profileId":"505820",
	"profileURL":"//www.yellowpages.com.eg/en/profile/betna/505820?b=6&k=16965&l=search",
	"arName":"طريق مصر اسماعيلية الصحراوى - جولف سيتى, مدينة العبور, القليوبية",
	"lat":"30.176755",
	"lng":"31.482776999999999",
	"enName":"Misr Ismaileya Desert Rd., Golf City, Obour city, Kaliobeya"
},
		{	"profileId":"298904",
	"profileURL":"//www.yellowpages.com.eg/en/profile/betna/298904?b=3&k=16965&l=search",
	"arName":"كم 33 - طريق القاهرة السويس, مدينتى, القاهرة",
	"lat":"30.105753",
	"lng":"31.630765",
	"enName":"Km 33, Cairo Suez Rd., Madinty, Cairo"
},
		{	"profileId":"298903",
	"profileURL":"//www.yellowpages.com.eg/en/profile/betna/298903?b=4&k=16965&l=search",
	"arName":"المرحلة الثالثة, مدينة الرحاب, القاهرة",
	"lat":"30.061150999999999",
	"lng":"31.482616",
	"enName":"Phase 3, Al rehab city, Cairo"
},
		{	"profileId":"539617",
	"profileURL":"//www.yellowpages.com.eg/en/profile/betna/539617?b=5&k=16965&l=search",
	"arName":"., مدينتى, القاهرة",
	"lat":"30.083938",
	"lng":"31.639177",
	"enName":"., Madinty, Cairo"
}
	]
}]}