{"items":[{	"arName":"المختبر - معامل مؤمنة كامل",
	"enName":"Al Mokhtabar - Moamena Kamel Laboratories",
	"hotline":"19014",
	"facebook":"http://www.facebook.com/almokhtabar",
	"web":"http://www.almokhtabar.com/",
	"arCategory":[
		"معامل طبية"
	],
	"enCategories":[
		"Laboratories Medical"
	],
	"contacts":[
		{	"profileId":"395369",
	"profileURL":"//www.yellowpages.com.eg/en/profile/al-mokhtabar-_-moamena-kamel-laboratories/395369?b=62&k=19014&l=search",
	"arName":"307 أ ش الهرم - الدور 2, الطالبية, الهرم, الجيزة",
	"lat":"30.000284000000001",
	"lng":"31.177845999999999",
	"enName":"307 A Haram St., Floor 2, El Talbeya, El haram, Giza"
},
		{	"profileId":"395368",
	"profileURL":"//www.yellowpages.com.eg/en/profile/al-mokhtabar-_-moamena-kamel-laboratories/395368?b=74&k=19014&l=search",
	"arName":"446 ش فيصل - برج النصر - الدور 2, فيصل, الجيزة",
	"lat":"30.013632000000001",
	"lng":"31.198354999999999",
	"enName":"446 Faisal St., El Nasr Tower, Floor 2, Faisal, Giza"
},
		{	"profileId":"159934",
	"profileURL":"//www.yellowpages.com.eg/en/profile/al-mokhtabar-_-moamena-kamel-laboratories/159934?b=87&k=19014&l=search",
	"arName":"4 امتداد ش يسرى راغب - برج الاوقاف - الدور 1, حى شرق, اسيوط",
	"lat":"27.179003000000002",
	"lng":"31.186591",
	"enName":"4 Extension Of Yousry Ragheb St., El Awqaf Tower, Floor 1, Shark district, Assyout"
},
		{	"profileId":"187967",
	"profileURL":"//www.yellowpages.com.eg/en/profile/al-mokhtabar-_-moamena-kamel-laboratories/187967?b=107&k=19014&l=search",
	"arName":"1 ش حسنى مبارك - عمارة الاوقاف - الدور 2, نجع حمادى, قنا",
	"lat":"26.044867",
	"lng":"32.242657999999999",
	"enName":"1 Hosny Mubarak St., El Awqaf Bldg., Floor 2, Nagaa hamady, Qena"
},
		{	"profileId":"395366",
	"profileURL":"//www.yellowpages.com.eg/en/profile/al-mokhtabar-_-moamena-kamel-laboratories/395366?b=115&k=19014&l=search",
	"arName":"24 ش العاشر من رمضان متفرع من ش داليا, قليوب, القليوبية",
	"lat":"30.181508000000001",
	"lng":"31.204305000000002",
	"enName":"24 10Th OF Ramadan ST. Off Dalia St., Qalyub, Kaliobeya"
},
		{	"profileId":"159939",
	"profileURL":"//www.yellowpages.com.eg/en/profile/al-mokhtabar-_-moamena-kamel-laboratories/159939?b=88&k=19014&l=search",
	"arName":"ميدان المحطة - الدور 2, المنزلة, الدقهلية",
	"lat":"31.1625838",
	"lng":"31.9342893",
	"enName":"El Mahatta Sq., Floor 2, El manzalah, El dakahleya"
},
		{	"profileId":"159938",
	"profileURL":"//www.yellowpages.com.eg/en/profile/al-mokhtabar-_-moamena-kamel-laboratories/159938?b=68&k=19014&l=search",
	"arName":"الاردنية, العاشر من رمضان, الشرقية",
	"lat":"30.288398000000001",
	"lng":"31.746732000000002",
	"enName":"El Ordoneya, 10th of ramadan, El sharkeya"
},
		{	"profileId":"159937",
	"profileURL":"//www.yellowpages.com.eg/en/profile/al-mokhtabar-_-moamena-kamel-laboratories/159937?b=51&k=19014&l=search",
	"arName":"ميدان العارف - برج العارف بالله - الدور 3, حى غرب, سوهاج",
	"lat":"26.549282999999999",
	"lng":"31.701688000000001",
	"enName":"El Aref Sq., El Aref Bellah Tower, Floor 3, Gharb district, Sohag"
},
		{	"profileId":"187964",
	"profileURL":"//www.yellowpages.com.eg/en/profile/al-mokhtabar-_-moamena-kamel-laboratories/187964?b=56&k=19014&l=search",
	"arName":"42 عمارات حى الشرق - ش الشعراوى - الدور 1, بور فؤاد, بور سعيد",
	"lat":"31.239203499999999",
	"lng":"32.320307399999997",
	"enName":"42 Hay El Sharq Bldgs., El Shaarawy St., Floor 1, Port fouad, Port said"
},
		{	"profileId":"355988",
	"profileURL":"//www.yellowpages.com.eg/en/profile/al-mokhtabar-_-moamena-kamel-laboratories/355988?b=14&k=19014&l=search",
	"arName":"385 ش رمسيس - الدور 2, عباسية, القاهرة",
	"lat":"30.072147000000001",
	"lng":"31.279259",
	"enName":"385 Ramsis St., Floor 2, Abbasseya, Cairo"
},
		{	"profileId":"317997",
	"profileURL":"//www.yellowpages.com.eg/en/profile/al-mokhtabar-_-moamena-kamel-laboratories/317997?b=114&k=19014&l=search",
	"arName":"6 ش الجبالى ميدان حارث - الدور 1, بنى سويف, بنى سويف",
	"lat":"29.075285999999998",
	"lng":"31.094118999999999",
	"enName":"6 El Gebaly St. Harith Sq., Floor 1, Benisuef, Benisuef"
},
		{	"profileId":"405010",
	"profileURL":"//www.yellowpages.com.eg/en/profile/al-mokhtabar-_-moamena-kamel-laboratories/405010?b=94&k=19014&l=search",
	"arName":"برج التطبيقيين - كورنيش النيل - الدور 2, دمياط, دمياط",
	"lat":"31.414648",
	"lng":"31.810070400000001",
	"enName":"El Tatbiqeyeen Tower, Corniche El Nil, Floor 2, Damietta, Damietta"
},
		{	"profileId":"202489",
	"profileURL":"//www.yellowpages.com.eg/en/profile/al-mokhtabar-_-moamena-kamel-laboratories/202489?b=108&k=19014&l=search",
	"arName":"109 ش فيصل , المريوطية, فيصل, الجيزة",
	"lat":"29.994844000000001",
	"lng":"31.150463999999999",
	"enName":"109 Faisal St., El Mariouteya, Faisal, Giza"
},
		{	"profileId":"143102",
	"profileURL":"//www.yellowpages.com.eg/en/profile/al-mokhtabar-_-moamena-kamel-laboratories/143102?b=71&k=19014&l=search",
	"arName":"18 أ ش جميل متفرع من ش عدلى - الدور 2, بنها, القليوبية",
	"lat":"30.4621776",
	"lng":"31.1805336",
	"enName":"18 A Gamil St. Off Adly St., Floor 2, Banha, Kaliobeya"
},
		{	"profileId":"202495",
	"profileURL":"//www.yellowpages.com.eg/en/profile/al-mokhtabar-_-moamena-kamel-laboratories/202495?b=40&k=19014&l=search",
	"arName":"2 ش احمد عرابى متفرع من ش سعد زغلول - عمارة الاكيابى - الدور 1, منيا القمح, الشرقية",
	"lat":"30.516159699999999",
	"lng":"31.343618299999999",
	"enName":"2 Ahmed Orabi St. Off Saad Zaghloul St., El Akiaby Bldg., Floor 1, Minya el qamh, El sharkeya"
},
		{	"profileId":"237221",
	"profileURL":"//www.yellowpages.com.eg/en/profile/al-mokhtabar-_-moamena-kamel-laboratories/237221?b=41&k=19014&l=search",
	"arName":"25 ش صلاح سالم تقاطع ش الصحافة, الحوامدية, الجيزة",
	"lat":"29.895527000000001",
	"lng":"31.265270999999998",
	"enName":"25 Salah Salem St. Intersection Of El Sahafa St., El hawamdeya, Giza"
},
		{	"profileId":"110653",
	"profileURL":"//www.yellowpages.com.eg/en/profile/al-mokhtabar-_-moamena-kamel-laboratories/110653?b=103&k=19014&l=search",
	"arName":"ش الجمهورية - عمارة النادى اليونانى - الدور 4, المنصورة, الدقهلية",
	"lat":"31.047381999999999",
	"lng":"31.384129999999999",
	"enName":"El Gomhoureya St., Greek Club Bldg., Floor 4, El mansoura, El dakahleya"
},
		{	"profileId":"160113",
	"profileURL":"//www.yellowpages.com.eg/en/profile/al-mokhtabar-_-moamena-kamel-laboratories/160113?b=69&k=19014&l=search",
	"arName":"طريق النصر - الدور 3, الدهار, الغردقة",
	"lat":"27.249116999999998",
	"lng":"33.819811999999999",
	"enName":"El Nasr Rd., Floor 3, Dahar, Hurghada"
},
		{	"profileId":"159924",
	"profileURL":"//www.yellowpages.com.eg/en/profile/al-mokhtabar-_-moamena-kamel-laboratories/159924?b=35&k=19014&l=search",
	"arName":"452 طريق الحرية - الدور 3, رشدى, الاسكندرية",
	"lat":"31.228567999999999",
	"lng":"29.952567999999999",
	"enName":"452 El Horreya Rd., Floor 3, Roushdy, Alexandria"
},
		{	"profileId":"355918",
	"profileURL":"//www.yellowpages.com.eg/en/profile/al-mokhtabar-_-moamena-kamel-laboratories/355918?b=21&k=19014&l=search",
	"arName":"599 ش بورسعيد - عمارة البندارى - الدور 1, الظاهر, القاهرة",
	"lat":"30.061215399999998",
	"lng":"31.261036000000001",
	"enName":"599 Port Said St., El Bendary Bldg., Floor 1, El zaher, Cairo"
},
		{	"profileId":"159922",
	"profileURL":"//www.yellowpages.com.eg/en/profile/al-mokhtabar-_-moamena-kamel-laboratories/159922?b=86&k=19014&l=search",
	"arName":"ش التحرير - الدور 2, قنطرة غرب, الاسماعيلية",
	"lat":"30.854341399999999",
	"lng":"32.3097931",
	"enName":"El Tahrir St., Floor 2, EL QANTARAH GHARB, Qantarah gharb, Ismaileya"
},
		{	"profileId":"160076",
	"profileURL":"//www.yellowpages.com.eg/en/profile/al-mokhtabar-_-moamena-kamel-laboratories/160076?b=100&k=19014&l=search",
	"arName":"7 ش الجمهورية - ش الجميل سابقا ميدان المحطة - برج سحيلة - الدور 3, وسط البلد, قنا",
	"lat":"26.161158100000002",
	"lng":"32.726098899999997",
	"enName":"7 El Gomhoureya St. - El Gamil St. Previously El Mahatta Sq., Sehaila Tower, Floor 3, Downtown, Qena"
},
		{	"profileId":"160072",
	"profileURL":"//www.yellowpages.com.eg/en/profile/al-mokhtabar-_-moamena-kamel-laboratories/160072?b=36&k=19014&l=search",
	"arName":"104 ش عبد القادر حلمى - ش درب الابشيهى سابقا تقاطع ش المديرية - الدور 1, طنطا, الغربية",
	"lat":"30.7854168",
	"lng":"30.9970827",
	"enName":"104 Abdel Qader Helmy St. - Darb El Abshihy St. Previously Intersection Of El Modereya St., Floor 1, Tanta, El gharbeya"
},
		{	"profileId":"355999",
	"profileURL":"//www.yellowpages.com.eg/en/profile/al-mokhtabar-_-moamena-kamel-laboratories/355999?b=78&k=19014&l=search",
	"arName":"ش بورسعيد البحرى - الدور 2, منوف, المنوفية",
	"lat":"30.466608399999998",
	"lng":"30.932650800000001",
	"enName":"Port Said El Bahary St., Floor 2, Minuf, El monofeya"
},
		{	"profileId":"187970",
	"profileURL":"//www.yellowpages.com.eg/en/profile/al-mokhtabar-_-moamena-kamel-laboratories/187970?b=39&k=19014&l=search",
	"arName":"60 ش لبنان متفرع من ميدان لبنان - الدور 2, المهندسين, الجيزة",
	"lat":"30.059024999999998",
	"lng":"31.193252999999999",
	"enName":"60 Lebanon St. Off Lebanon Sq., Floor 2, Mohandeseen, Giza"
},
		{	"profileId":"202499",
	"profileURL":"//www.yellowpages.com.eg/en/profile/al-mokhtabar-_-moamena-kamel-laboratories/202499?b=54&k=19014&l=search",
	"arName":"ش العروبة - برج التحرير - الدور 1, دكرنس, الدقهلية",
	"lat":"31.086421000000001",
	"lng":"31.600090999999999",
	"enName":"El Orouba St., El Tahrir Tower, Floor 1, Dikirnis, El dakahleya"
},
		{	"profileId":"332335",
	"profileURL":"//www.yellowpages.com.eg/en/profile/al-mokhtabar-_-moamena-kamel-laboratories/332335?b=61&k=19014&l=search",
	"arName":"14 ش ثابت بن اسلم, جرجا, سوهاج",
	"lat":"26.335581000000001",
	"lng":"31.888922000000001",
	"enName":"14 Thabet Ibn Aslam St., Gerga, Sohag"
},
		{	"profileId":"143113",
	"profileURL":"//www.yellowpages.com.eg/en/profile/al-mokhtabar-_-moamena-kamel-laboratories/143113?b=48&k=19014&l=search",
	"arName":"242 ش الجيش - برج خطاب - الدور 3 شقة 4, المنصورة, الدقهلية",
	"lat":"31.050484000000001",
	"lng":"31.394531000000001",
	"enName":"242 El Guish St., Khattab Tower, Floor 3 Flat 4, El mansoura, El dakahleya"
},
		{	"profileId":"272064",
	"profileURL":"//www.yellowpages.com.eg/en/profile/al-mokhtabar-_-moamena-kamel-laboratories/272064?b=109&k=19014&l=search",
	"arName":"121 ج - الدور 2, حدائق الاهرام, الهرم, الجيزة",
	"lat":"29.978227",
	"lng":"31.111315000000001",
	"enName":"121 C , Floor 2, Hadayek El Ahram, El haram, Giza"
},
		{	"profileId":"143116",
	"profileURL":"//www.yellowpages.com.eg/en/profile/al-mokhtabar-_-moamena-kamel-laboratories/143116?b=96&k=19014&l=search",
	"arName":"41 ش الجمهورية متفرع من ش الثلاثينى - الدور 3, وسط البلد, الاسماعيلية",
	"lat":"30.5910872",
	"lng":"32.265727200000001",
	"enName":"41 El Gomhoureya St. Off El Thalathiny St., Floor 3, Downtown, Ismaileya"
},
		{	"profileId":"143118",
	"profileURL":"//www.yellowpages.com.eg/en/profile/al-mokhtabar-_-moamena-kamel-laboratories/143118?b=49&k=19014&l=search",
	"arName":"ش الجمهورية - مجمع البريد الاستثمارى - الدور 1, حى الشرق, بور سعيد",
	"lat":"31.263135999999999",
	"lng":"32.310589",
	"enName":"El Gomhoureya St., Post Investment Complex, Floor 1, El shark district, Port said"
},
		{	"profileId":"436157",
	"profileURL":"//www.yellowpages.com.eg/en/profile/al-mokhtabar-_-moamena-kamel-laboratories/436157?b=5&k=19014&l=search",
	"arName":"50 ش حسن المأمون تقاطع ش ابو داوود الظاهرى, الحى الثامن, مدينة نصر, القاهرة",
	"lat":"30.062359000000001",
	"lng":"31.357849999999999",
	"enName":"50 Hassan El Maamoun St. Intersection Of Abou Dawoud El Zahery St., 8th District, Nasr city, Cairo"
},
		{	"profileId":"355927",
	"profileURL":"//www.yellowpages.com.eg/en/profile/al-mokhtabar-_-moamena-kamel-laboratories/355927?b=6&k=19014&l=search",
	"arName":"3 أ ش المنصورية - الدور 2, الجمالية, القاهرة",
	"lat":"30.046090100000001",
	"lng":"31.267376599999999",
	"enName":"3 A El Mansoureya St., Floor 2, El gamaleya, Cairo"
},
		{	"profileId":"131265",
	"profileURL":"//www.yellowpages.com.eg/en/profile/al-mokhtabar-_-moamena-kamel-laboratories/131265?b=19&k=19014&l=search",
	"arName":"72 ش العباسية ميدان عبده باشا - عمارة مكتب التموين - الدور 1, عباسية, القاهرة",
	"lat":"30.065069000000001",
	"lng":"31.275538000000001",
	"enName":"72 Abbaseya St. Abdou Pasha Sq., Supply Office Bldg., Floor 1, Abbasseya, Cairo"
},
		{	"profileId":"353749",
	"profileURL":"//www.yellowpages.com.eg/en/profile/al-mokhtabar-_-moamena-kamel-laboratories/353749?b=110&k=19014&l=search",
	"arName":"112 ش البحر الاعظم - الدور 1, الجيزة, الجيزة",
	"lat":"30.007623500000001",
	"lng":"31.2179331",
	"enName":"112 El Bahr El Aazam St., Floor 1, Giza, Giza"
},
		{	"profileId":"237252",
	"profileURL":"//www.yellowpages.com.eg/en/profile/al-mokhtabar-_-moamena-kamel-laboratories/237252?b=42&k=19014&l=search",
	"arName":"ش عبد السلام عارف - برج قصر العز - الدور 1, رشيد(روسيتا), البحيرة",
	"lat":"31.400462000000001",
	"lng":"30.417708999999999",
	"enName":"Abdel Salam Aref St., Kasr El Ezz Tower, Floor 1, Rashid(roseta), El beheira"
},
		{	"profileId":"81908",
	"profileURL":"//www.yellowpages.com.eg/en/profile/al-mokhtabar-_-moamena-kamel-laboratories/81908?b=12&k=19014&l=search",
	"arName":"10 ابراج اغاخان - ش السلام متفرع من كورنيش النيل - الدور 1, شبرا, القاهرة",
	"lat":"30.100802000000002",
	"lng":"31.241785",
	"enName":"10 Aghakhan Towers, El Salam St. Off Corniche El Nil, Floor 1, Shoubra, Cairo"
},
		{	"profileId":"237257",
	"profileURL":"//www.yellowpages.com.eg/en/profile/al-mokhtabar-_-moamena-kamel-laboratories/237257?b=43&k=19014&l=search",
	"arName":"ش الاسكندرية - الدور 3, وسط البلد, مرسى مطروح",
	"lat":"31.349394",
	"lng":"27.241731999999999",
	"enName":"Alexandria St., Floor 3, Downtown, Marsa matrouh"
},
		{	"profileId":"143093",
	"profileURL":"//www.yellowpages.com.eg/en/profile/al-mokhtabar-_-moamena-kamel-laboratories/143093?b=11&k=19014&l=search",
	"arName":"43 ش مصطفى النحاس - الدور 1, الحى الثامن, مدينة نصر, القاهرة",
	"lat":"30.054210999999999",
	"lng":"31.344186000000001",
	"enName":"43 Mostafa El Nahhas St., Floor 1, 8th District, Nasr city, Cairo"
},
		{	"profileId":"143094",
	"profileURL":"//www.yellowpages.com.eg/en/profile/al-mokhtabar-_-moamena-kamel-laboratories/143094?b=20&k=19014&l=search",
	"arName":"القطعة 377 - ميدان النافورة - منطقة د - الهضبة العليا, المقطم, القاهرة",
	"lat":"30.015021000000001",
	"lng":"31.283521",
	"enName":"Plot 377, El Nafoura Sq., Area D - Upper Hill, Mokattam, Cairo"
},
		{	"profileId":"81906",
	"profileURL":"//www.yellowpages.com.eg/en/profile/al-mokhtabar-_-moamena-kamel-laboratories/81906?b=30&k=19014&l=search",
	"arName":"9 ش البطل احمد عبد العزيز متفرع من ش الساحة, باب اللوق, القاهرة",
	"lat":"30.046945999999998",
	"lng":"31.242784",
	"enName":"9 El Batal Ahmed Abdel Aziz St. Off El Saha St., Bab el louk, Cairo"
},
		{	"profileId":"81907",
	"profileURL":"//www.yellowpages.com.eg/en/profile/al-mokhtabar-_-moamena-kamel-laboratories/81907?b=3&k=19014&l=search",
	"arName":"58 ش الحجاز - برج امون, ميدان هليوبوليس, مصر الجديدة, القاهرة",
	"lat":"30.106974000000001",
	"lng":"31.335118999999999",
	"enName":"58 El Hegaz St., Amoun Tower, Heliopolis Square, Heliopolis, Cairo"
},
		{	"profileId":"145390",
	"profileURL":"//www.yellowpages.com.eg/en/profile/al-mokhtabar-_-moamena-kamel-laboratories/145390?b=27&k=19014&l=search",
	"arName":"87 ش المنيل - الدور 1, المنيل, القاهرة",
	"lat":"30.023212000000001",
	"lng":"31.225981000000001",
	"enName":"87 Manial St., Floor 1, El manyal, Cairo"
},
		{	"profileId":"201851",
	"profileURL":"//www.yellowpages.com.eg/en/profile/al-mokhtabar-_-moamena-kamel-laboratories/201851?b=17&k=19014&l=search",
	"arName":"9 عمارات العبور - طريق صلاح سالم - الدور 4 شقة 7, مدينة نصر, القاهرة",
	"lat":"30.078382000000001",
	"lng":"31.312674999999999",
	"enName":"9 El Obour Bldgs., Salah Salem Rd., Floor 4 Flat 7, Nasr city, Cairo"
},
		{	"profileId":"143095",
	"profileURL":"//www.yellowpages.com.eg/en/profile/al-mokhtabar-_-moamena-kamel-laboratories/143095?b=83&k=19014&l=search",
	"arName":"360 ش الهرم - الدور 1, المساحة, الهرم, الجيزة",
	"lat":"30.005987999999999",
	"lng":"31.19162",
	"enName":"360 Haram St., Floor 1, El Messaha, El haram, Giza"
},
		{	"profileId":"373756",
	"profileURL":"//www.yellowpages.com.eg/en/profile/al-mokhtabar-_-moamena-kamel-laboratories/373756?b=75&k=19014&l=search",
	"arName":"عمارة محمود عارف - ش عاطف المنجى متفرع من ش الجمهورية - المشاية السفلية, المنصورة, الدقهلية",
	"lat":"31.0450743",
	"lng":"31.3654227",
	"enName":"Mahmoud Aref Bldg., Atef El Mongey St. Off El Gomhoureya St., El Mashaya El Sofleya, El mansoura, El dakahleya"
},
		{	"profileId":"143121",
	"profileURL":"//www.yellowpages.com.eg/en/profile/al-mokhtabar-_-moamena-kamel-laboratories/143121?b=72&k=19014&l=search",
	"arName":"كم 16 - طريق اسكندرية مطروح الصحراوى - الدور 1, العجمى, الاسكندرية",
	"lat":"31.101626",
	"lng":"29.775448999999998",
	"enName":"Km 16, Alex Matrouh Desert Rd., Floor 1, Agami, Alexandria"
},
		{	"profileId":"81910",
	"profileURL":"//www.yellowpages.com.eg/en/profile/al-mokhtabar-_-moamena-kamel-laboratories/81910?b=13&k=19014&l=search",
	"arName":"4 ش 151 متفرع من ميدان الحرية, المعادى, القاهرة",
	"lat":"29.959994999999999",
	"lng":"31.251538",
	"enName":"4 Rd. 151 Off El Horreya Sq., Maadi, Cairo"
},
		{	"profileId":"272056",
	"profileURL":"//www.yellowpages.com.eg/en/profile/al-mokhtabar-_-moamena-kamel-laboratories/272056?b=44&k=19014&l=search",
	"arName":"ش الدروس - ش ترعة المنيا سابقا - برج البطران - الدور 3, فاقوس, الشرقية",
	"lat":"30.727316900000002",
	"lng":"31.792165600000001",
	"enName":"El Derous St. - Teraet El Menia St. Previously, El Batran Tower, Floor 3, Faqus, El sharkeya"
},
		{	"profileId":"149106",
	"profileURL":"//www.yellowpages.com.eg/en/profile/al-mokhtabar-_-moamena-kamel-laboratories/149106?b=80&k=19014&l=search",
	"arName":"30 ش سعد زغلول متفرع من ش الثورة - عمارة حمدى سالم, دسوق, كفر الشيخ",
	"lat":"31.128367000000001",
	"lng":"30.644895000000002",
	"enName":"30 Saad Zaghloul St. Off El Thawra St., Hamdy Salem Bldg., Disuq, Kafr el sheikh"
},
		{	"profileId":"143125",
	"profileURL":"//www.yellowpages.com.eg/en/profile/al-mokhtabar-_-moamena-kamel-laboratories/143125?b=50&k=19014&l=search",
	"arName":"ش احمد محرم - برج السراج - الدور 2, دمنهور, البحيرة",
	"lat":"31.039988000000001",
	"lng":"30.468408",
	"enName":"Ahmed Moharram St., El Serag Tower, Floor 2, Damanhour, El beheira"
},
		{	"profileId":"272058",
	"profileURL":"//www.yellowpages.com.eg/en/profile/al-mokhtabar-_-moamena-kamel-laboratories/272058?b=91&k=19014&l=search",
	"arName":"ميدان طه حسين, مغاغة, المنيا",
	"lat":"28.646388900000002",
	"lng":"30.839745799999999",
	"enName":"Taha Hussein Sq., Magaghah, El menia"
},
		{	"profileId":"237248",
	"profileURL":"//www.yellowpages.com.eg/en/profile/al-mokhtabar-_-moamena-kamel-laboratories/237248?b=73&k=19014&l=search",
	"arName":"ش الصعيدى - ش حسب الله الكفراوى سابقا المجاورة الثالثة - الحى الثانى, دمياط الجديدة, دمياط",
	"lat":"31.444033900000001",
	"lng":"31.6829207",
	"enName":"El Saidy St. - Hasaballah El Kafrawy St. Previously 3rd Neighbourhood, 2nd District, New damietta, Damietta"
},
		{	"profileId":"51788",
	"profileURL":"//www.yellowpages.com.eg/en/profile/al-mokhtabar-_-moamena-kamel-laboratories/51788?b=102&k=19014&l=search",
	"arName":"64 ش جامعة الدول العربية, المهندسين, الجيزة",
	"lat":"30.050547000000002",
	"lng":"31.199788999999999",
	"enName":"64 Gamaet El Dewal El Arabeya St., Mohandeseen, Giza"
},
		{	"profileId":"373742",
	"profileURL":"//www.yellowpages.com.eg/en/profile/al-mokhtabar-_-moamena-kamel-laboratories/373742?b=33&k=19014&l=search",
	"arName":"130 ش النزهة - الدور 2, تريومف, مصر الجديدة, القاهرة",
	"lat":"30.101244000000001",
	"lng":"31.342987000000001",
	"enName":"130 El Nozha St., Floor 2, Triumph Square, Heliopolis, Cairo"
},
		{	"profileId":"187954",
	"profileURL":"//www.yellowpages.com.eg/en/profile/al-mokhtabar-_-moamena-kamel-laboratories/187954?b=82&k=19014&l=search",
	"arName":"برج لكوظ - ش الجلاء تقاطع ش الزيات - حى المنتزة - الدور 2, الزقازيق, الشرقية",
	"lat":"30.588360000000002",
	"lng":"31.505908000000002",
	"enName":"Lakouz Tower, El Galaa St. Intersection Of El Zayyat St., El Montazah District, Floor 2, El zagazig, El sharkeya"
},
		{	"profileId":"187956",
	"profileURL":"//www.yellowpages.com.eg/en/profile/al-mokhtabar-_-moamena-kamel-laboratories/187956?b=38&k=19014&l=search",
	"arName":"ش جمال عبد الناصر ميدان باتا - الدور 1, بلبيس, الشرقية",
	"lat":"30.419456",
	"lng":"31.562175",
	"enName":"Gamal Abdel Nasser St. Bata Sq., Floor 1, Belbeis, El sharkeya"
},
		{	"profileId":"353752",
	"profileURL":"//www.yellowpages.com.eg/en/profile/al-mokhtabar-_-moamena-kamel-laboratories/353752?b=92&k=19014&l=search",
	"arName":"22 أ ش مراد, الجيزة, الجيزة",
	"lat":"30.019381299999999",
	"lng":"31.215757700000001",
	"enName":"22 A Mourad St., Giza, Giza"
},
		{	"profileId":"205703",
	"profileURL":"//www.yellowpages.com.eg/en/profile/al-mokhtabar-_-moamena-kamel-laboratories/205703?b=59&k=19014&l=search",
	"arName":"27 ميدان فيكتور عمانويل - الدور 2, سموحة, الاسكندرية",
	"lat":"31.215335",
	"lng":"29.945184000000001",
	"enName":"27 Victor Emanuel Sq., Floor 2, Semouha, Alexandria"
},
		{	"profileId":"373747",
	"profileURL":"//www.yellowpages.com.eg/en/profile/al-mokhtabar-_-moamena-kamel-laboratories/373747?b=111&k=19014&l=search",
	"arName":"1 برج الزياد - ش جمال عبد الناصر ميدان المندرة, المندرة البحرية, الاسكندرية",
	"lat":"31.280328999999998",
	"lng":"30.012573",
	"enName":"1 El Zeyad Tower, Gamal Abdel Nasser St. El Mandara Sq., El mandara el bahareya, Alexandria"
},
		{	"profileId":"355932",
	"profileURL":"//www.yellowpages.com.eg/en/profile/al-mokhtabar-_-moamena-kamel-laboratories/355932?b=22&k=19014&l=search",
	"arName":"45 ش قصر العينى - الدور 1 شقة 2, قصر العينى, القاهرة",
	"lat":"30.029434999999999",
	"lng":"31.232728000000002",
	"enName":"45 Kasr El Ainy St., Floor 1 Flat 2, Kasr el ainy, Cairo"
},
		{	"profileId":"98050",
	"profileURL":"//www.yellowpages.com.eg/en/profile/al-mokhtabar-_-moamena-kamel-laboratories/98050?b=18&k=19014&l=search",
	"arName":"30 ش شبرا - الدور 2, شبرا, القاهرة",
	"lat":"30.067944000000001",
	"lng":"31.244792",
	"enName":"30 Shoubra St., Floor 2, Shoubra, Cairo"
},
		{	"profileId":"98052",
	"profileURL":"//www.yellowpages.com.eg/en/profile/al-mokhtabar-_-moamena-kamel-laboratories/98052?b=101&k=19014&l=search",
	"arName":"71 ش الجيش, طنطا, الغربية",
	"lat":"30.792221000000001",
	"lng":"30.998391000000002",
	"enName":"71 El Guish St., Tanta, El gharbeya"
},
		{	"profileId":"142048",
	"profileURL":"//www.yellowpages.com.eg/en/profile/al-mokhtabar-_-moamena-kamel-laboratories/142048?b=95&k=19014&l=search",
	"arName":"7 ش الجيش - عمارة فوزى جابر - الدور 2, ميت غمر, الدقهلية",
	"lat":"31.047414",
	"lng":"31.395534999999999",
	"enName":"7 El Guish St., Fawzy Gaber Bldg., Floor 2, Mit ghamr, El dakahleya"
},
		{	"profileId":"109477",
	"profileURL":"//www.yellowpages.com.eg/en/profile/al-mokhtabar-_-moamena-kamel-laboratories/109477?b=25&k=19014&l=search",
	"arName":"81 طريق النصر - الدور 1, مدينة نصر, القاهرة",
	"lat":"30.067872000000001",
	"lng":"31.332288999999999",
	"enName":"81 El Nasr Rd., Floor 1, Nasr city, Cairo"
},
		{	"profileId":"149091",
	"profileURL":"//www.yellowpages.com.eg/en/profile/al-mokhtabar-_-moamena-kamel-laboratories/149091?b=52&k=19014&l=search",
	"arName":"ش سعد زغلول تقاطع ش الجيش - الدور 1, كفر الزيات, الغربية",
	"lat":"30.824997",
	"lng":"30.814097",
	"enName":"Saad Zaghloul St. Intersection Of El Guish St., Floor 1, Kafr el zayat, El gharbeya"
},
		{	"profileId":"187884",
	"profileURL":"//www.yellowpages.com.eg/en/profile/al-mokhtabar-_-moamena-kamel-laboratories/187884?b=81&k=19014&l=search",
	"arName":"132 ش الهرم - الدور 2, الكوم الاخضر, الهرم, الجيزة",
	"lat":"29.992889000000002",
	"lng":"31.156907",
	"enName":"132 Haram St., Floor 2, El Koum El Akhdar, El haram, Giza"
},
		{	"profileId":"373814",
	"profileURL":"//www.yellowpages.com.eg/en/profile/al-mokhtabar-_-moamena-kamel-laboratories/373814?b=77&k=19014&l=search",
	"arName":"ش احمد عرابى - برج زمزم - الدور 1, كفر الدوار, البحيرة",
	"lat":"31.1352352",
	"lng":"30.1302275",
	"enName":"Ahmed Orabi St., Zamzam Tower, Floor 1, Kafr el dawar, El beheira"
},
		{	"profileId":"187882",
	"profileURL":"//www.yellowpages.com.eg/en/profile/al-mokhtabar-_-moamena-kamel-laboratories/187882?b=55&k=19014&l=search",
	"arName":"الحى الاول, مدينة العبور, القليوبية",
	"lat":"30.235654",
	"lng":"31.470547",
	"enName":"1St District, Obour city, Kaliobeya"
},
		{	"profileId":"512547",
	"profileURL":"//www.yellowpages.com.eg/en/profile/al-mokhtabar-_-moamena-kamel-laboratories/512547?b=117&k=19014&l=search",
	"arName":"الحى الثالث - مركز الخدمات, الشيخ زايد, السادس من اكتوبر, الجيزة",
	"lat":"30.038449",
	"lng":"31.002012000000001",
	"enName":"3rd District, Services Center, El Sheikh Zayed, 6th of october, Giza"
},
		{	"profileId":"159066",
	"profileURL":"//www.yellowpages.com.eg/en/profile/al-mokhtabar-_-moamena-kamel-laboratories/159066?b=85&k=19014&l=search",
	"arName":"2 ش الوحدة متفرع من ش 15 مايو, شبرا الخيمة, القليوبية",
	"lat":"30.136139",
	"lng":"31.251100999999998",
	"enName":"2 El Wehda St. Off 15th Of May St., Shoubra el khaymah, Kaliobeya"
},
		{	"profileId":"159063",
	"profileURL":"//www.yellowpages.com.eg/en/profile/al-mokhtabar-_-moamena-kamel-laboratories/159063?b=1&k=19014&l=search",
	"arName":"3 ش الشهيد سيد زكريا خليل - الدور 1, مساكن شيراتون, مصر الجديدة, القاهرة",
	"lat":"30.103919000000001",
	"lng":"31.371009999999998",
	"enName":"3 El Shaheed Sayed Zakareya Khalil St., Floor 1, Sheraton Bldgs., Heliopolis, Cairo"
},
		{	"profileId":"159103",
	"profileURL":"//www.yellowpages.com.eg/en/profile/al-mokhtabar-_-moamena-kamel-laboratories/159103?b=10&k=19014&l=search",
	"arName":"المنطقة الادارية, مدينة الرحاب, القاهرة",
	"lat":"30.059887",
	"lng":"31.492045999999998",
	"enName":"Administrative Zone, Al rehab city, Cairo"
},
		{	"profileId":"373763",
	"profileURL":"//www.yellowpages.com.eg/en/profile/al-mokhtabar-_-moamena-kamel-laboratories/373763?b=76&k=19014&l=search",
	"arName":"محور خدمات الحى الثانى - الدور 3, مدينة السادات, المنوفية",
	"lat":"30.365002",
	"lng":"30.508099000000001",
	"enName":"2nd District Services Spine, Floor 3, Sadat city, El monofeya"
},
		{	"profileId":"373805",
	"profileURL":"//www.yellowpages.com.eg/en/profile/al-mokhtabar-_-moamena-kamel-laboratories/373805?b=112&k=19014&l=search",
	"arName":"74 ش سعد زغلول - الدور 2, اشمون, المنوفية",
	"lat":"30.296554700000002",
	"lng":"30.979562399999999",
	"enName":"74 Saad Zaghloul St., Floor 2, Ashmoun, El monofeya"
},
		{	"profileId":"122280",
	"profileURL":"//www.yellowpages.com.eg/en/profile/al-mokhtabar-_-moamena-kamel-laboratories/122280?b=28&k=19014&l=search",
	"arName":"57 ش الخليفة المأمون, روكسى, مصر الجديدة, القاهرة",
	"lat":"30.092489",
	"lng":"31.316289999999999",
	"enName":"57 El Khalifa El Maamoun St., Roxy, Heliopolis, Cairo"
},
		{	"profileId":"187892",
	"profileURL":"//www.yellowpages.com.eg/en/profile/al-mokhtabar-_-moamena-kamel-laboratories/187892?b=106&k=19014&l=search",
	"arName":"104 ش التحرير - الدور 2, الدقى, الجيزة",
	"lat":"30.038596999999999",
	"lng":"31.212067000000001",
	"enName":"104 El Tahrir St., Floor 2, Dokki, Giza"
},
		{	"profileId":"112913",
	"profileURL":"//www.yellowpages.com.eg/en/profile/al-mokhtabar-_-moamena-kamel-laboratories/112913?b=26&k=19014&l=search",
	"arName":"10 ش ابن الحكم ميدان الحلمية, حلمية الزيتون, القاهرة",
	"lat":"30.112437",
	"lng":"31.316020000000002",
	"enName":"10 Ibn El Hakam St. El Helmeya Sq., Helmeyet el zaitoun, Cairo"
},
		{	"profileId":"373809",
	"profileURL":"//www.yellowpages.com.eg/en/profile/al-mokhtabar-_-moamena-kamel-laboratories/373809?b=45&k=19014&l=search",
	"arName":"61 ش سكة حديد مصر, شبين القناطر, القليوبية",
	"lat":"30.313237000000001",
	"lng":"31.316410000000001",
	"enName":"61 Sekket Hadid Misr St., Shebein el kanater, Kaliobeya"
},
		{	"profileId":"356012",
	"profileURL":"//www.yellowpages.com.eg/en/profile/al-mokhtabar-_-moamena-kamel-laboratories/356012?b=79&k=19014&l=search",
	"arName":"ش مجلس المدينة - الدور 2, ايتاى البارود, البحيرة",
	"lat":"30.882370000000002",
	"lng":"30.666098000000002",
	"enName":"Magles El Madina St., Floor 2, Etay el barod, El beheira"
},
		{	"profileId":"135660",
	"profileURL":"//www.yellowpages.com.eg/en/profile/al-mokhtabar-_-moamena-kamel-laboratories/135660?b=58&k=19014&l=search",
	"arName":"76 ش جمال عبد الناصر ميدان شرف - برج الزهراء - الدور 5, شبين الكوم, المنوفية",
	"lat":"30.558780299999999",
	"lng":"31.010228099999999",
	"enName":"76 Gamal Abdel Nasser St. Sharaf Sq., El Zahraa Tower, Floor 5, SHIBIN EL KAWM, Shebein el kawm, El monofeya"
},
		{	"profileId":"159054",
	"profileURL":"//www.yellowpages.com.eg/en/profile/al-mokhtabar-_-moamena-kamel-laboratories/159054?b=84&k=19014&l=search",
	"arName":"1 ابراج برعى بلازا - المحور المركزى - الدور 2 شقة 12, الحى السابع, السادس من اكتوبر, الجيزة",
	"lat":"29.972090600000001",
	"lng":"30.943542999999998",
	"enName":"1 Boraie Plaza Towers, Central Spine, Floor 2 Flat 12, 7th District, 6th of october, Giza"
},
		{	"profileId":"159055",
	"profileURL":"//www.yellowpages.com.eg/en/profile/al-mokhtabar-_-moamena-kamel-laboratories/159055?b=98&k=19014&l=search",
	"arName":"1 ش ناهيا متفرع من ش بولاق الدكرور, بولاق الدكرور, الجيزة",
	"lat":"30.042296",
	"lng":"31.191711000000002",
	"enName":"1 Nahya St. Off Boulaq El Dakrour St., Boulak el dakrour, Giza"
},
		{	"profileId":"159058",
	"profileURL":"//www.yellowpages.com.eg/en/profile/al-mokhtabar-_-moamena-kamel-laboratories/159058?b=67&k=19014&l=search",
	"arName":"123 ش الوحدة - الدور 2, امبابة, الجيزة",
	"lat":"30.087959000000001",
	"lng":"31.212657",
	"enName":"123 El Wehda St., Floor 2, Imbaba, Giza"
},
		{	"profileId":"110600",
	"profileURL":"//www.yellowpages.com.eg/en/profile/al-mokhtabar-_-moamena-kamel-laboratories/110600?b=53&k=19014&l=search",
	"arName":"97 كورنيش النيل - عمارة الترجمان - الدور 1, الكورنيش, اسوان",
	"lat":"24.091217",
	"lng":"32.895834000000001",
	"enName":"97 Corniche El Nil, El Torgoman Bldg., Floor 1, El corniche, Aswan"
},
		{	"profileId":"131742",
	"profileURL":"//www.yellowpages.com.eg/en/profile/al-mokhtabar-_-moamena-kamel-laboratories/131742?b=89&k=19014&l=search",
	"arName":"300 ش الجيش ميدان الخضر - الدور 1, حى السويس, السويس",
	"lat":"29.964497000000001",
	"lng":"32.556207700000002",
	"enName":"300 El Guish St. El Khedr Sq., Floor 1, Suez district, Suez"
},
		{	"profileId":"356018",
	"profileURL":"//www.yellowpages.com.eg/en/profile/al-mokhtabar-_-moamena-kamel-laboratories/356018?b=60&k=19014&l=search",
	"arName":"برج سندس - ميدان بنزرت - الدور 1, حى الزهور, بور سعيد",
	"lat":"31.268342400000002",
	"lng":"32.276761800000003",
	"enName":"Sondos Tower, Banzart Sq., Floor 1, El zohour district, Port said"
},
		{	"profileId":"128091",
	"profileURL":"//www.yellowpages.com.eg/en/profile/al-mokhtabar-_-moamena-kamel-laboratories/128091?b=64&k=19014&l=search",
	"arName":"1 ش الحرية - برج السلام - الدور 1, وسط البلد, الفيوم",
	"lat":"29.308098999999999",
	"lng":"30.842134000000001",
	"enName":"1 El Horreya St., El Salam Tower, Floor 1, Downtown, El fayoum"
},
		{	"profileId":"144772",
	"profileURL":"//www.yellowpages.com.eg/en/profile/al-mokhtabar-_-moamena-kamel-laboratories/144772?b=97&k=19014&l=search",
	"arName":"ش الخلفاء الراشدين - برج الباشا, وسط البلد, كفر الشيخ",
	"lat":"31.112105",
	"lng":"30.939337999999999",
	"enName":"El Kholafaa El Rashedin St., El Basha Tower, Downtown, Kafr el sheikh"
},
		{	"profileId":"160071",
	"profileURL":"//www.yellowpages.com.eg/en/profile/al-mokhtabar-_-moamena-kamel-laboratories/160071?b=99&k=19014&l=search",
	"arName":"13 ش 23 يوليو - الدور 2, المحلة الكبرى, الغربية",
	"lat":"30.974587",
	"lng":"31.167282",
	"enName":"13 23rd Of July St., Floor 2, El mahalla el kobra, El gharbeya"
},
		{	"profileId":"533745",
	"profileURL":"//www.yellowpages.com.eg/en/profile/al-mokhtabar-_-moamena-kamel-laboratories/533745?b=116&k=19014&l=search",
	"arName":"13 كورنيش النيل - برج مصطفى رامز, القناطر الخيرية, القليوبية",
	"lat":"30.195779999999999",
	"lng":"31.132840000000002",
	"enName":"13 Corniche El Nil, Mostafa Ramez Tower, El qanatir el khayriyah, Kaliobeya"
},
		{	"profileId":"173534",
	"profileURL":"//www.yellowpages.com.eg/en/profile/al-mokhtabar-_-moamena-kamel-laboratories/173534?b=65&k=19014&l=search",
	"arName":"ش التليفزيون - الدور 2, الاقصر, الاقصر",
	"lat":"25.691937500000002",
	"lng":"32.640143500000001",
	"enName":"Television St., Floor 2, LUXOR, Luxor, Luxor"
},
		{	"profileId":"145228",
	"profileURL":"//www.yellowpages.com.eg/en/profile/al-mokhtabar-_-moamena-kamel-laboratories/145228?b=70&k=19014&l=search",
	"arName":"43 ش الجلاء - الدور 1, فيكتوريا, الاسكندرية",
	"lat":"31.245038000000001",
	"lng":"29.982303000000002",
	"enName":"43 El Galaa St., Floor 1, Victoria, Alexandria"
},
		{	"profileId":"531564",
	"profileURL":"//www.yellowpages.com.eg/en/profile/al-mokhtabar-_-moamena-kamel-laboratories/531564?b=15&k=19014&l=search",
	"arName":"55 ش الرياض تقاطع ش شريف, حلوان, القاهرة",
	"lat":"29.847458",
	"lng":"31.336613",
	"enName":"55 El Riad St. Intersection Of Sherif St., Helwan, Cairo"
},
		{	"profileId":"566000",
	"profileURL":"//www.yellowpages.com.eg/en/profile/al-mokhtabar-_-moamena-kamel-laboratories/566000?b=47&k=19014&l=search",
	"arName":"مارينا 4, مارينا, الساحل الشمالى",
	"lat":"30.826886999999999",
	"lng":"28.982748999999998",
	"enName":"Marina 4, Marina, North coast"
},
		{	"profileId":"583004",
	"profileURL":"//www.yellowpages.com.eg/en/profile/al-mokhtabar-_-moamena-kamel-laboratories/583004?b=7&k=19014&l=search",
	"arName":"طريق مصر اسماعيلية الصحراوى, مدينة الشروق, القاهرة",
	"lat":"",
	"lng":"",
	"enName":"Misr Ismaileya Desert Rd., El sherouk city, Cairo"
},
		{	"profileId":"173532",
	"profileURL":"//www.yellowpages.com.eg/en/profile/al-mokhtabar-_-moamena-kamel-laboratories/173532?b=34&k=19014&l=search",
	"arName":"برج سافوى - ميدان المحطة, المحطة, المنيا",
	"lat":"28.097317",
	"lng":"30.754445",
	"enName":"Savoy Tower, El Mahatta Sq., El mahatta, El menia"
},
		{	"profileId":"128088",
	"profileURL":"//www.yellowpages.com.eg/en/profile/al-mokhtabar-_-moamena-kamel-laboratories/128088?b=57&k=19014&l=search",
	"arName":"21 ش امين فكرى, محطة الرمل, الاسكندرية",
	"lat":"31.202178",
	"lng":"29.902685999999999",
	"enName":"21 Amin Fekry St., Raml station, Alexandria"
},
		{	"profileId":"187878",
	"profileURL":"//www.yellowpages.com.eg/en/profile/al-mokhtabar-_-moamena-kamel-laboratories/187878?b=105&k=19014&l=search",
	"arName":"33 ش احمد عرابى - الدور 2, المهندسين, الجيزة",
	"lat":"30.064046999999999",
	"lng":"31.205158000000001",
	"enName":"33 Ahmed Orabi St., Floor 2, Mohandeseen, Giza"
},
		{	"profileId":"96514",
	"profileURL":"//www.yellowpages.com.eg/en/profile/al-mokhtabar-_-moamena-kamel-laboratories/96514?b=37&k=19014&l=search",
	"arName":"المجاورة الثالثة, الحى السادس, السادس من اكتوبر, الجيزة",
	"lat":"29.940792999999999",
	"lng":"30.921544000000001",
	"enName":"3rd Neighbourhood, 6th District, 6th of october, Giza"
},
		{	"profileId":"392046",
	"profileURL":"//www.yellowpages.com.eg/en/profile/al-mokhtabar-_-moamena-kamel-laboratories/392046?b=93&k=19014&l=search",
	"arName":"51 ش عبد المنعم رياض متفرع من ش البطل احمد عبد العزيز, المهندسين, الجيزة",
	"lat":"30.053591000000001",
	"lng":"31.208960999999999",
	"enName":"51 Abdel Moneim Riad St. Off El Batal Ahmed Abdel Aziz St., Mohandeseen, Giza"
},
		{	"profileId":"187874",
	"profileURL":"//www.yellowpages.com.eg/en/profile/al-mokhtabar-_-moamena-kamel-laboratories/187874?b=4&k=19014&l=search",
	"arName":"140 ش 26 يوليو - الدور 2, الزمالك, القاهرة",
	"lat":"30.061914999999999",
	"lng":"31.217305",
	"enName":"140 26th Of July St., Floor 2, Zamalek, Cairo"
},
		{	"profileId":"373825",
	"profileURL":"//www.yellowpages.com.eg/en/profile/al-mokhtabar-_-moamena-kamel-laboratories/373825?b=90&k=19014&l=search",
	"arName":"ش بورسعيد, كوم امبو, اسوان",
	"lat":"24.4767814",
	"lng":"32.9481295",
	"enName":"Port Said St., Kom ombo, Aswan"
},
		{	"profileId":"120361",
	"profileURL":"//www.yellowpages.com.eg/en/profile/al-mokhtabar-_-moamena-kamel-laboratories/120361?b=104&k=19014&l=search",
	"arName":"خدمة العملاء, المهندسين, الجيزة",
	"lat":"",
	"lng":"",
	"enName":"Customer Service, Mohandeseen, Giza"
},
		{	"profileId":"124041",
	"profileURL":"//www.yellowpages.com.eg/en/profile/al-mokhtabar-_-moamena-kamel-laboratories/124041?b=29&k=19014&l=search",
	"arName":"306 ش بورسعيد - الدور 1, السيدة زينب, القاهرة",
	"lat":"30.040509",
	"lng":"31.250616000000001",
	"enName":"306 Port Said St., Floor 1, El sayeda zeinab, Cairo"
},
		{	"profileId":"373823",
	"profileURL":"//www.yellowpages.com.eg/en/profile/al-mokhtabar-_-moamena-kamel-laboratories/373823?b=46&k=19014&l=search",
	"arName":"ش النادى الرياضى متفرع من ش 23 يوليو, سيدى سالم, كفر الشيخ",
	"lat":"31.268663199999999",
	"lng":"30.7854375",
	"enName":"El Nady El Riady St. Off 23rd Of July St., Sidi salem, Kafr el sheikh"
},
		{	"profileId":"128084",
	"profileURL":"//www.yellowpages.com.eg/en/profile/al-mokhtabar-_-moamena-kamel-laboratories/128084?b=63&k=19014&l=search",
	"arName":"366 ش فيصل - الدور 1, الطالبية, فيصل, الجيزة",
	"lat":"30.005537",
	"lng":"31.178077999999999",
	"enName":"366 Faisal St., Floor 1, El Talbeya, Faisal, Giza"
},
		{	"profileId":"373824",
	"profileURL":"//www.yellowpages.com.eg/en/profile/al-mokhtabar-_-moamena-kamel-laboratories/373824?b=113&k=19014&l=search",
	"arName":"ش الجنينة تقاطع ش الاذاعة, رأس غارب, البحر الاحمر",
	"lat":"28.353869299999999",
	"lng":"33.081829499999998",
	"enName":"El Genina St. Intersection Of El Ezaa St., RAS GHAREB, Ras ghareb, Red sea"
},
		{	"profileId":"355975",
	"profileURL":"//www.yellowpages.com.eg/en/profile/al-mokhtabar-_-moamena-kamel-laboratories/355975?b=23&k=19014&l=search",
	"arName":"24 ش عمر بن الخطاب - الدور 1 شقة 3, ميدان الاسماعيلية, مصر الجديدة, القاهرة",
	"lat":"30.097109",
	"lng":"31.334589000000001",
	"enName":"24 Omar Ibn El Khattab St., Floor 1 Flat 3, Ismaileya Square, Heliopolis, Cairo"
},
		{	"profileId":"173526",
	"profileURL":"//www.yellowpages.com.eg/en/profile/al-mokhtabar-_-moamena-kamel-laboratories/173526?b=8&k=19014&l=search",
	"arName":"4 ش محمد مهدى عرفة متفرع من ش احمد الزمر - المنطقة 12 - برج د. رشا, الحى العاشر, مدينة نصر, القاهرة",
	"lat":"30.056995000000001",
	"lng":"31.380241000000002",
	"enName":"4 Mohamed Mahdy Arafa St. Off Ahmed El Zomor St., Zone 12, Dr. Rasha Tower, 10th District, Nasr city, Cairo"
},
		{	"profileId":"173527",
	"profileURL":"//www.yellowpages.com.eg/en/profile/al-mokhtabar-_-moamena-kamel-laboratories/173527?b=16&k=19014&l=search",
	"arName":"ش احمد عصمت تقاطع ش عين شمس, عين شمس, القاهرة",
	"lat":"30.129145000000001",
	"lng":"31.321480000000001",
	"enName":"Ahmed Essmat St. Intersection Of Ain Shams St., Ain shams, Cairo"
},
		{	"profileId":"252136",
	"profileURL":"//www.yellowpages.com.eg/en/profile/al-mokhtabar-_-moamena-kamel-laboratories/252136?b=32&k=19014&l=search",
	"arName":"منطقة خدمات الحى الاول, التجمع الخامس, القاهرة الجديدة, القاهرة",
	"lat":"30.003300200000002",
	"lng":"31.425161800000001",
	"enName":"1St District Services Zone, 5th Compound, New cairo, Cairo"
},
		{	"profileId":"173529",
	"profileURL":"//www.yellowpages.com.eg/en/profile/al-mokhtabar-_-moamena-kamel-laboratories/173529?b=31&k=19014&l=search",
	"arName":"25 ش جسر السويس تقسيم عمر بن الخطاب - الدور 3, جسر السويس, القاهرة",
	"lat":"30.141712999999999",
	"lng":"31.398195000000001",
	"enName":"25 Gesr El Suez St. Omar Ibn El Khattab Division, Floor 3, Gesr el suez, Cairo"
},
		{	"profileId":"159073",
	"profileURL":"//www.yellowpages.com.eg/en/profile/al-mokhtabar-_-moamena-kamel-laboratories/159073?b=24&k=19014&l=search",
	"arName":"127 أ ش مصر والسودان - الدور 2, حدائق القبة, القاهرة",
	"lat":"30.082834999999999",
	"lng":"31.281905999999999",
	"enName":"127 A Misr & Sudan St., Floor 2, Hadayek el kobba, Cairo"
},
		{	"profileId":"159070",
	"profileURL":"//www.yellowpages.com.eg/en/profile/al-mokhtabar-_-moamena-kamel-laboratories/159070?b=2&k=19014&l=search",
	"arName":"9 /2 ش النصر, المعادى الجديدة, المعادى, القاهرة",
	"lat":"29.976013999999999",
	"lng":"31.283991",
	"enName":"9 /2 El Nasr St., New Maadi, Maadi, Cairo"
},
		{	"profileId":"202481",
	"profileURL":"//www.yellowpages.com.eg/en/profile/al-mokhtabar-_-moamena-kamel-laboratories/202481?b=66&k=19014&l=search",
	"arName":"حارة عيد القمبشاوى - متفرع من ش النيل السعيد - الدور 2, البدرشين, الجيزة",
	"lat":"29.85022",
	"lng":"31.278500399999999",
	"enName":"Eid El Qambashawy Alley, Off El Nil El Said St., Floor 2, El badrashin, Giza"
},
		{	"profileId":"159076",
	"profileURL":"//www.yellowpages.com.eg/en/profile/al-mokhtabar-_-moamena-kamel-laboratories/159076?b=9&k=19014&l=search",
	"arName":"50 ش ابراهيم عبد الهادى تقاطع ش الفيوم - عمارة ليالى السلام - الدور 1, دار السلام, القاهرة",
	"lat":"29.984352999999999",
	"lng":"31.244685",
	"enName":"50 Ibrahim Abdel Hady St. Intersection Of El Fayoum St., Layaly El Salam Bldg., Floor 1, Dar el salam, Cairo"
}
	]
}]}