{"items":[{	"arName":"احمد السلاب مول",
	"enName":"Ahmed El Sallab Mall",
	"hotline":"19075",
	"facebook":"http://www.facebook.com/ahmedelsallabmall",
	"web":"http://www.ahmedelsallab.com/",
	"arCategory":[
		"سيراميك وبورسيلين منتجات"
	],
	"enCategories":[
		"Ceramic & Porcelain"
	],
	"contacts":[
		{	"profileId":"322693",
	"profileURL":"//www.yellowpages.com.eg/en/profile/ahmed-el-sallab-mall/322693?b=4&k=19075&l=search",
	"arName":"خدمة العملاء, المقطم, القاهرة",
	"lat":"",
	"lng":"",
	"enName":"Customer Service, Mokattam, Cairo"
},
		{	"profileId":"169886",
	"profileURL":"//www.yellowpages.com.eg/en/profile/ahmed-el-sallab-mall/169886?b=1&k=19075&l=search",
	"arName":"طريق الاوتوستراد تقاطع الطريق الدائرى, المقطم, القاهرة",
	"lat":"29.99569",
	"lng":"31.283891000000001",
	"enName":"Autostrad Rd. Intersection Of Ring Rd., Mokattam, Cairo"
},
		{	"profileId":"397353",
	"profileURL":"//www.yellowpages.com.eg/en/profile/ahmed-el-sallab-mall/397353?b=5&k=19075&l=search",
	"arName":"المحور المركزى - تقاطع محور 26 يوليو, السادس من اكتوبر, الجيزة",
	"lat":"29.977595000000001",
	"lng":"30.955518000000001",
	"enName":"Central Spine, Intersection Of 26th Of July Spine, 6th of october, Giza"
},
		{	"profileId":"466670",
	"profileURL":"//www.yellowpages.com.eg/en/profile/ahmed-el-sallab-mall/466670?b=6&k=19075&l=search",
	"arName":"30 ش شهاب متفرع من ش سوريا, المهندسين, الجيزة",
	"lat":"30.053173999999999",
	"lng":"31.195008000000001",
	"enName":"30 Shehab St. Off Syria St., Mohandeseen, Giza"
},
		{	"profileId":"205394",
	"profileURL":"//www.yellowpages.com.eg/en/profile/ahmed-el-sallab-mall/205394?b=3&k=19075&l=search",
	"arName":"30 ش مكرم عبيد, المنطقة السادسة, مدينة نصر, القاهرة",
	"lat":"30.057870999999999",
	"lng":"31.345281",
	"enName":"30 Makram Ebaid St., 6th Zone, Nasr city, Cairo"
},
		{	"profileId":"443408",
	"profileURL":"//www.yellowpages.com.eg/en/profile/ahmed-el-sallab-mall/443408?b=2&k=19075&l=search",
	"arName":"ش مصطفى النحاس تقاطع ش يوسف عباس - برج البدر بلازا, الحى السابع, مدينة نصر, القاهرة",
	"lat":"30.051841100000001",
	"lng":"31.324172999999998",
	"enName":"Mostafa El Nahhas St. Intersection Of Youssef Abbas St., El Badr Plaza Tower, 7th District, Nasr city, Cairo"
}
	]
}]}