{"items":[{	"arName":"شمس - النيل الهندسية والتجارية",
	"enName":"Shams - El Nil Engineering & Trading",
	"hotline":"19080",
	"facebook":"http://www.facebook.com/ShamsStoresEg",
	"web":"",
	"arCategory":[
		"تكييف هواء"
	],
	"enCategories":[
		"Air Conditioning"
	],
	"contacts":[
		{	"profileId":"181135",
	"profileURL":"//www.yellowpages.com.eg/en/profile/shams-_-el-nil-engineering-&-trading/181135?b=7&k=19080&l=search",
	"arName":"20 ش وزارة الزراعة امتداد ش البطل احمد عبد العزيز, المهندسين, الجيزة",
	"lat":"30.052318",
	"lng":"31.207384999999999",
	"enName":"20 Wezaret El Zeraah St. Extension Of El Batal Ahmed Abdel Aziz St., Mohandeseen, Giza"
},
		{	"profileId":"102826",
	"profileURL":"//www.yellowpages.com.eg/en/profile/shams-_-el-nil-engineering-&-trading/102826?b=8&k=19080&l=search",
	"arName":"طريق النصر, الدهار, الغردقة",
	"lat":"27.243003999999999",
	"lng":"33.827064999999997",
	"enName":"El Nasr Rd., Dahar, Hurghada"
},
		{	"profileId":"102828",
	"profileURL":"//www.yellowpages.com.eg/en/profile/shams-_-el-nil-engineering-&-trading/102828?b=5&k=19080&l=search",
	"arName":"بورتو مارينا - مارينا 3 - الممشى السياحى, مارينا, الساحل الشمالى",
	"lat":"30.825776000000001",
	"lng":"29.001836999999998",
	"enName":"Porto Marina, Marina 3, Touristic Passage, Marina, North coast"
},
		{	"profileId":"181139",
	"profileURL":"//www.yellowpages.com.eg/en/profile/shams-_-el-nil-engineering-&-trading/181139?b=3&k=19080&l=search",
	"arName":"56 ش الحجاز, ميدان هليوبوليس, مصر الجديدة, القاهرة",
	"lat":"30.106755",
	"lng":"31.334619",
	"enName":"56 El Hegaz St., Heliopolis Square, Heliopolis, Cairo"
},
		{	"profileId":"106147",
	"profileURL":"//www.yellowpages.com.eg/en/profile/shams-_-el-nil-engineering-&-trading/106147?b=2&k=19080&l=search",
	"arName":"خدمة العملاء, المنطقة السادسة, مدينة نصر, القاهرة",
	"lat":"30.055593999999999",
	"lng":"31.345677999999999",
	"enName":"Customer Service, 6th Zone, Nasr city, Cairo"
},
		{	"profileId":"83761",
	"profileURL":"//www.yellowpages.com.eg/en/profile/shams-_-el-nil-engineering-&-trading/83761?b=4&k=19080&l=search",
	"arName":"27 أ ش عبد الخالق ثروت, وسط البلد, القاهرة",
	"lat":"30.050370000000001",
	"lng":"31.242526000000002",
	"enName":"27 A Abdel Khaleq Tharwat St., Downtown, Cairo"
},
		{	"profileId":"56929",
	"profileURL":"//www.yellowpages.com.eg/en/profile/shams-_-el-nil-engineering-&-trading/56929?b=1&k=19080&l=search",
	"arName":"8 ش مكرم عبيد, المنطقة السادسة, مدينة نصر, القاهرة",
	"lat":"30.055593999999999",
	"lng":"31.345677999999999",
	"enName":"8 Makram Ebaid St., 6th Zone, Nasr city, Cairo"
},
		{	"profileId":"102830",
	"profileURL":"//www.yellowpages.com.eg/en/profile/shams-_-el-nil-engineering-&-trading/102830?b=6&k=19080&l=search",
	"arName":"طريق السلام, خليج نعمة, شرم الشيخ",
	"lat":"27.911345000000001",
	"lng":"34.319398",
	"enName":"El Salam Rd., Naama bay, Sharm el sheikh"
}
	]
}]}