{"items":[{	"arName":"قبنورى",
	"enName":"Kabnoury",
	"hotline":"19088",
	"facebook":"",
	"web":"http://www.kabnoury.net/",
	"arCategory":[
		"الومنيوم"
	],
	"enCategories":[
		"Aluminum"
	],
	"contacts":[
		{	"profileId":"76660",
	"profileURL":"//www.yellowpages.com.eg/en/profile/kabnoury/76660?b=3&k=19088&l=search",
	"arName":"25 ش الخليفة المأمون, روكسى, مصر الجديدة, القاهرة",
	"lat":"30.089089999999999",
	"lng":"31.311055",
	"enName":"25 El Khalifa El Maamoun St., Roxy, Heliopolis, Cairo"
},
		{	"profileId":"76661",
	"profileURL":"//www.yellowpages.com.eg/en/profile/kabnoury/76661?b=6&k=19088&l=search",
	"arName":"70 ش الجمهورية, المنصورة, الدقهلية",
	"lat":"31.045207999999999",
	"lng":"31.361972000000002",
	"enName":"70 El Gomhoureya St., El mansoura, El dakahleya"
},
		{	"profileId":"76662",
	"profileURL":"//www.yellowpages.com.eg/en/profile/kabnoury/76662?b=1&k=19088&l=search",
	"arName":"47 ش عباس العقاد, المنطقة الاولى, مدينة نصر, القاهرة",
	"lat":"30.058422",
	"lng":"31.337571000000001",
	"enName":"47 Abbas El Akkad St., 1st Zone, Nasr city, Cairo"
},
		{	"profileId":"76673",
	"profileURL":"//www.yellowpages.com.eg/en/profile/kabnoury/76673?b=8&k=19088&l=search",
	"arName":"36 ش شهاب, المهندسين, الجيزة",
	"lat":"30.053816000000001",
	"lng":"31.195055",
	"enName":"36 Shehab St., Mohandeseen, Giza"
},
		{	"profileId":"76663",
	"profileURL":"//www.yellowpages.com.eg/en/profile/kabnoury/76663?b=2&k=19088&l=search",
	"arName":"37 ش 105 ميدان الاتحاد, المعادى, القاهرة",
	"lat":"29.964572",
	"lng":"31.251657000000002",
	"enName":"37 Rd. 105 El Ethad Sq., Maadi, Cairo"
},
		{	"profileId":"76666",
	"profileURL":"//www.yellowpages.com.eg/en/profile/kabnoury/76666?b=7&k=19088&l=search",
	"arName":"3 ميدان مدكور, مدكور, الهرم, الجيزة",
	"lat":"30.003215000000001",
	"lng":"31.186212000000001",
	"enName":"3 madkour sq., Madkour, El haram, Giza"
},
		{	"profileId":"166613",
	"profileURL":"//www.yellowpages.com.eg/en/profile/kabnoury/166613?b=5&k=19088&l=search",
	"arName":"خدمة العملاء, الهرم, الجيزة",
	"lat":"",
	"lng":"",
	"enName":"Customer Service, El haram, Giza"
},
		{	"profileId":"76679",
	"profileURL":"//www.yellowpages.com.eg/en/profile/kabnoury/76679?b=4&k=19088&l=search",
	"arName":"456 طريق الحرية, رشدى, الاسكندرية",
	"lat":"31.228842",
	"lng":"29.952905000000001",
	"enName":"456 El Horreya Rd., Roushdy, Alexandria"
}
	]
}]}