{"items":[{	"arName":"مصر للتأمين",
	"enName":"Misr Insurance",
	"hotline":"19114",
	"facebook":"http://www.facebook.com/Page.Misr.Insurance",
	"web":"http://www.misrins.com.eg/",
	"arCategory":[
		"تأمين"
	],
	"enCategories":[
		"Insurance"
	],
	"contacts":[
		{	"profileId":"376723",
	"profileURL":"//www.yellowpages.com.eg/en/profile/misr-insurance/376723?b=60&k=19114&l=search",
	"arName":"1 ش البرج, حى السويس, السويس",
	"lat":"29.9690072",
	"lng":"32.552294400000001",
	"enName":"1 El Borg St., Suez district, Suez"
},
		{	"profileId":"376601",
	"profileURL":"//www.yellowpages.com.eg/en/profile/misr-insurance/376601?b=32&k=19114&l=search",
	"arName":"14 ش بلال بن رباح, مدينة السادات, المنوفية",
	"lat":"",
	"lng":"",
	"enName":"14 Belal Ibn Rabbah St., Sadat city, El monofeya"
},
		{	"profileId":"377459",
	"profileURL":"//www.yellowpages.com.eg/en/profile/misr-insurance/377459?b=65&k=19114&l=search",
	"arName":"ش احمد عرابى ميدان المديرية, بنى سويف, بنى سويف",
	"lat":"29.070640000000001",
	"lng":"31.098137000000001",
	"enName":"Ahmed Orabi St. El Modereya Sq., Benisuef, Benisuef"
},
		{	"profileId":"291751",
	"profileURL":"//www.yellowpages.com.eg/en/profile/misr-insurance/291751?b=12&k=19114&l=search",
	"arName":"16 ش ابراهيم اللقانى, روكسى, مصر الجديدة, القاهرة",
	"lat":"30.091211999999999",
	"lng":"31.319468000000001",
	"enName":"16 Ibrahim El Laqqany St., Roxy, Heliopolis, Cairo"
},
		{	"profileId":"376246",
	"profileURL":"//www.yellowpages.com.eg/en/profile/misr-insurance/376246?b=24&k=19114&l=search",
	"arName":"5 ميدان لاظوغلى, لاظوغلى, القاهرة",
	"lat":"30.039169000000001",
	"lng":"31.240627",
	"enName":"5 Lazoughly Sq., Lazoughly, Cairo"
},
		{	"profileId":"376125",
	"profileURL":"//www.yellowpages.com.eg/en/profile/misr-insurance/376125?b=29&k=19114&l=search",
	"arName":"2 طريق ترعة المريوطية تقاطع ش فيصل - المدينة الفيصلية, فيصل, الجيزة",
	"lat":"29.993536500000001",
	"lng":"31.1463669",
	"enName":"2 Teraet El Mariouteya Rd. Intersection Of Faisal St., El Madina El Faisaleya, Faisal, Giza"
},
		{	"profileId":"377456",
	"profileURL":"//www.yellowpages.com.eg/en/profile/misr-insurance/377456?b=42&k=19114&l=search",
	"arName":"المنطقة المركزية, دمياط الجديدة, دمياط",
	"lat":"31.441002999999998",
	"lng":"31.681816999999999",
	"enName":"Central Zone, New damietta, Damietta"
},
		{	"profileId":"376047",
	"profileURL":"//www.yellowpages.com.eg/en/profile/misr-insurance/376047?b=5&k=19114&l=search",
	"arName":"58 ش نزيه خليفة, المريلاند, مصر الجديدة, القاهرة",
	"lat":"30.096996000000001",
	"lng":"31.321777000000001",
	"enName":"58 Nazih Khalifa St., El Merryland, Heliopolis, Cairo"
},
		{	"profileId":"377455",
	"profileURL":"//www.yellowpages.com.eg/en/profile/misr-insurance/377455?b=52&k=19114&l=search",
	"arName":"5 - حى الصفا, رفح, شمال سيناء",
	"lat":"",
	"lng":"",
	"enName":"5 , El Safa District, Rafah, North sinai"
},
		{	"profileId":"376321",
	"profileURL":"//www.yellowpages.com.eg/en/profile/misr-insurance/376321?b=36&k=19114&l=search",
	"arName":"ج عمارة الاوقاف - ش جول جمال, وسط البلد, مرسى مطروح",
	"lat":"31.353563000000001",
	"lng":"27.241614999999999",
	"enName":"G El Awqaf Bldg., Goal Gamal St., Downtown, Marsa matrouh"
},
		{	"profileId":"397345",
	"profileURL":"//www.yellowpages.com.eg/en/profile/misr-insurance/397345?b=49&k=19114&l=search",
	"arName":"عمارة الاحمدى - ش مصطفى كامل, ابو كبير, الشرقية",
	"lat":"",
	"lng":"",
	"enName":"El Ahmady Bldg., Mostafa Kamel St., Abou kebeir, El sharkeya"
},
		{	"profileId":"377454",
	"profileURL":"//www.yellowpages.com.eg/en/profile/misr-insurance/377454?b=64&k=19114&l=search",
	"arName":"ش المحافظة متفرع من ش 23 يوليو, العريش, شمال سيناء",
	"lat":"31.137153000000001",
	"lng":"33.798133999999997",
	"enName":"El Mohafza St. Off 23Rd Of July St., Arish, North sinai"
},
		{	"profileId":"182150",
	"profileURL":"//www.yellowpages.com.eg/en/profile/misr-insurance/182150?b=46&k=19114&l=search",
	"arName":"ش البحر, دكرنس, الدقهلية",
	"lat":"31.050529999999998",
	"lng":"31.395427999999999",
	"enName":"El Bahr St., Dikirnis, El dakahleya"
},
		{	"profileId":"377536",
	"profileURL":"//www.yellowpages.com.eg/en/profile/misr-insurance/377536?b=66&k=19114&l=search",
	"arName":"ش بنك مصر, الدهار, الغردقة",
	"lat":"27.255331000000002",
	"lng":"33.813127999999999",
	"enName":"Bank Misr St., Dahar, Hurghada"
},
		{	"profileId":"376648",
	"profileURL":"//www.yellowpages.com.eg/en/profile/misr-insurance/376648?b=38&k=19114&l=search",
	"arName":"ش صبرى ابو علم, السنبلاوين, الدقهلية",
	"lat":"30.885376999999998",
	"lng":"31.459880999999999",
	"enName":"Sabry Abou Alam St., As sinbillawain, El dakahleya"
},
		{	"profileId":"145288",
	"profileURL":"//www.yellowpages.com.eg/en/profile/misr-insurance/145288?b=2&k=19114&l=search",
	"arName":"9 ش طلعت حرب, وسط البلد, القاهرة",
	"lat":"30.045939000000001",
	"lng":"31.237499",
	"enName":"9 Talaat Harb St., Downtown, Cairo"
},
		{	"profileId":"141200",
	"profileURL":"//www.yellowpages.com.eg/en/profile/misr-insurance/141200?b=26&k=19114&l=search",
	"arName":"خدمة العملاء, الدقى, الجيزة",
	"lat":"",
	"lng":"",
	"enName":"Customer Service, Dokki, Giza"
},
		{	"profileId":"145128",
	"profileURL":"//www.yellowpages.com.eg/en/profile/misr-insurance/145128?b=13&k=19114&l=search",
	"arName":"7 ش عبد اللطيف بلطية, جاردن سيتى, القاهرة",
	"lat":"30.036200000000001",
	"lng":"31.231100000000001",
	"enName":"7 Abdel Latif Boltia St., Garden city, Cairo"
},
		{	"profileId":"248973",
	"profileURL":"//www.yellowpages.com.eg/en/profile/misr-insurance/248973?b=54&k=19114&l=search",
	"arName":"82 ش ابطال التحرير - الدور 2, وسط البلد, اسوان",
	"lat":"24.098886",
	"lng":"32.900365999999998",
	"enName":"82 Abtal El Tahrir St., Floor 2, Downtown, Aswan"
},
		{	"profileId":"376132",
	"profileURL":"//www.yellowpages.com.eg/en/profile/misr-insurance/376132?b=30&k=19114&l=search",
	"arName":"المجاورة 24, الحى المتميز, السادس من اكتوبر, الجيزة",
	"lat":"29.986553000000001",
	"lng":"30.974019999999999",
	"enName":"Neighbourhood 24, El Motamayez District, 6th of october, Giza"
},
		{	"profileId":"376053",
	"profileURL":"//www.yellowpages.com.eg/en/profile/misr-insurance/376053?b=10&k=19114&l=search",
	"arName":"43 ش قصر النيل, وسط البلد, القاهرة",
	"lat":"30.049354999999998",
	"lng":"31.244909",
	"enName":"43 Kasr El Nil St., Downtown, Cairo"
},
		{	"profileId":"376636",
	"profileURL":"//www.yellowpages.com.eg/en/profile/misr-insurance/376636?b=37&k=19114&l=search",
	"arName":"ش سعد زغلول, دسوق, كفر الشيخ",
	"lat":"31.134366100000001",
	"lng":"30.640069799999999",
	"enName":"Saad Zaghloul St., Disuq, Kafr el sheikh"
},
		{	"profileId":"376316",
	"profileURL":"//www.yellowpages.com.eg/en/profile/misr-insurance/376316?b=73&k=19114&l=search",
	"arName":"7 المجاورة الثالثة, برج العرب الجديدة, الاسكندرية",
	"lat":"30.894220000000001",
	"lng":"29.581492999999998",
	"enName":"7 3Rd Neighbourhood, New borg el arab, Alexandria"
},
		{	"profileId":"376677",
	"profileURL":"//www.yellowpages.com.eg/en/profile/misr-insurance/376677?b=59&k=19114&l=search",
	"arName":"ش الحرية, ميت غمر, الدقهلية",
	"lat":"30.714071000000001",
	"lng":"31.252894999999999",
	"enName":"El Horreya St., Mit ghamr, El dakahleya"
},
		{	"profileId":"377447",
	"profileURL":"//www.yellowpages.com.eg/en/profile/misr-insurance/377447?b=63&k=19114&l=search",
	"arName":"11 عمارة ويلس - ش الجمهورية, حى الشرق, بور سعيد",
	"lat":"31.261016099999999",
	"lng":"32.309380099999998",
	"enName":"11 Wils Bldg., El Gomhoureya St., El shark district, Port said"
},
		{	"profileId":"376038",
	"profileURL":"//www.yellowpages.com.eg/en/profile/misr-insurance/376038?b=15&k=19114&l=search",
	"arName":"14 عمارة الفيروز - ش عين شمس ميدان النعام, عين شمس, القاهرة",
	"lat":"30.133599",
	"lng":"31.323502000000001",
	"enName":"14 El Fayrouz Bldg., Ain Shams St. El Naam Sq., Ain shams, Cairo"
},
		{	"profileId":"376157",
	"profileURL":"//www.yellowpages.com.eg/en/profile/misr-insurance/376157?b=23&k=19114&l=search",
	"arName":"عمارات شركة النيل للاسكان - ابراج اغاخان - كورنيش النيل, شبرا, القاهرة",
	"lat":"30.101085000000001",
	"lng":"31.241351000000002",
	"enName":"Sherket El Nil Lel Iskan Bldgs., Aghakhan Towers, Corniche El Nil, Shoubra, Cairo"
},
		{	"profileId":"376674",
	"profileURL":"//www.yellowpages.com.eg/en/profile/misr-insurance/376674?b=41&k=19114&l=search",
	"arName":"ش بورسعيد, كفر صقر, الشرقية",
	"lat":"",
	"lng":"",
	"enName":"Port Said St., Kafr sakr, El sharkeya"
},
		{	"profileId":"376311",
	"profileURL":"//www.yellowpages.com.eg/en/profile/misr-insurance/376311?b=72&k=19114&l=search",
	"arName":"5 ش الفراعنة, باب شرق, الاسكندرية",
	"lat":"31.199770999999998",
	"lng":"29.908532000000001",
	"enName":"5 El Pharaana St., Bab shark, Alexandria"
},
		{	"profileId":"376596",
	"profileURL":"//www.yellowpages.com.eg/en/profile/misr-insurance/376596?b=51&k=19114&l=search",
	"arName":"برج المروة - ش احمد عرابى, كفر الدوار, البحيرة",
	"lat":"31.1350835",
	"lng":"30.130573099999999",
	"enName":"El Marwa Tower, Ahmed Orabi St., Kafr el dawar, El beheira"
},
		{	"profileId":"376431",
	"profileURL":"//www.yellowpages.com.eg/en/profile/misr-insurance/376431?b=75&k=19114&l=search",
	"arName":"ش سعد زغلول, كفر الزيات, الغربية",
	"lat":"30.821773",
	"lng":"30.814536",
	"enName":"Saad Zaghloul St., Kafr el zayat, El gharbeya"
},
		{	"profileId":"377521",
	"profileURL":"//www.yellowpages.com.eg/en/profile/misr-insurance/377521?b=43&k=19114&l=search",
	"arName":"ش التحرير, ادفو, اسوان",
	"lat":"24.977800999999999",
	"lng":"32.87612",
	"enName":"El Tahrir St., Edfou, Aswan"
},
		{	"profileId":"143284",
	"profileURL":"//www.yellowpages.com.eg/en/profile/misr-insurance/143284?b=9&k=19114&l=search",
	"arName":"41 ش طلعت حرب - الدور 2, وسط البلد, القاهرة",
	"lat":"30.052326000000001",
	"lng":"31.241686999999999",
	"enName":"41 Talaat Harb St., Floor 2, Downtown, Cairo"
},
		{	"profileId":"377526",
	"profileURL":"//www.yellowpages.com.eg/en/profile/misr-insurance/377526?b=44&k=19114&l=search",
	"arName":"طريق النصر, الدهار, الغردقة",
	"lat":"27.243407999999999",
	"lng":"33.826557999999999",
	"enName":"El Nasr Rd., Dahar, Hurghada"
},
		{	"profileId":"376080",
	"profileURL":"//www.yellowpages.com.eg/en/profile/misr-insurance/376080?b=7&k=19114&l=search",
	"arName":"4 أ ابراج الشرطة - ش عظيم الدولة, عباسية, القاهرة",
	"lat":"30.070737399999999",
	"lng":"31.2836283",
	"enName":"4 A El Shorta Towers, Azim El Dawla St., Abbasseya, Cairo"
},
		{	"profileId":"171004",
	"profileURL":"//www.yellowpages.com.eg/en/profile/misr-insurance/171004?b=70&k=19114&l=search",
	"arName":"51 طريق الجيش, الابراهيمية, الاسكندرية",
	"lat":"31.216898",
	"lng":"29.924934",
	"enName":"51 El Guish Rd., El ibrahimeya, Alexandria"
},
		{	"profileId":"376088",
	"profileURL":"//www.yellowpages.com.eg/en/profile/misr-insurance/376088?b=56&k=19114&l=search",
	"arName":"515 ميدان الجيزة, الجيزة, الجيزة",
	"lat":"30.014925000000002",
	"lng":"31.211959",
	"enName":"515 Giza Sq., Giza, Giza"
},
		{	"profileId":"377012",
	"profileURL":"//www.yellowpages.com.eg/en/profile/misr-insurance/377012?b=62&k=19114&l=search",
	"arName":"ميناء السلطان قابوس, الميناء, نويبع",
	"lat":"",
	"lng":"",
	"enName":"Minaa El Sultan Qabous, Harbour, Nuweibaa"
},
		{	"profileId":"376086",
	"profileURL":"//www.yellowpages.com.eg/en/profile/misr-insurance/376086?b=28&k=19114&l=search",
	"arName":"1 - مركز الحى الاول - حى رجال الاعمال, العاشر من رمضان, الشرقية",
	"lat":"30.285381999999998",
	"lng":"31.740808000000001",
	"enName":"1 , 1st District Center, Regal El Aamal District, 10th of ramadan, El sharkeya"
},
		{	"profileId":"376361",
	"profileURL":"//www.yellowpages.com.eg/en/profile/misr-insurance/376361?b=74&k=19114&l=search",
	"arName":"ش جمال عبد الناصر, شبين الكوم, المنوفية",
	"lat":"30.557798099999999",
	"lng":"31.0104942",
	"enName":"Gamal Abdel Nasser St., SHIBIN EL KAWM, Shebein el kawm, El monofeya"
},
		{	"profileId":"376085",
	"profileURL":"//www.yellowpages.com.eg/en/profile/misr-insurance/376085?b=8&k=19114&l=search",
	"arName":"46 عمارات مصر للتعمير - - المنطقة الاولى, مساكن شيراتون, مصر الجديدة, القاهرة",
	"lat":"30.108325000000001",
	"lng":"31.376718",
	"enName":"46 Misr Lel Taamir Bldgs., , 1St Zone, Sheraton Bldgs., Heliopolis, Cairo"
},
		{	"profileId":"376082",
	"profileURL":"//www.yellowpages.com.eg/en/profile/misr-insurance/376082?b=22&k=19114&l=search",
	"arName":"103 ش شبرا, شبرا, القاهرة",
	"lat":"30.075168999999999",
	"lng":"31.245208000000002",
	"enName":"103 Shoubra St., Shoubra, Cairo"
},
		{	"profileId":"376667",
	"profileURL":"//www.yellowpages.com.eg/en/profile/misr-insurance/376667?b=40&k=19114&l=search",
	"arName":"الطريق السريع, فاقوس, الشرقية",
	"lat":"",
	"lng":"",
	"enName":"High Rd., Faqus, El sharkeya"
},
		{	"profileId":"71820",
	"profileURL":"//www.yellowpages.com.eg/en/profile/misr-insurance/71820?b=69&k=19114&l=search",
	"arName":"66 طريق الحرية, العطارين, الاسكندرية",
	"lat":"31.198875999999998",
	"lng":"29.908394999999999",
	"enName":"66 El Horreya Rd., El attarin, Alexandria"
},
		{	"profileId":"376423",
	"profileURL":"//www.yellowpages.com.eg/en/profile/misr-insurance/376423?b=31&k=19114&l=search",
	"arName":"39 ش جمال عبد الناصر, بركة السبع, المنوفية",
	"lat":"",
	"lng":"",
	"enName":"39 Gamal Abdel Nasser St., Berket el sabaa, El monofeya"
},
		{	"profileId":"397564",
	"profileURL":"//www.yellowpages.com.eg/en/profile/misr-insurance/397564?b=76&k=19114&l=search",
	"arName":"ش بورسعيد - حى السبعين, كوم امبو, اسوان",
	"lat":"",
	"lng":"",
	"enName":"Port Said St., El Sabaeen District, Kom ombo, Aswan"
},
		{	"profileId":"377476",
	"profileURL":"//www.yellowpages.com.eg/en/profile/misr-insurance/377476?b=34&k=19114&l=search",
	"arName":"50 ش ابن الخصيب ميدان بالاس, وسط البلد, المنيا",
	"lat":"28.098578",
	"lng":"30.756450999999998",
	"enName":"50 Ibn El Khasib St. Palace Sq., Downtown, El menia"
},
		{	"profileId":"376662",
	"profileURL":"//www.yellowpages.com.eg/en/profile/misr-insurance/376662?b=39&k=19114&l=search",
	"arName":"ش بورسعيد, منيا القمح, الشرقية",
	"lat":"30.515611",
	"lng":"31.3449141",
	"enName":"Port Said St., Minya el qamh, El sharkeya"
},
		{	"profileId":"376420",
	"profileURL":"//www.yellowpages.com.eg/en/profile/misr-insurance/376420?b=58&k=19114&l=search",
	"arName":"ش سعد زغلول, اشمون, المنوفية",
	"lat":"30.298300900000001",
	"lng":"30.977260999999999",
	"enName":"Saad Zaghloul St., Ashmoun, El monofeya"
},
		{	"profileId":"145274",
	"profileURL":"//www.yellowpages.com.eg/en/profile/misr-insurance/145274?b=55&k=19114&l=search",
	"arName":"عمارة الحريرى - ش البوسطة - الدور 2, الزقازيق, الشرقية",
	"lat":"30.584610999999999",
	"lng":"31.505016999999999",
	"enName":"El Hariry Bldg., El Bosta St., Floor 2, El zagazig, El sharkeya"
},
		{	"profileId":"145269",
	"profileURL":"//www.yellowpages.com.eg/en/profile/misr-insurance/145269?b=1&k=19114&l=search",
	"arName":"17 ش قصر النيل, وسط البلد, القاهرة",
	"lat":"30.047393",
	"lng":"31.238175999999999",
	"enName":"17 Kasr El Nil St., Downtown, Cairo"
},
		{	"profileId":"145300",
	"profileURL":"//www.yellowpages.com.eg/en/profile/misr-insurance/145300?b=48&k=19114&l=search",
	"arName":"7 ش المشير احمد بدوى, محرم بك, الاسكندرية",
	"lat":"31.191962",
	"lng":"29.914563000000001",
	"enName":"7 El Moushir Ahmed Badawy St., Moharram bey, Alexandria"
},
		{	"profileId":"248950",
	"profileURL":"//www.yellowpages.com.eg/en/profile/misr-insurance/248950?b=45&k=19114&l=search",
	"arName":"ش بورسعيد تقاطع ش صلاح سالم, طهطا, سوهاج",
	"lat":"26.768559",
	"lng":"31.500705",
	"enName":"Port Said St. Intersection Of Salah Salem St., Tahta, Sohag"
},
		{	"profileId":"377486",
	"profileURL":"//www.yellowpages.com.eg/en/profile/misr-insurance/377486?b=53&k=19114&l=search",
	"arName":"ش الابراهيمية, بنى مزار, المنيا",
	"lat":"",
	"lng":"",
	"enName":"El Ibrahimeya St., Bani mazar, El menia"
},
		{	"profileId":"376076",
	"profileURL":"//www.yellowpages.com.eg/en/profile/misr-insurance/376076?b=17&k=19114&l=search",
	"arName":"30 ش شريف - الدور 4, وسط البلد, القاهرة",
	"lat":"30.050186",
	"lng":"31.242182",
	"enName":"30 Sherif St., Floor 4, Downtown, Cairo"
},
		{	"profileId":"376032",
	"profileURL":"//www.yellowpages.com.eg/en/profile/misr-insurance/376032?b=21&k=19114&l=search",
	"arName":"40 ش عباس العقاد, مدينة نصر, القاهرة",
	"lat":"30.062795000000001",
	"lng":"31.337388000000001",
	"enName":"40 Abbas El Akkad St., Nasr city, Cairo"
},
		{	"profileId":"397450",
	"profileURL":"//www.yellowpages.com.eg/en/profile/misr-insurance/397450?b=35&k=19114&l=search",
	"arName":"ش بورسعيد, كوم حمادة, البحيرة",
	"lat":"30.763004899999999",
	"lng":"30.707746799999999",
	"enName":"Port Said St., Kom hamada, El beheira"
},
		{	"profileId":"145307",
	"profileURL":"//www.yellowpages.com.eg/en/profile/misr-insurance/145307?b=19&k=19114&l=search",
	"arName":"3 ش الشواربى, وسط البلد, القاهرة",
	"lat":"30.049199999999999",
	"lng":"31.241299999999999",
	"enName":"3 El Shawarby St., Downtown, Cairo"
},
		{	"profileId":"376350",
	"profileURL":"//www.yellowpages.com.eg/en/profile/misr-insurance/376350?b=57&k=19114&l=search",
	"arName":"2 ش جمال عبد الناصر, كفر شكر, القليوبية",
	"lat":"",
	"lng":"",
	"enName":"2 Gamal Abdel Nasser St., Kafr shoukr, Kaliobeya"
},
		{	"profileId":"71818",
	"profileURL":"//www.yellowpages.com.eg/en/profile/misr-insurance/71818?b=68&k=19114&l=search",
	"arName":"8 برج المحافظة - ش الجيش - الدور 2, المنصورة, الدقهلية",
	"lat":"31.050576",
	"lng":"31.395482000000001",
	"enName":"8 El Mohafza Tower, El Guish St., Floor 2, El mansoura, El dakahleya"
},
		{	"profileId":"366855",
	"profileURL":"//www.yellowpages.com.eg/en/profile/misr-insurance/366855?b=20&k=19114&l=search",
	"arName":"11 ميدان السيدة زينب, السيدة زينب, القاهرة",
	"lat":"30.032610999999999",
	"lng":"31.244382000000002",
	"enName":"11 El Sayeda Zeinab Sq., El sayeda zeinab, Cairo"
},
		{	"profileId":"376272",
	"profileURL":"//www.yellowpages.com.eg/en/profile/misr-insurance/376272?b=71&k=19114&l=search",
	"arName":"292 طريق الحرية, كليوباترا, الاسكندرية",
	"lat":"31.216121999999999",
	"lng":"29.937882999999999",
	"enName":"292 El Horreya Rd., Cleopatra, Alexandria"
},
		{	"profileId":"376073",
	"profileURL":"//www.yellowpages.com.eg/en/profile/misr-insurance/376073?b=6&k=19114&l=search",
	"arName":"8 ش الالفى, وسط البلد, القاهرة",
	"lat":"30.053661000000002",
	"lng":"31.243780999999998",
	"enName":"8 El Alfy St., Downtown, Cairo"
},
		{	"profileId":"71816",
	"profileURL":"//www.yellowpages.com.eg/en/profile/misr-insurance/71816?b=47&k=19114&l=search",
	"arName":"ميدان عرابى - برج مصر للتأمين, حى الافرنج, الاسماعيلية",
	"lat":"30.592590999999999",
	"lng":"32.271571000000002",
	"enName":"Orabi Sq., Misr Lel Taamin Tower, El afrang district, Ismaileya"
},
		{	"profileId":"71814",
	"profileURL":"//www.yellowpages.com.eg/en/profile/misr-insurance/71814?b=27&k=19114&l=search",
	"arName":"64 عمارة مصر للتأمين - طريق اسيوط سوهاج, حى شرق, سوهاج",
	"lat":"26.561367000000001",
	"lng":"31.688898999999999",
	"enName":"64 Misr Lel Taamin Bldg., Asiout Sohag Rd., Shark district, Sohag"
},
		{	"profileId":"376259",
	"profileURL":"//www.yellowpages.com.eg/en/profile/misr-insurance/376259?b=18&k=19114&l=search",
	"arName":"19 ميدان المحطة - الدور 4, حلوان, القاهرة",
	"lat":"29.847777000000001",
	"lng":"31.334893000000001",
	"enName":"19 El Mahatta Sq., Floor 4, Helwan, Cairo"
},
		{	"profileId":"5497",
	"profileURL":"//www.yellowpages.com.eg/en/profile/misr-insurance/5497?b=25&k=19114&l=search",
	"arName":"44 أ ش الدقى, الدقى, الجيزة",
	"lat":"30.040174",
	"lng":"31.210837999999999",
	"enName":"44 A Dokki St., Dokki, Giza"
},
		{	"profileId":"376730",
	"profileURL":"//www.yellowpages.com.eg/en/profile/misr-insurance/376730?b=61&k=19114&l=search",
	"arName":"24 ش الثورة, وسط البلد, الاسماعيلية",
	"lat":"30.593638599999998",
	"lng":"32.275173899999999",
	"enName":"24 El Thawra St., Downtown, Ismaileya"
},
		{	"profileId":"376255",
	"profileURL":"//www.yellowpages.com.eg/en/profile/misr-insurance/376255?b=11&k=19114&l=search",
	"arName":"187 ش المنصورية, الدراسة, القاهرة",
	"lat":"30.046911999999999",
	"lng":"31.267724999999999",
	"enName":"187 El Mansoureya St., El darrasa, Cairo"
},
		{	"profileId":"376057",
	"profileURL":"//www.yellowpages.com.eg/en/profile/misr-insurance/376057?b=16&k=19114&l=search",
	"arName":"6 أ عمارة رمسيس - ميدان رمسيس, وسط البلد, القاهرة",
	"lat":"30.060851",
	"lng":"31.245777",
	"enName":"6 A Ramsis Bldg., Ramsis Sq., Downtown, Cairo"
},
		{	"profileId":"376738",
	"profileURL":"//www.yellowpages.com.eg/en/profile/misr-insurance/376738?b=33&k=19114&l=search",
	"arName":"2 وحدة 36 - ش المحافظة شقة 3, الطور, جنوب سيناء",
	"lat":"28.238129000000001",
	"lng":"33.624113000000001",
	"enName":"2 Unit 36, El Mohafza St. Flat 3, EL TUR, El tur, South sinai"
},
		{	"profileId":"134309",
	"profileURL":"//www.yellowpages.com.eg/en/profile/misr-insurance/134309?b=14&k=19114&l=search",
	"arName":"4 ش العادل ابو بكر, الزمالك, القاهرة",
	"lat":"30.063948",
	"lng":"31.216964000000001",
	"enName":"4 El Adel Abou Bakr St., Zamalek, Cairo"
},
		{	"profileId":"145310",
	"profileURL":"//www.yellowpages.com.eg/en/profile/misr-insurance/145310?b=3&k=19114&l=search",
	"arName":"عمارات الشرق للتأمين -, الحى السابع, مدينة نصر, القاهرة",
	"lat":"30.052077000000001",
	"lng":"31.337795",
	"enName":"El Sharq Lel Taamin Bldgs.,, 7th District, Nasr city, Cairo"
},
		{	"profileId":"145277",
	"profileURL":"//www.yellowpages.com.eg/en/profile/misr-insurance/145277?b=4&k=19114&l=search",
	"arName":"2 ش 79 متفرع من ش 9, المعادى, القاهرة",
	"lat":"29.960811",
	"lng":"31.257967000000001",
	"enName":"2 Rd. 79 Off Rd. 9, Maadi, Cairo"
},
		{	"profileId":"248960",
	"profileURL":"//www.yellowpages.com.eg/en/profile/misr-insurance/248960?b=67&k=19114&l=search",
	"arName":"برج مصر للتأمين - ميدان عبد المنعم رياض, وسط البلد, قنا",
	"lat":"26.158035000000002",
	"lng":"32.716132000000002",
	"enName":"Misr Lel Taamin Tower, Abdel Moneim Riad Sq., Downtown, Qena"
},
		{	"profileId":"397460",
	"profileURL":"//www.yellowpages.com.eg/en/profile/misr-insurance/397460?b=50&k=19114&l=search",
	"arName":"ِش 9 - 10 يونيو, نجع حمادى, قنا",
	"lat":"",
	"lng":"",
	"enName":"9th, 10th June St., Nagaa hamady, Qena"
}
	]
}]}