{"items":[{	"arName":"اولاد رجب",
	"enName":"Ragab Sons",
	"hotline":"19225",
	"facebook":"http://www.facebook.com/AwladRagabCO",
	"web":"http://www.awladragab.com/",
	"arCategory":[
		"سوبر ماركت"
	],
	"enCategories":[
		"Supermarkets"
	],
	"contacts":[
		{	"profileId":"190619",
	"profileURL":"//www.yellowpages.com.eg/en/profile/ragab-sons/190619?b=13&k=19225&l=search",
	"arName":"ش عباس العقاد, الحى السابع, مدينة نصر, القاهرة",
	"lat":"30.048376000000001",
	"lng":"31.338943",
	"enName":"Abbas El Akkad St., 7th District, Nasr city, Cairo"
},
		{	"profileId":"70797",
	"profileURL":"//www.yellowpages.com.eg/en/profile/ragab-sons/70797?b=18&k=19225&l=search",
	"arName":"162 ش النزهة, سانت فاتيما, مصر الجديدة, القاهرة",
	"lat":"30.104649999999999",
	"lng":"31.343518",
	"enName":"162 El Nozha St., Saint Fatima, Heliopolis, Cairo"
},
		{	"profileId":"70799",
	"profileURL":"//www.yellowpages.com.eg/en/profile/ragab-sons/70799?b=60&k=19225&l=search",
	"arName":"15 ش مراد, الجيزة, الجيزة",
	"lat":"30.020551000000001",
	"lng":"31.216429999999999",
	"enName":"15 Mourad St., Giza, Giza"
},
		{	"profileId":"461799",
	"profileURL":"//www.yellowpages.com.eg/en/profile/ragab-sons/461799?b=44&k=19225&l=search",
	"arName":"23 ش حسن حسنى, حدائق حلوان, القاهرة",
	"lat":"29.894662",
	"lng":"31.299083",
	"enName":"23 Hassan Hosny St., Hadayek helwan, Cairo"
},
		{	"profileId":"454460",
	"profileURL":"//www.yellowpages.com.eg/en/profile/ragab-sons/454460?b=45&k=19225&l=search",
	"arName":"61 ش محمد فريد, مصر الجديدة, القاهرة",
	"lat":"30.112770999999999",
	"lng":"31.339659000000001",
	"enName":"61 Mohamed Farid St., Heliopolis, Cairo"
},
		{	"profileId":"377213",
	"profileURL":"//www.yellowpages.com.eg/en/profile/ragab-sons/377213?b=70&k=19225&l=search",
	"arName":"ش رياض تقاطع ش فلسطين - برج اللواء, اسيوط, اسيوط",
	"lat":"27.179924",
	"lng":"31.190915",
	"enName":"Riad St. Intersection Of Palestine St., El Lewaa Tower, Assyout, Assyout"
},
		{	"profileId":"390035",
	"profileURL":"//www.yellowpages.com.eg/en/profile/ragab-sons/390035?b=54&k=19225&l=search",
	"arName":"ش الجيش تقاطع ش عبد السلام عارف, المنصورة, الدقهلية",
	"lat":"31.035496800000001",
	"lng":"31.392031899999999",
	"enName":"El Guish St. Intersection Of Abdel Salam Aref St., El mansoura, El dakahleya"
},
		{	"profileId":"149455",
	"profileURL":"//www.yellowpages.com.eg/en/profile/ragab-sons/149455?b=38&k=19225&l=search",
	"arName":"31 ش محمد كامل حسين, النزهة الجديدة, القاهرة",
	"lat":"30.122869999999999",
	"lng":"31.369371000000001",
	"enName":"31 Mohamed Kamel Hussein St., El nozha el gadida, Cairo"
},
		{	"profileId":"243958",
	"profileURL":"//www.yellowpages.com.eg/en/profile/ragab-sons/243958?b=32&k=19225&l=search",
	"arName":"132 ش جزيرة بدران, شبرا, القاهرة",
	"lat":"30.075009999999999",
	"lng":"31.230343000000001",
	"enName":"132 Geziret Badran St., Shoubra, Cairo"
},
		{	"profileId":"402386",
	"profileURL":"//www.yellowpages.com.eg/en/profile/ragab-sons/402386?b=51&k=19225&l=search",
	"arName":"22 ب ش الشباب - اسكان الشباب, مدينة العبور, القليوبية",
	"lat":"30.266589",
	"lng":"31.477519000000001",
	"enName":"22 B El Shabab St., Youth Housing, Obour city, Kaliobeya"
},
		{	"profileId":"336943",
	"profileURL":"//www.yellowpages.com.eg/en/profile/ragab-sons/336943?b=62&k=19225&l=search",
	"arName":"ش السلام, السوق القديم, شرم الشيخ",
	"lat":"27.866059",
	"lng":"34.293382000000001",
	"enName":"El Salam St., El souk el kadim, Sharm el sheikh"
},
		{	"profileId":"372845",
	"profileURL":"//www.yellowpages.com.eg/en/profile/ragab-sons/372845?b=69&k=19225&l=search",
	"arName":"ابراج الصفوة - ش اللبينى تقاطع ش المجزر الالى, المريوطية, الهرم, الجيزة",
	"lat":"29.977058",
	"lng":"31.162134999999999",
	"enName":"El Safwa Towers, El Libbeny St. Intersection Of El Magzar El Aaly St., El Mariouteya, El haram, Giza"
},
		{	"profileId":"124469",
	"profileURL":"//www.yellowpages.com.eg/en/profile/ragab-sons/124469?b=68&k=19225&l=search",
	"arName":"39 ش ناصر الثورة متفرع من ش فيصل, المساحة, فيصل, الجيزة",
	"lat":"30.008718999999999",
	"lng":"31.188431000000001",
	"enName":"39 Nasser El Thawra St. Off Faisal St., El Messaha, Faisal, Giza"
},
		{	"profileId":"444734",
	"profileURL":"//www.yellowpages.com.eg/en/profile/ragab-sons/444734?b=64&k=19225&l=search",
	"arName":"ابراج سيتى بلازا - ميدان المشحمة, المحلة الكبرى, الغربية",
	"lat":"30.978731",
	"lng":"31.177106999999999",
	"enName":"City Plaza Towers, El Mashhama Sq., El mahalla el kobra, El gharbeya"
},
		{	"profileId":"577306",
	"profileURL":"//www.yellowpages.com.eg/en/profile/ragab-sons/577306?b=73&k=19225&l=search",
	"arName":"414 ش جمال عبد الناصر, المندرة, الاسكندرية",
	"lat":"31.277062999999998",
	"lng":"30.008642999999999",
	"enName":"414 Gamal Abdel Nasser St., El mandara, Alexandria"
},
		{	"profileId":"2982",
	"profileURL":"//www.yellowpages.com.eg/en/profile/ragab-sons/2982?b=20&k=19225&l=search",
	"arName":"129 ش مصطفى النحاس, الحى الثامن, مدينة نصر, القاهرة",
	"lat":"30.055349",
	"lng":"31.355347999999999",
	"enName":"129 Mostafa El Nahhas St., 8th District, Nasr city, Cairo"
},
		{	"profileId":"274577",
	"profileURL":"//www.yellowpages.com.eg/en/profile/ragab-sons/274577?b=41&k=19225&l=search",
	"arName":"القطعة 25، 26 - - الحى الاول - مركز الخدمات, التجمع الخامس, القاهرة الجديدة, القاهرة",
	"lat":"30.002759000000001",
	"lng":"31.421116999999999",
	"enName":"Plot 25, 26, , 1St District, Services Center, 5th Compound, New cairo, Cairo"
},
		{	"profileId":"159184",
	"profileURL":"//www.yellowpages.com.eg/en/profile/ragab-sons/159184?b=12&k=19225&l=search",
	"arName":"30 ش حيدر تقاطع ش برهان, حلوان, القاهرة",
	"lat":"29.842949000000001",
	"lng":"31.335746",
	"enName":"30 Haidar St. Intersection Of Borhan St., Helwan, Cairo"
},
		{	"profileId":"391291",
	"profileURL":"//www.yellowpages.com.eg/en/profile/ragab-sons/391291?b=28&k=19225&l=search",
	"arName":"كم 33 - طريق القاهرة السويس - منطقة 6B, مدينتى, القاهرة",
	"lat":"30.079315999999999",
	"lng":"31.643597",
	"enName":"Km 33, Cairo Suez Rd., Zone 6b, Madinty, Cairo"
},
		{	"profileId":"397512",
	"profileURL":"//www.yellowpages.com.eg/en/profile/ragab-sons/397512?b=56&k=19225&l=search",
	"arName":"الحى الاول, مدينة العبور, القليوبية",
	"lat":"30.235067000000001",
	"lng":"31.468266",
	"enName":"1St District, Obour city, Kaliobeya"
},
		{	"profileId":"70800",
	"profileURL":"//www.yellowpages.com.eg/en/profile/ragab-sons/70800?b=19&k=19225&l=search",
	"arName":"110 ش الميرغنى, الماظة, مصر الجديدة, القاهرة",
	"lat":"30.087299000000002",
	"lng":"31.334731000000001",
	"enName":"110 El Merghany St., Almaza, Heliopolis, Cairo"
},
		{	"profileId":"244214",
	"profileURL":"//www.yellowpages.com.eg/en/profile/ragab-sons/244214?b=48&k=19225&l=search",
	"arName":"كم 48 - طريق السويس الغردقة - الزعفرانة, العين السخنة, العين السخنة",
	"lat":"29.445827000000001",
	"lng":"32.479039",
	"enName":"Km 48, Suez Hurghada Rd., El Zaafarana, El ain el sokhna, El ain el sokhna"
},
		{	"profileId":"336939",
	"profileURL":"//www.yellowpages.com.eg/en/profile/ragab-sons/336939?b=9&k=19225&l=search",
	"arName":"ش دنشواى متفرع من الشارع الجديد, الساحل, القاهرة",
	"lat":"30.084646200000002",
	"lng":"31.2407854",
	"enName":"Denshway St. Off El Gadid St., El sahel, Cairo"
},
		{	"profileId":"93942",
	"profileURL":"//www.yellowpages.com.eg/en/profile/ragab-sons/93942?b=27&k=19225&l=search",
	"arName":"208 ش بورسعيد, السيدة زينب, القاهرة",
	"lat":"30.035501",
	"lng":"31.247316000000001",
	"enName":"208 Port Said St., El sayeda zeinab, Cairo"
},
		{	"profileId":"462215",
	"profileURL":"//www.yellowpages.com.eg/en/profile/ragab-sons/462215?b=10&k=19225&l=search",
	"arName":"9 ش فتحى الجزيرى متفرع من ش فريد سميكة, الالف مسكن, مصر الجديدة, القاهرة",
	"lat":"30.117198999999999",
	"lng":"31.340792",
	"enName":"9 Fathy El Geziray St. Off Farid Semeika St., El Alf Maskan, Heliopolis, Cairo"
},
		{	"profileId":"465768",
	"profileURL":"//www.yellowpages.com.eg/en/profile/ragab-sons/465768?b=23&k=19225&l=search",
	"arName":"89 ش مصر والسودان, حدائق القبة, القاهرة",
	"lat":"30.079160999999999",
	"lng":"31.278569000000001",
	"enName":"89 Misr & Sudan St., Hadayek el kobba, Cairo"
},
		{	"profileId":"336934",
	"profileURL":"//www.yellowpages.com.eg/en/profile/ragab-sons/336934?b=50&k=19225&l=search",
	"arName":"22 ش قناة السويس, المنصورة, الدقهلية",
	"lat":"31.050212999999999",
	"lng":"31.399006",
	"enName":"22 Suez Canal St., El mansoura, El dakahleya"
},
		{	"profileId":"116879",
	"profileURL":"//www.yellowpages.com.eg/en/profile/ragab-sons/116879?b=53&k=19225&l=search",
	"arName":"95 ش الهرم, الكوم الاخضر, الهرم, الجيزة",
	"lat":"29.990131000000002",
	"lng":"31.150835000000001",
	"enName":"95 Haram St., El Koum El Akhdar, El haram, Giza"
},
		{	"profileId":"503701",
	"profileURL":"//www.yellowpages.com.eg/en/profile/ragab-sons/503701?b=67&k=19225&l=search",
	"arName":"مجمع البنوك, الكوثر, الغردقة",
	"lat":"27.198696000000002",
	"lng":"33.823450000000001",
	"enName":"Banks Complex, El kawther, Hurghada"
},
		{	"profileId":"129196",
	"profileURL":"//www.yellowpages.com.eg/en/profile/ragab-sons/129196?b=31&k=19225&l=search",
	"arName":"19 ش يلبغا متفرع من ش شبرا, شبرا, القاهرة",
	"lat":"30.075842000000002",
	"lng":"31.246427000000001",
	"enName":"19 Yalbogha St. Off Shoubra St., Shoubra, Cairo"
},
		{	"profileId":"274560",
	"profileURL":"//www.yellowpages.com.eg/en/profile/ragab-sons/274560?b=40&k=19225&l=search",
	"arName":"14 ش البراد ميدان الجيش, الظاهر, القاهرة",
	"lat":"30.062380999999998",
	"lng":"31.272789",
	"enName":"14 El Barrad St. El Guish Sq., El zaher, Cairo"
},
		{	"profileId":"464484",
	"profileURL":"//www.yellowpages.com.eg/en/profile/ragab-sons/464484?b=65&k=19225&l=search",
	"arName":"5 ش جمال الدين الافغانى متفرع من ش الهرم, المساحة, الهرم, الجيزة",
	"lat":"30.006440000000001",
	"lng":"31.196864000000001",
	"enName":"5 Gamal El Din El Afghany St. Off Haram St., El Messaha, El haram, Giza"
},
		{	"profileId":"575975",
	"profileURL":"//www.yellowpages.com.eg/en/profile/ragab-sons/575975?b=72&k=19225&l=search",
	"arName":"ش جمال عبد الناصر - المنطقة المركزية, دمياط الجديدة, دمياط",
	"lat":"31.43655",
	"lng":"31.678398999999999",
	"enName":"Gamal Abdel Nasser St., Central Zone, New damietta, Damietta"
},
		{	"profileId":"159176",
	"profileURL":"//www.yellowpages.com.eg/en/profile/ragab-sons/159176?b=47&k=19225&l=search",
	"arName":"9 ش فيصل, فيصل, الجيزة",
	"lat":"30.013449000000001",
	"lng":"31.199299",
	"enName":"9 Faisal St., Faisal, Giza"
},
		{	"profileId":"274526",
	"profileURL":"//www.yellowpages.com.eg/en/profile/ragab-sons/274526?b=6&k=19225&l=search",
	"arName":"149 ش جسر السويس, مدينة قباء, القاهرة",
	"lat":"30.139574",
	"lng":"31.391276000000001",
	"enName":"149 Gesr El Suez St., Kebaa city, Cairo"
},
		{	"profileId":"129308",
	"profileURL":"//www.yellowpages.com.eg/en/profile/ragab-sons/129308?b=15&k=19225&l=search",
	"arName":"., التجمع الثالث, القاهرة الجديدة, القاهرة",
	"lat":"29.981907",
	"lng":"31.426300000000001",
	"enName":"., 3rd Compound, New cairo, Cairo"
},
		{	"profileId":"140888",
	"profileURL":"//www.yellowpages.com.eg/en/profile/ragab-sons/140888?b=37&k=19225&l=search",
	"arName":"خدمة توصيل الطلبات للمنازل, الحى الثامن, مدينة نصر, القاهرة",
	"lat":"",
	"lng":"",
	"enName":"Home Delivery, 8th District, Nasr city, Cairo"
},
		{	"profileId":"436792",
	"profileURL":"//www.yellowpages.com.eg/en/profile/ragab-sons/436792?b=71&k=19225&l=search",
	"arName":"برج الرغداء - ش احمد ماهر تقاطع ش سامية الجمل, المنصورة, الدقهلية",
	"lat":"31.032565999999999",
	"lng":"31.362919999999999",
	"enName":"El Raghdaa Tower, Ahmed Maher St. Intersection Of Samya El Gamal St., El mansoura, El dakahleya"
},
		{	"profileId":"244226",
	"profileURL":"//www.yellowpages.com.eg/en/profile/ragab-sons/244226?b=4&k=19225&l=search",
	"arName":"المجاورة السابعة, التجمع الاول, القاهرة الجديدة, القاهرة",
	"lat":"30.063652000000001",
	"lng":"31.449173999999999",
	"enName":"7th Neighbourhood, 1st Compound, New cairo, Cairo"
},
		{	"profileId":"70139",
	"profileURL":"//www.yellowpages.com.eg/en/profile/ragab-sons/70139?b=17&k=19225&l=search",
	"arName":"448 ش 9, المقطم, القاهرة",
	"lat":"30.012944999999998",
	"lng":"31.288405000000001",
	"enName":"448 Rd. 9, Mokattam, Cairo"
},
		{	"profileId":"70134",
	"profileURL":"//www.yellowpages.com.eg/en/profile/ragab-sons/70134?b=16&k=19225&l=search",
	"arName":"ش عطية الصوالحى امتداد ش مكرم عبيد, الحى الثامن, مدينة نصر, القاهرة",
	"lat":"30.051110999999999",
	"lng":"31.349364000000001",
	"enName":"Atteya El Sawalhy St. Extension Of Makram Ebaid St., 8th District, Nasr city, Cairo"
},
		{	"profileId":"244389",
	"profileURL":"//www.yellowpages.com.eg/en/profile/ragab-sons/244389?b=5&k=19225&l=search",
	"arName":"ابراج عفيفى - ش الشيخ محمد متولى الشعراوى, الحى العاشر, مدينة نصر, القاهرة",
	"lat":"30.055342",
	"lng":"31.380075000000001",
	"enName":"Afify Towers, El Sheikh Mohamed Metwally El Shaarawy St., 10th District, Nasr city, Cairo"
},
		{	"profileId":"336929",
	"profileURL":"//www.yellowpages.com.eg/en/profile/ragab-sons/336929?b=61&k=19225&l=search",
	"arName":"ش التحرير المجاورة الاولى, الحى الثامن, السادس من اكتوبر, الجيزة",
	"lat":"29.974858000000001",
	"lng":"30.940224000000001",
	"enName":"El Tahrir St. 1St Neighbourhood, 8th District, 6th of october, Giza"
},
		{	"profileId":"70135",
	"profileURL":"//www.yellowpages.com.eg/en/profile/ragab-sons/70135?b=25&k=19225&l=search",
	"arName":"26 ش على امين امتداد ش مصطفى النحاس, المنطقة الاولى, مدينة نصر, القاهرة",
	"lat":"30.053291999999999",
	"lng":"31.332146000000002",
	"enName":"26 Aly Amin St. Extension Of Mostafa El Nahhas St., 1st Zone, Nasr city, Cairo"
},
		{	"profileId":"463798",
	"profileURL":"//www.yellowpages.com.eg/en/profile/ragab-sons/463798?b=22&k=19225&l=search",
	"arName":"49 ش رياض, حلوان, القاهرة",
	"lat":"29.849108000000001",
	"lng":"31.336569000000001",
	"enName":"49 Riad St., Helwan, Cairo"
},
		{	"profileId":"126032",
	"profileURL":"//www.yellowpages.com.eg/en/profile/ragab-sons/126032?b=14&k=19225&l=search",
	"arName":"القطعة 7106 - ش 9, المقطم, القاهرة",
	"lat":"30.012007000000001",
	"lng":"31.321677999999999",
	"enName":"Plot 7106, Rd. 9, Mokattam, Cairo"
},
		{	"profileId":"465773",
	"profileURL":"//www.yellowpages.com.eg/en/profile/ragab-sons/465773?b=35&k=19225&l=search",
	"arName":"10 ش ابو بكر الصديق, ميدان المحكمة, مصر الجديدة, القاهرة",
	"lat":"30.105687",
	"lng":"31.325765000000001",
	"enName":"10 Abou Bakr El Seddik St., El Mahkama Square, Heliopolis, Cairo"
},
		{	"profileId":"274550",
	"profileURL":"//www.yellowpages.com.eg/en/profile/ragab-sons/274550?b=57&k=19225&l=search",
	"arName":"42 ش الهرم تقاطع ش الوفاء والامل, المريوطية, الهرم, الجيزة",
	"lat":"29.988866000000002",
	"lng":"31.146144",
	"enName":"42 Haram St. Intersection Of El Wafaa & El Amal St., El Mariouteya, El haram, Giza"
},
		{	"profileId":"305590",
	"profileURL":"//www.yellowpages.com.eg/en/profile/ragab-sons/305590?b=58&k=19225&l=search",
	"arName":"ش الحرية ميدان القناطر الخيرية - عمارة الشريف, القناطر الخيرية, القليوبية",
	"lat":"30.195145100000001",
	"lng":"31.135720599999999",
	"enName":"El Horreya St. El Qanatir El Khaireya Sq., El Sherif Bldg., El qanatir el khayriyah, Kaliobeya"
},
		{	"profileId":"462394",
	"profileURL":"//www.yellowpages.com.eg/en/profile/ragab-sons/462394?b=34&k=19225&l=search",
	"arName":"10 ش عبد الله العربى امتداد ش الطيران, الحى السابع, مدينة نصر, القاهرة",
	"lat":"30.050032999999999",
	"lng":"31.327908000000001",
	"enName":"10 Abdullah El Araby St. Extension Of El Tayaran St., 7th District, Nasr city, Cairo"
},
		{	"profileId":"274595",
	"profileURL":"//www.yellowpages.com.eg/en/profile/ragab-sons/274595?b=8&k=19225&l=search",
	"arName":"41 ش عين شمس تقاطع ش على باشا اللالى - ميدان النعام, عين شمس, القاهرة",
	"lat":"30.124853999999999",
	"lng":"31.319421999999999",
	"enName":"41 Ain Shams St. Intersection Of Aly Pasha El Lalley St., El Naam Sq., Ain shams, Cairo"
},
		{	"profileId":"125413",
	"profileURL":"//www.yellowpages.com.eg/en/profile/ragab-sons/125413?b=3&k=19225&l=search",
	"arName":"43 ميدان الجزائر, المعادى الجديدة, المعادى, القاهرة",
	"lat":"29.974834999999999",
	"lng":"31.276018000000001",
	"enName":"43 El Gazaer Sq., New Maadi, Maadi, Cairo"
},
		{	"profileId":"473311",
	"profileURL":"//www.yellowpages.com.eg/en/profile/ragab-sons/473311?b=59&k=19225&l=search",
	"arName":"ش الملك - مارسيليا فلورانس المنتزة, المنتزة, المنتزه, الاسكندرية",
	"lat":"31.278538999999999",
	"lng":"30.023266",
	"enName":"El Malek St., Marseilia Florence El Montazah, EL MONTAZA, El montazah, Alexandria"
},
		{	"profileId":"101444",
	"profileURL":"//www.yellowpages.com.eg/en/profile/ragab-sons/101444?b=2&k=19225&l=search",
	"arName":"6 /1 ش اللاسلكى تقاطع ش النصر, المعادى الجديدة, المعادى, القاهرة",
	"lat":"29.976455999999999",
	"lng":"31.282246000000001",
	"enName":"6 /1 El Laselky St. Intersection Of El Nasr St., New Maadi, Maadi, Cairo"
},
		{	"profileId":"141308",
	"profileURL":"//www.yellowpages.com.eg/en/profile/ragab-sons/141308?b=26&k=19225&l=search",
	"arName":"84 ش جسر السويس, جسر السويس, القاهرة",
	"lat":"30.097363999999999",
	"lng":"31.312702999999999",
	"enName":"84 Gesr El Suez St., Gesr el suez, Cairo"
},
		{	"profileId":"1639",
	"profileURL":"//www.yellowpages.com.eg/en/profile/ragab-sons/1639?b=39&k=19225&l=search",
	"arName":"71 ش النصر, المعادى الجديدة, المعادى, القاهرة",
	"lat":"29.973244999999999",
	"lng":"31.272652999999998",
	"enName":"71 El Nasr St., New Maadi, Maadi, Cairo"
},
		{	"profileId":"460858",
	"profileURL":"//www.yellowpages.com.eg/en/profile/ragab-sons/460858?b=11&k=19225&l=search",
	"arName":"ش احمد فخرى متفرع من طريق النصر, الحى الثامن, مدينة نصر, القاهرة",
	"lat":"30.067868000000001",
	"lng":"31.348723",
	"enName":"Ahmed Fakhry St. Off El Nasr Rd., 8th District, Nasr city, Cairo"
},
		{	"profileId":"461344",
	"profileURL":"//www.yellowpages.com.eg/en/profile/ragab-sons/461344?b=52&k=19225&l=search",
	"arName":"4 ابراج فيرست سيتى - ش الطالبية, فيصل, الجيزة",
	"lat":"30.006976999999999",
	"lng":"31.176914",
	"enName":"4 First City Towers, El Talbeya St., Faisal, Giza"
},
		{	"profileId":"70140",
	"profileURL":"//www.yellowpages.com.eg/en/profile/ragab-sons/70140?b=1&k=19225&l=search",
	"arName":"94 ش جسر السويس, جسر السويس, القاهرة",
	"lat":"30.098226",
	"lng":"31.313821999999998",
	"enName":"94 Gesr El Suez St., Gesr el suez, Cairo"
},
		{	"profileId":"393734",
	"profileURL":"//www.yellowpages.com.eg/en/profile/ragab-sons/393734?b=33&k=19225&l=search",
	"arName":"طريق المطار, منطقة المطار, مصر الجديدة, القاهرة",
	"lat":"30.126996999999999",
	"lng":"31.402411000000001",
	"enName":"Airport Rd., Airport Area, Heliopolis, Cairo"
},
		{	"profileId":"370317",
	"profileURL":"//www.yellowpages.com.eg/en/profile/ragab-sons/370317?b=49&k=19225&l=search",
	"arName":"., خليج نبق, شرم الشيخ",
	"lat":"28.034058399999999",
	"lng":"34.432497499999997",
	"enName":"., Nabq bay, Sharm el sheikh"
},
		{	"profileId":"460131",
	"profileURL":"//www.yellowpages.com.eg/en/profile/ragab-sons/460131?b=55&k=19225&l=search",
	"arName":"المحور المركزى, الحى الثالث, السادس من اكتوبر, الجيزة",
	"lat":"29.967513",
	"lng":"30.935917",
	"enName":"Central Spine, 3rd District, 6th of october, Giza"
},
		{	"profileId":"274590",
	"profileURL":"//www.yellowpages.com.eg/en/profile/ragab-sons/274590?b=7&k=19225&l=search",
	"arName":"54 ش سليم الاول تقاطع ش سنان, الزيتون, القاهرة",
	"lat":"30.107265999999999",
	"lng":"31.313146",
	"enName":"54 Selim El Awal St. Intersection Of Sannan St., El zaytoun, Cairo"
},
		{	"profileId":"577387",
	"profileURL":"//www.yellowpages.com.eg/en/profile/ragab-sons/577387?b=46&k=19225&l=search",
	"arName":"270 ش التسعين الشمالى, التجمع الخامس, القاهرة الجديدة, القاهرة",
	"lat":"30.030196",
	"lng":"31.456413999999999",
	"enName":"270 El Tesaeen El Shamaly St., 5th Compound, New cairo, Cairo"
},
		{	"profileId":"462077",
	"profileURL":"//www.yellowpages.com.eg/en/profile/ragab-sons/462077?b=63&k=19225&l=search",
	"arName":"ارض الحرية - برج خفاجى, بنى سويف, بنى سويف",
	"lat":"29.079238",
	"lng":"31.100417",
	"enName":"Ard El Horreya, Khafagy Tower, Benisuef, Benisuef"
},
		{	"profileId":"460379",
	"profileURL":"//www.yellowpages.com.eg/en/profile/ragab-sons/460379?b=66&k=19225&l=search",
	"arName":"ش العشرين تقاطع ش الملكة, مدكور, فيصل, الجيزة",
	"lat":"30.018180999999998",
	"lng":"31.184812999999998",
	"enName":"El Eshreen St. Intersection Of El Maleka St., Madkour, Faisal, Giza"
},
		{	"profileId":"467646",
	"profileURL":"//www.yellowpages.com.eg/en/profile/ragab-sons/467646?b=42&k=19225&l=search",
	"arName":"منطقة B3, مدينتى, القاهرة",
	"lat":"30.084153000000001",
	"lng":"31.637920999999999",
	"enName":"Zone B3, Madinty, Cairo"
},
		{	"profileId":"460376",
	"profileURL":"//www.yellowpages.com.eg/en/profile/ragab-sons/460376?b=21&k=19225&l=search",
	"arName":"المرحلة الاولى, مدينة الرحاب, القاهرة",
	"lat":"30.058964",
	"lng":"31.495785999999999",
	"enName":"Phase 1, Al rehab city, Cairo"
},
		{	"profileId":"464065",
	"profileURL":"//www.yellowpages.com.eg/en/profile/ragab-sons/464065?b=43&k=19225&l=search",
	"arName":"46 ش راغب تقاطع ش الشريف, حلوان, القاهرة",
	"lat":"29.849558999999999",
	"lng":"31.331441000000002",
	"enName":"46 Ragheb St. Intersection Of El Sherif St., Helwan, Cairo"
},
		{	"profileId":"578105",
	"profileURL":"//www.yellowpages.com.eg/en/profile/ragab-sons/578105?b=24&k=19225&l=search",
	"arName":"المجاروة الاولى - مدينة الفسطاط الجديدة - عمارة 51س, الفسطاط, القاهرة",
	"lat":"30.004273000000001",
	"lng":"31.248733000000001",
	"enName":"1St Neighbourhood, El Fostat New City, Bldg. 51S, El fustat, Cairo"
},
		{	"profileId":"575713",
	"profileURL":"//www.yellowpages.com.eg/en/profile/ragab-sons/575713?b=29&k=19225&l=search",
	"arName":"181 ش الحجاز, مصر الجديدة, القاهرة",
	"lat":"30.113039000000001",
	"lng":"31.348661",
	"enName":"181 El Hegaz St., Heliopolis, Cairo"
},
		{	"profileId":"135562",
	"profileURL":"//www.yellowpages.com.eg/en/profile/ragab-sons/135562?b=36&k=19225&l=search",
	"arName":"14 عمارات المروة - ش احمد تيسير متفرع من ش الميرغنى, كلية البنات, مصر الجديدة, القاهرة",
	"lat":"30.079668999999999",
	"lng":"31.326981",
	"enName":"14 El Marwa Bldgs., Ahmed Tayseer St. Off El Merghany St., koleyet El Banat, Heliopolis, Cairo"
},
		{	"profileId":"125409",
	"profileURL":"//www.yellowpages.com.eg/en/profile/ragab-sons/125409?b=30&k=19225&l=search",
	"arName":"131 ش مصطفى النحاس, مدينة نصر, القاهرة",
	"lat":"30.055444999999999",
	"lng":"31.355551999999999",
	"enName":"131 Mostafa El Nahhas St., Nasr city, Cairo"
}
	]
}]}