{"items":[{	"arName":"مكتبة الوان",
	"enName":"Alwan Stationery",
	"hotline":"19275",
	"facebook":"http://www.facebook.com/%D9%85%D9%83%D8%AA%D8%A8%D8%A9-%D8%A7%D9%84%D9%88%D8%A7%D9%86-143213529062269",
	"web":"http://www.alwan.com.eg/",
	"arCategory":[
		"ادوات مكتبية"
	],
	"enCategories":[
		"Stationery"
	],
	"contacts":[
		{	"profileId":"484107",
	"profileURL":"//www.yellowpages.com.eg/en/profile/alwan-stationery/484107?b=7&k=19275&l=search",
	"arName":"خدمة العملاء, وسط البلد, القاهرة",
	"lat":"",
	"lng":"",
	"enName":"Customer Service, Downtown, Cairo"
},
		{	"profileId":"223354",
	"profileURL":"//www.yellowpages.com.eg/en/profile/alwan-stationery/223354?b=6&k=19275&l=search",
	"arName":"7 ش السلطان شعبان, الفجالة, القاهرة",
	"lat":"30.060896",
	"lng":"31.247945999999999",
	"enName":"7 El Sultan Shaaban St., Faggala, Cairo"
},
		{	"profileId":"521012",
	"profileURL":"//www.yellowpages.com.eg/en/profile/alwan-stationery/521012?b=8&k=19275&l=search",
	"arName":"6 عمارات عثمان - ش الاثرى محمد بن نافع, روكسى, مصر الجديدة, القاهرة",
	"lat":"30.095877999999999",
	"lng":"31.314957",
	"enName":"6 Othman Bldgs., El Athary Mohamed Ibn Nafea St., Roxy, Heliopolis, Cairo"
},
		{	"profileId":"223351",
	"profileURL":"//www.yellowpages.com.eg/en/profile/alwan-stationery/223351?b=2&k=19275&l=search",
	"arName":"25 ش شريف, وسط البلد, القاهرة",
	"lat":"30.050008999999999",
	"lng":"31.242481000000002",
	"enName":"25 Sherif St., Downtown, Cairo"
},
		{	"profileId":"223352",
	"profileURL":"//www.yellowpages.com.eg/en/profile/alwan-stationery/223352?b=1&k=19275&l=search",
	"arName":"1 ش كامل صدقى, الفجالة, القاهرة",
	"lat":"30.060348000000001",
	"lng":"31.247634999999999",
	"enName":"1 Kamel Sedqy St., Faggala, Cairo"
},
		{	"profileId":"521038",
	"profileURL":"//www.yellowpages.com.eg/en/profile/alwan-stationery/521038?b=11&k=19275&l=search",
	"arName":"ش جامعة القاهرة, الجيزة, الجيزة",
	"lat":"30.025110999999999",
	"lng":"31.210377000000001",
	"enName":"Gamaet El Qahera St., Giza, Giza"
},
		{	"profileId":"521039",
	"profileURL":"//www.yellowpages.com.eg/en/profile/alwan-stationery/521039?b=4&k=19275&l=search",
	"arName":"القطعة 27 - - مركز خدمات التجمع الخامس, التجمع الخامس, القاهرة الجديدة, القاهرة",
	"lat":"30.006633000000001",
	"lng":"31.424396000000002",
	"enName":"Plot 27, , 5th Compound Services Center, 5th Compound, New cairo, Cairo"
},
		{	"profileId":"223355",
	"profileURL":"//www.yellowpages.com.eg/en/profile/alwan-stationery/223355?b=5&k=19275&l=search",
	"arName":"77 ب طريق النصر, مدينة نصر, القاهرة",
	"lat":"30.067689000000001",
	"lng":"31.330712999999999",
	"enName":"77 B El Nasr Rd., Nasr city, Cairo"
},
		{	"profileId":"521017",
	"profileURL":"//www.yellowpages.com.eg/en/profile/alwan-stationery/521017?b=12&k=19275&l=search",
	"arName":"410 ش الهرم, الهرم, الجيزة",
	"lat":"30.009024",
	"lng":"31.199635000000001",
	"enName":"410 Haram St., El haram, Giza"
},
		{	"profileId":"223356",
	"profileURL":"//www.yellowpages.com.eg/en/profile/alwan-stationery/223356?b=3&k=19275&l=search",
	"arName":"19 ش اسماعيل محمد, الزمالك, القاهرة",
	"lat":"30.063965",
	"lng":"31.219131000000001",
	"enName":"19 Ismail Mohamed St., Zamalek, Cairo"
},
		{	"profileId":"521019",
	"profileURL":"//www.yellowpages.com.eg/en/profile/alwan-stationery/521019?b=10&k=19275&l=search",
	"arName":"77 ش محيى الدين ابو العز تقاطع ش جامعة الدول العربية, المهندسين, الجيزة",
	"lat":"30.048708000000001",
	"lng":"31.198539",
	"enName":"77 Mohy El Din Abou El Ezz St. Intersection Of Gamaet El Dewal El Arabeya St., Mohandeseen, Giza"
},
		{	"profileId":"477611",
	"profileURL":"//www.yellowpages.com.eg/en/profile/alwan-stationery/477611?b=9&k=19275&l=search",
	"arName":"امتداد محور 26 يوليو, الحى المتميز, السادس من اكتوبر, الجيزة",
	"lat":"29.992816000000001",
	"lng":"30.980886999999999",
	"enName":"Extension Of 26th Of July Spine, El Motamayez District, 6th of october, Giza"
}
	]
}]}