{"items":[{	"arName":"ايه ار تى - الشركة المصرية للخدمات الرقمية",
	"enName":"ART - Egyptian Co. For Digital Services",
	"hotline":"19300",
	"facebook":"",
	"web":"http://www.artonline.tv/",
	"arCategory":[
		"اقمار صناعية وريسيفر معدات"
	],
	"enCategories":[
		"Satellite & Receiving Equipment"
	],
	"contacts":[
		{	"profileId":"463904",
	"profileURL":"//www.yellowpages.com.eg/en/profile/art-_-egyptian-co.-for-digital-services/463904?b=8&k=19300&l=search",
	"arName":"136 ش احمد عصمت, عين شمس الشرقية, القاهرة",
	"lat":"30.124977999999999",
	"lng":"31.334263",
	"enName":"136 Ahmed Essmat St., Ain shams el sharkeya, Cairo"
},
		{	"profileId":"455660",
	"profileURL":"//www.yellowpages.com.eg/en/profile/art-_-egyptian-co.-for-digital-services/455660?b=21&k=19300&l=search",
	"arName":"ش فيلا الدكتور عز متفرع من ش التليفزيون, الاقصر, الاقصر",
	"lat":"",
	"lng":"",
	"enName":"Villa Dr. Ezz St. Off Television St., LUXOR, Luxor, Luxor"
},
		{	"profileId":"463801",
	"profileURL":"//www.yellowpages.com.eg/en/profile/art-_-egyptian-co.-for-digital-services/463801?b=4&k=19300&l=search",
	"arName":"4 ش الاهرام ميدان الاستراحة, المقطم, القاهرة",
	"lat":"30.016805999999999",
	"lng":"31.280726000000001",
	"enName":"4 El Ahram St. El Esteraha Sq., Mokattam, Cairo"
},
		{	"profileId":"148169",
	"profileURL":"//www.yellowpages.com.eg/en/profile/art-_-egyptian-co.-for-digital-services/148169?b=15&k=19300&l=search",
	"arName":"7 ش عبد العظيم الوزير, دمياط, دمياط",
	"lat":"31.407921000000002",
	"lng":"31.811115999999998",
	"enName":"7 Abdel Azem El Wazeer St., Damietta, Damietta"
},
		{	"profileId":"148174",
	"profileURL":"//www.yellowpages.com.eg/en/profile/art-_-egyptian-co.-for-digital-services/148174?b=9&k=19300&l=search",
	"arName":"ش عبد السلام عارف, المنصورة, الدقهلية",
	"lat":"31.035367999999998",
	"lng":"31.3917",
	"enName":"Abdel Salam Aref St., El mansoura, El dakahleya"
},
		{	"profileId":"145231",
	"profileURL":"//www.yellowpages.com.eg/en/profile/art-_-egyptian-co.-for-digital-services/145231?b=17&k=19300&l=search",
	"arName":"177 طريق الجيش, سيدى جابر, الاسكندرية",
	"lat":"31.226879",
	"lng":"29.938480999999999",
	"enName":"177 El Guish Rd., Sidi gaber, Alexandria"
},
		{	"profileId":"174659",
	"profileURL":"//www.yellowpages.com.eg/en/profile/art-_-egyptian-co.-for-digital-services/174659?b=20&k=19300&l=search",
	"arName":"1 ش جدة, المهندسين, الجيزة",
	"lat":"30.043993",
	"lng":"31.193808000000001",
	"enName":"1 Jeddah St., Mohandeseen, Giza"
},
		{	"profileId":"145224",
	"profileURL":"//www.yellowpages.com.eg/en/profile/art-_-egyptian-co.-for-digital-services/145224?b=6&k=19300&l=search",
	"arName":"19 ابراج الفردوس - ش احمد سعيد, عباسية, القاهرة",
	"lat":"30.066299999999998",
	"lng":"31.2712",
	"enName":"19 El Fardous Towers, Ahmed Said St., Abbasseya, Cairo"
},
		{	"profileId":"145234",
	"profileURL":"//www.yellowpages.com.eg/en/profile/art-_-egyptian-co.-for-digital-services/145234?b=2&k=19300&l=search",
	"arName":"98 عمارات صقر قريش -, مساكن شيراتون, مصر الجديدة, القاهرة",
	"lat":"30.104662999999999",
	"lng":"31.371486999999998",
	"enName":"98 Saqr Qoraish Bldgs.,, Sheraton Bldgs., Heliopolis, Cairo"
},
		{	"profileId":"148814",
	"profileURL":"//www.yellowpages.com.eg/en/profile/art-_-egyptian-co.-for-digital-services/148814?b=10&k=19300&l=search",
	"arName":"ش شبين الكوم, وسط البلد, الاسماعيلية",
	"lat":"",
	"lng":"",
	"enName":"Shebin El Koum St., Downtown, Ismaileya"
},
		{	"profileId":"174646",
	"profileURL":"//www.yellowpages.com.eg/en/profile/art-_-egyptian-co.-for-digital-services/174646?b=5&k=19300&l=search",
	"arName":"48 ش روض الفرج, شبرا, القاهرة",
	"lat":"30.080784000000001",
	"lng":"31.240652000000001",
	"enName":"48 Road El Farag St., Shoubra, Cairo"
},
		{	"profileId":"148821",
	"profileURL":"//www.yellowpages.com.eg/en/profile/art-_-egyptian-co.-for-digital-services/148821?b=11&k=19300&l=search",
	"arName":"ش البركة, الكورنيش, اسوان",
	"lat":"",
	"lng":"",
	"enName":"El Berka St., El corniche, Aswan"
},
		{	"profileId":"148810",
	"profileURL":"//www.yellowpages.com.eg/en/profile/art-_-egyptian-co.-for-digital-services/148810?b=12&k=19300&l=search",
	"arName":"2 ش غرب النادى البحرى - الحميات, حى غرب, سوهاج",
	"lat":"26.562078",
	"lng":"31.694671",
	"enName":"2 Gharb El Nady El Bahry St., El Hommeyat, Gharb district, Sohag"
},
		{	"profileId":"145237",
	"profileURL":"//www.yellowpages.com.eg/en/profile/art-_-egyptian-co.-for-digital-services/145237?b=7&k=19300&l=search",
	"arName":"126 ش شبرا, شبرا, القاهرة",
	"lat":"30.084599999999998",
	"lng":"31.245200000000001",
	"enName":"126 Shoubra St., Shoubra, Cairo"
},
		{	"profileId":"145622",
	"profileURL":"//www.yellowpages.com.eg/en/profile/art-_-egyptian-co.-for-digital-services/145622?b=14&k=19300&l=search",
	"arName":"ش صبرى ابو علم, شبين الكوم, المنوفية",
	"lat":"",
	"lng":"",
	"enName":"Sabry Abou Alam St., SHIBIN EL KAWM, Shebein el kawm, El monofeya"
},
		{	"profileId":"148809",
	"profileURL":"//www.yellowpages.com.eg/en/profile/art-_-egyptian-co.-for-digital-services/148809?b=16&k=19300&l=search",
	"arName":"3 ش امين عثمان متفرع من ش النميس, حى شرق, اسيوط",
	"lat":"27.187332999999999",
	"lng":"31.191690000000001",
	"enName":"3 Amin Othman St. Off El Namees St., Shark district, Assyout"
},
		{	"profileId":"88699",
	"profileURL":"//www.yellowpages.com.eg/en/profile/art-_-egyptian-co.-for-digital-services/88699?b=3&k=19300&l=search",
	"arName":"116 ش الجيش, باب الشعرية, القاهرة",
	"lat":"30.0563",
	"lng":"31.259",
	"enName":"116 El Guish St., Bab el shaareya, Cairo"
},
		{	"profileId":"88698",
	"profileURL":"//www.yellowpages.com.eg/en/profile/art-_-egyptian-co.-for-digital-services/88698?b=1&k=19300&l=search",
	"arName":"13 ش المنتزة, ميدان هليوبوليس, مصر الجديدة, القاهرة",
	"lat":"30.105899999999998",
	"lng":"31.325399999999998",
	"enName":"13 El Montazah St., Heliopolis Square, Heliopolis, Cairo"
},
		{	"profileId":"88697",
	"profileURL":"//www.yellowpages.com.eg/en/profile/art-_-egyptian-co.-for-digital-services/88697?b=18&k=19300&l=search",
	"arName":"خدمة العملاء, المهندسين, الجيزة",
	"lat":"",
	"lng":"",
	"enName":"Customer Service, Mohandeseen, Giza"
},
		{	"profileId":"88694",
	"profileURL":"//www.yellowpages.com.eg/en/profile/art-_-egyptian-co.-for-digital-services/88694?b=13&k=19300&l=search",
	"arName":"59 ش الوحدة, امبابة, الجيزة",
	"lat":"30.0864279",
	"lng":"31.2209684",
	"enName":"59 El Wehda St., Imbaba, Giza"
},
		{	"profileId":"148818",
	"profileURL":"//www.yellowpages.com.eg/en/profile/art-_-egyptian-co.-for-digital-services/148818?b=19&k=19300&l=search",
	"arName":"1 ش النهضة, حى الشرق, بور سعيد",
	"lat":"31.264897000000001",
	"lng":"32.302052000000003",
	"enName":"1 El Nahda St., El shark district, Port said"
}
	]
}]}