{"items":[{	"arName":"معامل لاب ميد ايجيبت",
	"enName":"Labmed Egypt",
	"hotline":"19314",
	"facebook":"http://www.facebook.com/LabmedEgypt/",
	"web":"http://www.labmedegypt.com/",
	"arCategory":[
		"معامل طبية"
	],
	"enCategories":[
		"Laboratories Medical"
	],
	"contacts":[
		{	"profileId":"576681",
	"profileURL":"//www.yellowpages.com.eg/en/profile/labmed-egypt/576681?b=2&k=19314&l=search",
	"arName":"43 ميدان الجزائر, المعادى الجديدة, المعادى, القاهرة",
	"lat":"29.974834999999999",
	"lng":"31.276018000000001",
	"enName":"43 El Gazaer Sq., New Maadi, Maadi, Cairo"
},
		{	"profileId":"576154",
	"profileURL":"//www.yellowpages.com.eg/en/profile/labmed-egypt/576154?b=15&k=19314&l=search",
	"arName":"35 ش سليمان اباظة متفرع من ش جامعة الدول العربية, المهندسين, الجيزة",
	"lat":"30.050702999999999",
	"lng":"31.201270999999998",
	"enName":"35 Soliman Abaza St. Off Gamaet El Dewal El Arabeya St., Mohandeseen, Giza"
},
		{	"profileId":"576212",
	"profileURL":"//www.yellowpages.com.eg/en/profile/labmed-egypt/576212?b=3&k=19314&l=search",
	"arName":"15 ش سمير عبد الرؤوف امتداد ش مكرم عبيد - الدور 2, الحى الثامن, مدينة نصر, القاهرة",
	"lat":"30.052620999999998",
	"lng":"31.346170999999998",
	"enName":"15 Samir Abdel Raouf St. Extension Of Makram Ebaid St., Floor 2, 8th District, Nasr city, Cairo"
},
		{	"profileId":"576398",
	"profileURL":"//www.yellowpages.com.eg/en/profile/labmed-egypt/576398?b=6&k=19314&l=search",
	"arName":"420 ش 9, المقطم, القاهرة",
	"lat":"30.013217999999998",
	"lng":"31.289290999999999",
	"enName":"420 Rd. 9, Mokattam, Cairo"
},
		{	"profileId":"576123",
	"profileURL":"//www.yellowpages.com.eg/en/profile/labmed-egypt/576123?b=14&k=19314&l=search",
	"arName":"55 ش عبد المنعم رياض متفرع من ش البطل احمد عبد العزيز - برج الاطباء - الدور 1, المهندسين, الجيزة",
	"lat":"30.053984",
	"lng":"31.209299999999999",
	"enName":"55 Abdel Moneim Riad St. Off El Batal Ahmed Abdel Aziz St., EL Atebaa Tower, Floor 1, Mohandeseen, Giza"
},
		{	"profileId":"576621",
	"profileURL":"//www.yellowpages.com.eg/en/profile/labmed-egypt/576621?b=17&k=19314&l=search",
	"arName":"319 ش فيصل - الدور 1, حسن محمد, فيصل, الجيزة",
	"lat":"30.002435999999999",
	"lng":"31.170912999999999",
	"enName":"319 Faisal St., Floor 1, Hassan Mohamed, Faisal, Giza"
},
		{	"profileId":"576642",
	"profileURL":"//www.yellowpages.com.eg/en/profile/labmed-egypt/576642?b=4&k=19314&l=search",
	"arName":"16 ش الصالح ايوب - الدور 1, الزمالك, القاهرة",
	"lat":"30.061",
	"lng":"31.2195",
	"enName":"16 El Saleh Aioub St., Floor 1, Zamalek, Cairo"
},
		{	"profileId":"576411",
	"profileURL":"//www.yellowpages.com.eg/en/profile/labmed-egypt/576411?b=10&k=19314&l=search",
	"arName":"147 ش النزهة ميدان سانت فاتيما, سانت فاتيما, مصر الجديدة, القاهرة",
	"lat":"30.106529999999999",
	"lng":"31.344529999999999",
	"enName":"147 El Nozha St. Saint Fatima Sq., Saint Fatima, Heliopolis, Cairo"
},
		{	"profileId":"576136",
	"profileURL":"//www.yellowpages.com.eg/en/profile/labmed-egypt/576136?b=13&k=19314&l=search",
	"arName":"خدمة العملاء, المهندسين, الجيزة",
	"lat":"",
	"lng":"",
	"enName":"Customer Service, Mohandeseen, Giza"
},
		{	"profileId":"576678",
	"profileURL":"//www.yellowpages.com.eg/en/profile/labmed-egypt/576678?b=5&k=19314&l=search",
	"arName":"18 ش القبة, روكسى, مصر الجديدة, القاهرة",
	"lat":"30.093910999999999",
	"lng":"31.314114",
	"enName":"18 El Qobba St., Roxy, Heliopolis, Cairo"
},
		{	"profileId":"576711",
	"profileURL":"//www.yellowpages.com.eg/en/profile/labmed-egypt/576711?b=16&k=19314&l=search",
	"arName":"1 ميدان لبنان - امتداد ش 26 يوليو - الدور 4 شقة 14, العجوزة, الجيزة",
	"lat":"30.060236",
	"lng":"31.193242999999999",
	"enName":"1 Lebanon Sq., Extension Of 26th Of July St., Floor 4 Flat 14, Agouza, Giza"
},
		{	"profileId":"576688",
	"profileURL":"//www.yellowpages.com.eg/en/profile/labmed-egypt/576688?b=8&k=19314&l=search",
	"arName":"66 ش الخليفة المأمون, روكسى, مصر الجديدة, القاهرة",
	"lat":"30.09",
	"lng":"31.311399999999999",
	"enName":"66 El Khalifa El Mamnoun St., Roxy, Heliopolis, Cairo"
},
		{	"profileId":"576702",
	"profileURL":"//www.yellowpages.com.eg/en/profile/labmed-egypt/576702?b=12&k=19314&l=search",
	"arName":"48 ش عثمان بن عفان, ميدان الاسماعيلية, مصر الجديدة, القاهرة",
	"lat":"30.097252999999998",
	"lng":"31.336182000000001",
	"enName":"48 Othman Ibn Affan St., Ismaileya Square, Heliopolis, Cairo"
},
		{	"profileId":"576624",
	"profileURL":"//www.yellowpages.com.eg/en/profile/labmed-egypt/576624?b=1&k=19314&l=search",
	"arName":"110 ش المنيل, المنيل, القاهرة",
	"lat":"30.025385",
	"lng":"31.226123999999999",
	"enName":"110 Manial St., El manyal, Cairo"
},
		{	"profileId":"576404",
	"profileURL":"//www.yellowpages.com.eg/en/profile/labmed-egypt/576404?b=9&k=19314&l=search",
	"arName":"66 ش شبرا - الدور 2, شبرا, القاهرة",
	"lat":"30.075426",
	"lng":"31.244978",
	"enName":"66 Shoubra St., Floor 2, Shoubra, Cairo"
},
		{	"profileId":"576627",
	"profileURL":"//www.yellowpages.com.eg/en/profile/labmed-egypt/576627?b=7&k=19314&l=search",
	"arName":"15 ميدان التحرير, وسط البلد, القاهرة",
	"lat":"30.045583000000001",
	"lng":"31.235548999999999",
	"enName":"15 El Tahrir Sq., Downtown, Cairo"
},
		{	"profileId":"576637",
	"profileURL":"//www.yellowpages.com.eg/en/profile/labmed-egypt/576637?b=11&k=19314&l=search",
	"arName":"41 ش محمد سيد احمد - برج النادى - الدور 2, حلوان, القاهرة",
	"lat":"29.847563000000001",
	"lng":"31.331333000000001",
	"enName":"41 Mohamed Sayed Ahmed St., El Nady Tower, Floor 2, Helwan, Cairo"
},
		{	"profileId":"576626",
	"profileURL":"//www.yellowpages.com.eg/en/profile/labmed-egypt/576626?b=18&k=19314&l=search",
	"arName":"15 ش مراد - الدور 2, الجيزة, الجيزة",
	"lat":"30.020551000000001",
	"lng":"31.216429999999999",
	"enName":"15 Mourad St., Floor 2, Giza, Giza"
}
	]
}]}