{"items":[{	"arName":"كلورايد ايجيبت",
	"enName":"Chloride Egypt",
	"hotline":"19328",
	"facebook":"http://www.facebook.com/ChlorideEgypt",
	"web":"http://www.chloride-batteries.com/",
	"arCategory":[
		"بطاريات"
	],
	"enCategories":[
		"Batteries"
	],
	"contacts":[
		{	"profileId":"225360",
	"profileURL":"//www.yellowpages.com.eg/en/profile/chloride-egypt/225360?b=4&k=19328&l=search",
	"arName":"1 ش بلال بن رباح متفرع من ش جميلة بوحريد, السيوف شماعة, الاسكندرية",
	"lat":"31.239674000000001",
	"lng":"29.981940999999999",
	"enName":"1 Belal ibn rabah st. off gamila Bouhraid st. , El seyouf shamaa, Alexandria"
},
		{	"profileId":"74548",
	"profileURL":"//www.yellowpages.com.eg/en/profile/chloride-egypt/74548?b=6&k=19328&l=search",
	"arName":"40 ش البحر الاعظم, الجيزة, الجيزة",
	"lat":"29.9893",
	"lng":"31.2151",
	"enName":"40 El Bahr El Aazam St., Giza, Giza"
},
		{	"profileId":"74547",
	"profileURL":"//www.yellowpages.com.eg/en/profile/chloride-egypt/74547?b=3&k=19328&l=search",
	"arName":"5 ش سليمان الحلبى متفرع من ش رمسيس, وسط البلد, القاهرة",
	"lat":"30.055499999999999",
	"lng":"31.241900000000001",
	"enName":"5 Soliman El Halaby St. Off Ramsis St., Downtown, Cairo"
},
		{	"profileId":"74546",
	"profileURL":"//www.yellowpages.com.eg/en/profile/chloride-egypt/74546?b=1&k=19328&l=search",
	"arName":"20 ش ابن الهيثم, المنطقة الاولى, مدينة نصر, القاهرة",
	"lat":"30.055413999999999",
	"lng":"31.337465999999999",
	"enName":"20 Ibn El Haitham St., 1st Zone, Nasr city, Cairo"
},
		{	"profileId":"559637",
	"profileURL":"//www.yellowpages.com.eg/en/profile/chloride-egypt/559637?b=2&k=19328&l=search",
	"arName":"4 ش عمر شاهين متفرع من ش شبرا, شبرا, القاهرة",
	"lat":"30.091218000000001",
	"lng":"31.242373000000001",
	"enName":"4 Omar Shahin St. Off Shoubra St., Shoubra, Cairo"
},
		{	"profileId":"74550",
	"profileURL":"//www.yellowpages.com.eg/en/profile/chloride-egypt/74550?b=7&k=19328&l=search",
	"arName":"طريق اسيوط سوهاج, حى غرب, سوهاج",
	"lat":"26.557918000000001",
	"lng":"31.691737",
	"enName":"Assyout Sohag Rd., Gharb district, Sohag"
},
		{	"profileId":"12148",
	"profileURL":"//www.yellowpages.com.eg/en/profile/chloride-egypt/12148?b=5&k=19328&l=search",
	"arName":"كم 28 - طريق القاهرة اسكندرية الصحراوى, ابو رواش, الجيزة",
	"lat":"30.080732000000001",
	"lng":"31.036092",
	"enName":"Km 28, Cairo Alex Desert Rd., Abou rawash, Giza"
},
		{	"profileId":"532749",
	"profileURL":"//www.yellowpages.com.eg/en/profile/chloride-egypt/532749?b=8&k=19328&l=search",
	"arName":"خدمة العملاء, ابو رواش, الجيزة",
	"lat":"",
	"lng":"",
	"enName":"Customer Service, Abou rawash, Giza"
},
		{	"profileId":"556907",
	"profileURL":"//www.yellowpages.com.eg/en/profile/chloride-egypt/556907?b=9&k=19328&l=search",
	"arName":"القطعة 49 - - المنطقة الحرفية, الرويسات, شرم الشيخ",
	"lat":"",
	"lng":"",
	"enName":"Plot 49, , Craft Zone, El ruwaisat, Sharm el sheikh"
}
	]
}]}