{"items":[{	"arName":"مركز خدمة ومعارض محمد زكى",
	"enName":"Mohamed Zaky Automotive",
	"hotline":"19420",
	"facebook":"http://www.facebook.com/M.ZakyAuto",
	"web":"",
	"arCategory":[
		"سيارات - تجار - سيارات جديدة"
	],
	"enCategories":[
		"Cars - Dealers, New Cars"
	],
	"contacts":[
		{	"profileId":"102838",
	"profileURL":"//www.yellowpages.com.eg/en/profile/mohamed-zaky-automotive/102838?b=5&k=19420&l=search",
	"arName":"1041 كورنيش النيل, مصر القديمة, القاهرة",
	"lat":"30.019769",
	"lng":"31.229597999999999",
	"enName":"1041 Corniche El Nil, Misr el kadima, Cairo"
},
		{	"profileId":"467197",
	"profileURL":"//www.yellowpages.com.eg/en/profile/mohamed-zaky-automotive/467197?b=4&k=19420&l=search",
	"arName":"42 ميدان المروحة - مدينة النخيل, القطامية, القاهرة",
	"lat":"29.982153",
	"lng":"31.354700999999999",
	"enName":"42 El Marwaha Sq., El Nakhil City, El katameya, Cairo"
},
		{	"profileId":"467198",
	"profileURL":"//www.yellowpages.com.eg/en/profile/mohamed-zaky-automotive/467198?b=2&k=19420&l=search",
	"arName":"45 ميدان المروحة - مدينة النخيل, القطامية, القاهرة",
	"lat":"29.981632000000001",
	"lng":"31.354122",
	"enName":"45 El Marwaha Sq., El Nakhil City, El katameya, Cairo"
},
		{	"profileId":"125018",
	"profileURL":"//www.yellowpages.com.eg/en/profile/mohamed-zaky-automotive/125018?b=6&k=19420&l=search",
	"arName":"23 ش النهضة تقاطع ش 6, المعادى, القاهرة",
	"lat":"29.957999999999998",
	"lng":"31.256599999999999",
	"enName":"23 El Nahda St. Intersection Of Rd. 6, Maadi, Cairo"
},
		{	"profileId":"125016",
	"profileURL":"//www.yellowpages.com.eg/en/profile/mohamed-zaky-automotive/125016?b=1&k=19420&l=search",
	"arName":"الطريق الدائرى - مدينة النخيل, القطامية, القاهرة",
	"lat":"29.982120999999999",
	"lng":"31.357790999999999",
	"enName":"Ring Rd., Palm City, El katameya, Cairo"
},
		{	"profileId":"142821",
	"profileURL":"//www.yellowpages.com.eg/en/profile/mohamed-zaky-automotive/142821?b=3&k=19420&l=search",
	"arName":"خدمة العملاء, مصر القديمة, القاهرة",
	"lat":"",
	"lng":"",
	"enName":"Customer Service, Misr el kadima, Cairo"
}
	]
}]}