{"items":[{	"arName":"صيدلية الرجبى",
	"enName":"El Ragaby Pharmacy",
	"hotline":"19430",
	"facebook":"http://www.facebook.com/pages/%D8%B5%D9%8A%D8%AF%D9%84%D9%8A%D8%A9-%D8%A7%D9%84%D8%B1%D8%AC%D8%A8%D9%89elragaby-Pharmacy/411073225608341",
	"web":"http://www.elragabypharmacies.com/",
	"arCategory":[
		"صيدليات"
	],
	"enCategories":[
		"Pharmacies"
	],
	"contacts":[
		{	"profileId":"449516",
	"profileURL":"//www.yellowpages.com.eg/en/profile/el-ragaby-pharmacy/449516?b=3&k=19430&l=search",
	"arName":"خدمة توصيل الطلبات للمنازل, جليم, الاسكندرية",
	"lat":"",
	"lng":"",
	"enName":"Home Delivery, Glim, Alexandria"
},
		{	"profileId":"449515",
	"profileURL":"//www.yellowpages.com.eg/en/profile/el-ragaby-pharmacy/449515?b=4&k=19430&l=search",
	"arName":"68 ش مسجد سيدى بشر, سيدى بشر, الاسكندرية",
	"lat":"31.259736",
	"lng":"29.987704999999998",
	"enName":"68 Masged Sidi Beshr St., Sidi beshr, Alexandria"
},
		{	"profileId":"449509",
	"profileURL":"//www.yellowpages.com.eg/en/profile/el-ragaby-pharmacy/449509?b=2&k=19430&l=search",
	"arName":"60 طريق اسكندرية مطروح الصحراوى, العجمى, الاسكندرية",
	"lat":"31.106417",
	"lng":"29.782202999999999",
	"enName":"60 Alex Matrouh Desert Rd., Agami, Alexandria"
},
		{	"profileId":"217817",
	"profileURL":"//www.yellowpages.com.eg/en/profile/el-ragaby-pharmacy/217817?b=1&k=19430&l=search",
	"arName":"78 ش عبد السلام عارف - عمارة زمردة السرايا, جليم, الاسكندرية",
	"lat":"31.237794000000001",
	"lng":"29.958337",
	"enName":"78 Abdel Salam Aref St., Zomorodet El Saraya Bldg., Glim, Alexandria"
},
		{	"profileId":"557224",
	"profileURL":"//www.yellowpages.com.eg/en/profile/el-ragaby-pharmacy/557224?b=5&k=19430&l=search",
	"arName":"5 ش فوزى معاذ, سموحة, الاسكندرية",
	"lat":"31.209544000000001",
	"lng":"29.935579000000001",
	"enName":"5 Fawzy Moaz St., Semouha, Alexandria"
},
		{	"profileId":"449512",
	"profileURL":"//www.yellowpages.com.eg/en/profile/el-ragaby-pharmacy/449512?b=6&k=19430&l=search",
	"arName":"5 ش الفريد ليان متفرع من ش سوريا, رشدى, الاسكندرية",
	"lat":"31.230148",
	"lng":"29.949224000000001",
	"enName":"5 Alfred Lian St. Off Syria St., Roushdy, Alexandria"
}
	]
}]}