{"items":[{	"arName":"مصر لتأمينات الحياة",
	"enName":"Misr Life Insurance",
	"hotline":"19446",
	"facebook":"http://www.facebook.com/MisrLifeInsuranceOfficial",
	"web":"http://www.misrlife.com/",
	"arCategory":[
		"تأمين"
	],
	"enCategories":[
		"Insurance"
	],
	"contacts":[
		{	"profileId":"376606",
	"profileURL":"//www.yellowpages.com.eg/en/profile/misr-life-insurance/376606?b=18&k=19446&l=search",
	"arName":"ش المدارس, مدينة بدر, البحيرة",
	"lat":"30.573217",
	"lng":"30.706097",
	"enName":"El Madares St., Badr city, El beheira"
},
		{	"profileId":"376290",
	"profileURL":"//www.yellowpages.com.eg/en/profile/misr-life-insurance/376290?b=16&k=19446&l=search",
	"arName":"47 ش بورسعيد, ابو قير, الاسكندرية",
	"lat":"31.320482999999999",
	"lng":"30.063497000000002",
	"enName":"47 Port Said St., Abou kir, Alexandria"
},
		{	"profileId":"397272",
	"profileURL":"//www.yellowpages.com.eg/en/profile/misr-life-insurance/397272?b=32&k=19446&l=search",
	"arName":"., الكردى, الدقهلية",
	"lat":"",
	"lng":"",
	"enName":"., El kordy, El dakahleya"
},
		{	"profileId":"397273",
	"profileURL":"//www.yellowpages.com.eg/en/profile/misr-life-insurance/397273?b=95&k=19446&l=search",
	"arName":"ِش السد العالى, شربين, الدقهلية",
	"lat":"31.194264",
	"lng":"31.518273000000001",
	"enName":"El Sad El Aaly St., Sherbin, El dakahleya"
},
		{	"profileId":"397275",
	"profileURL":"//www.yellowpages.com.eg/en/profile/misr-life-insurance/397275?b=61&k=19446&l=search",
	"arName":". - اخطاب, اجا, الدقهلية",
	"lat":"",
	"lng":"",
	"enName":"., Ekhtab, Aga, El dakahleya"
},
		{	"profileId":"377020",
	"profileURL":"//www.yellowpages.com.eg/en/profile/misr-life-insurance/377020?b=70&k=19446&l=search",
	"arName":"ش شبين الكوم - برج الاندلس, وسط البلد, الاسماعيلية",
	"lat":"30.609762199999999",
	"lng":"32.271351799999998",
	"enName":"Shebin El Koum St., El Andalus Tower, Downtown, Ismaileya"
},
		{	"profileId":"397271",
	"profileURL":"//www.yellowpages.com.eg/en/profile/misr-life-insurance/397271?b=46&k=19446&l=search",
	"arName":"ش الجيش, المنصورة, الدقهلية",
	"lat":"31.051242999999999",
	"lng":"31.395320999999999",
	"enName":"El Guish St., El mansoura, El dakahleya"
},
		{	"profileId":"376436",
	"profileURL":"//www.yellowpages.com.eg/en/profile/misr-life-insurance/376436?b=87&k=19446&l=search",
	"arName":"ش 23 يوليو, بسيون, الغربية",
	"lat":"30.939436600000001",
	"lng":"30.8100038",
	"enName":"23Rd Of July St., Bassioun, El gharbeya"
},
		{	"profileId":"397155",
	"profileURL":"//www.yellowpages.com.eg/en/profile/misr-life-insurance/397155?b=59&k=19446&l=search",
	"arName":"ش الحرية, وسط البلد, الفيوم",
	"lat":"29.308047999999999",
	"lng":"30.84215",
	"enName":"El Horreya St., Downtown, El fayoum"
},
		{	"profileId":"376675",
	"profileURL":"//www.yellowpages.com.eg/en/profile/misr-life-insurance/376675?b=21&k=19446&l=search",
	"arName":"145 ش مصطفى كامل, ابو كبير, الشرقية",
	"lat":"",
	"lng":"",
	"enName":"145 Mostafa Kamel St., Abou kebeir, El sharkeya"
},
		{	"profileId":"397157",
	"profileURL":"//www.yellowpages.com.eg/en/profile/misr-life-insurance/397157?b=27&k=19446&l=search",
	"arName":"10 ش النيل السعيد, البدرشين, الجيزة",
	"lat":"29.849785000000001",
	"lng":"31.281331999999999",
	"enName":"10 El Nil El Said St., El badrashin, Giza"
},
		{	"profileId":"376278",
	"profileURL":"//www.yellowpages.com.eg/en/profile/misr-life-insurance/376278?b=75&k=19446&l=search",
	"arName":"661 برج سماء الاسكندرية - طريق الحرية, جناكليس, الاسكندرية",
	"lat":"31.243912000000002",
	"lng":"29.971038",
	"enName":"661 Samaa El Iskandereya Tower, El Horreya Rd., Ganaklis, Alexandria"
},
		{	"profileId":"396901",
	"profileURL":"//www.yellowpages.com.eg/en/profile/misr-life-insurance/396901?b=7&k=19446&l=search",
	"arName":"2 ش 79, المعادى, القاهرة",
	"lat":"29.960614",
	"lng":"31.258465999999999",
	"enName":"2 Rd. 79, Maadi, Cairo"
},
		{	"profileId":"396900",
	"profileURL":"//www.yellowpages.com.eg/en/profile/misr-life-insurance/396900?b=10&k=19446&l=search",
	"arName":"7 ش خليل اغا, جاردن سيتى, القاهرة",
	"lat":"30.036127",
	"lng":"31.232316999999998",
	"enName":"7 Khalil Agha St., Garden city, Cairo"
},
		{	"profileId":"376683",
	"profileURL":"//www.yellowpages.com.eg/en/profile/misr-life-insurance/376683?b=90&k=19446&l=search",
	"arName":"ش مصطفى كامل, منية النصر, الدقهلية",
	"lat":"31.121371",
	"lng":"31.647829000000002",
	"enName":"Mostafa Kamel St., Meniet el nasr, El dakahleya"
},
		{	"profileId":"304210",
	"profileURL":"//www.yellowpages.com.eg/en/profile/misr-life-insurance/304210?b=23&k=19446&l=search",
	"arName":"255 ش الجلاء - عمارة مصر للتأمين - الدور 1, طنطا, الغربية",
	"lat":"30.786548100000001",
	"lng":"31.001935",
	"enName":"255 El Galaa St., Misr Lel Taamin Bldg., Floor 1, Tanta, El gharbeya"
},
		{	"profileId":"376043",
	"profileURL":"//www.yellowpages.com.eg/en/profile/misr-life-insurance/376043?b=1&k=19446&l=search",
	"arName":"301 ش ترعة الجبل, المطرية, القاهرة",
	"lat":"30.109048000000001",
	"lng":"31.309189",
	"enName":"301 Teraet El Gabal St., El matareya, Cairo"
},
		{	"profileId":"397164",
	"profileURL":"//www.yellowpages.com.eg/en/profile/misr-life-insurance/397164?b=28&k=19446&l=search",
	"arName":"ش الجلاء, البدارى, اسيوط",
	"lat":"",
	"lng":"",
	"enName":"El Galaa St., El badary, Assyout"
},
		{	"profileId":"377494",
	"profileURL":"//www.yellowpages.com.eg/en/profile/misr-life-insurance/377494?b=39&k=19446&l=search",
	"arName":"ش الجمهورية, مغاغة, المنيا",
	"lat":"28.648499999999999",
	"lng":"30.841505999999999",
	"enName":"El Gomhoureya St., Magaghah, El menia"
},
		{	"profileId":"376680",
	"profileURL":"//www.yellowpages.com.eg/en/profile/misr-life-insurance/376680?b=69&k=19446&l=search",
	"arName":"ش ابو الحسايب, زفتى, الغربية",
	"lat":"30.711382",
	"lng":"31.239495000000002",
	"enName":"Abou El Hasaib St., Zefta, El gharbeya"
},
		{	"profileId":"376283",
	"profileURL":"//www.yellowpages.com.eg/en/profile/misr-life-insurance/376283?b=15&k=19446&l=search",
	"arName":"513 برج الكرنك - ش الفتح تقاطع ش قطاوى, بولكلى, الاسكندرية",
	"lat":"31.233981",
	"lng":"29.958627",
	"enName":"513 El Karnak Tower, El Fath St. Intersection Of Qattawy St., Bolkeley, Alexandria"
},
		{	"profileId":"397160",
	"profileURL":"//www.yellowpages.com.eg/en/profile/misr-life-insurance/397160?b=94&k=19446&l=search",
	"arName":"ش الجمهورية, الصف, الجيزة",
	"lat":"29.569174",
	"lng":"31.280221999999998",
	"enName":"El Gomhoureya St., El saff, Giza"
},
		{	"profileId":"376625",
	"profileURL":"//www.yellowpages.com.eg/en/profile/misr-life-insurance/376625?b=20&k=19446&l=search",
	"arName":"برج على بن ابى طالب - عمارة الاوقاف - ش الجيش - مدينة البندر, وسط البلد, كفر الشيخ",
	"lat":"31.113375099999999",
	"lng":"30.940510700000001",
	"enName":"Aly Ibn Abi Taleb Tower, El Awqaf Bldg., El Guish St., El Bandar City, Downtown, Kafr el sheikh"
},
		{	"profileId":"376620",
	"profileURL":"//www.yellowpages.com.eg/en/profile/misr-life-insurance/376620?b=19&k=19446&l=search",
	"arName":"ش صلاح سالم, شبراخيت, البحيرة",
	"lat":"31.030756100000001",
	"lng":"30.713514199999999",
	"enName":"Salah Salem St., Shoubrakhit, El beheira"
},
		{	"profileId":"376344",
	"profileURL":"//www.yellowpages.com.eg/en/profile/misr-life-insurance/376344?b=67&k=19446&l=search",
	"arName":"ش الثورة, السنطة, الغربية",
	"lat":"",
	"lng":"",
	"enName":"El Thawra St., As-santah, El gharbeya"
},
		{	"profileId":"397409",
	"profileURL":"//www.yellowpages.com.eg/en/profile/misr-life-insurance/397409?b=47&k=19446&l=search",
	"arName":"ش حسن علام, الدهار, الغردقة",
	"lat":"27.256131",
	"lng":"33.807141000000001",
	"enName":"Hassan Alam St., Dahar, Hurghada"
},
		{	"profileId":"145273",
	"profileURL":"//www.yellowpages.com.eg/en/profile/misr-life-insurance/145273?b=51&k=19446&l=search",
	"arName":"عمارات مصر للتعمير - ش جمال عبد الناصر - الدور 1, العصافرة, الاسكندرية",
	"lat":"31.271434800000002",
	"lng":"30.002640299999999",
	"enName":"Misr Lel Taamir Bldgs., Gamal Abdel Nasser St. , Floor 1, El asafra, Alexandria"
},
		{	"profileId":"376070",
	"profileURL":"//www.yellowpages.com.eg/en/profile/misr-life-insurance/376070?b=12&k=19446&l=search",
	"arName":"376 ش الشيخ غراب, حدائق القبة, القاهرة",
	"lat":"30.091303",
	"lng":"31.288474999999998",
	"enName":"376 El Sheikh Ghorab St., Hadayek el kobba, Cairo"
},
		{	"profileId":"470725",
	"profileURL":"//www.yellowpages.com.eg/en/profile/misr-life-insurance/470725?b=5&k=19446&l=search",
	"arName":"41 ش قصر النيل - الدور 3, وسط البلد, القاهرة",
	"lat":"30.049292999999999",
	"lng":"31.244351000000002",
	"enName":"41 Kasr El Nil St., Floor 3, Downtown, Cairo"
},
		{	"profileId":"145305",
	"profileURL":"//www.yellowpages.com.eg/en/profile/misr-life-insurance/145305?b=52&k=19446&l=search",
	"arName":"ش بورسعيد - حى السلام, بيلا, كفر الشيخ",
	"lat":"31.171652999999999",
	"lng":"31.219740999999999",
	"enName":"Port Said St., El Salam District, Beilla, Kafr el sheikh"
},
		{	"profileId":"397252",
	"profileURL":"//www.yellowpages.com.eg/en/profile/misr-life-insurance/397252?b=45&k=19446&l=search",
	"arName":"11 ش سعد زغلول تقاطع ش الجيش, حى الشرق, بور سعيد",
	"lat":"31.260539999999999",
	"lng":"32.307892000000002",
	"enName":"11 Saad Zaghloul St. Intersection Of El Guish St., El shark district, Port said"
},
		{	"profileId":"397099",
	"profileURL":"//www.yellowpages.com.eg/en/profile/misr-life-insurance/397099?b=26&k=19446&l=search",
	"arName":"ش الجمهورية, حوش عيسى, البحيرة",
	"lat":"30.9154537",
	"lng":"30.2972942",
	"enName":"El Gomhoureya St., Housh eissa, El beheira"
},
		{	"profileId":"397092",
	"profileURL":"//www.yellowpages.com.eg/en/profile/misr-life-insurance/397092?b=57&k=19446&l=search",
	"arName":"ش التحرير, المحمودية, البحيرة",
	"lat":"",
	"lng":"",
	"enName":"El Tahrir St., El mahmoudeya, El beheira"
},
		{	"profileId":"397258",
	"profileURL":"//www.yellowpages.com.eg/en/profile/misr-life-insurance/397258?b=31&k=19446&l=search",
	"arName":"203 ش الحرية, حى الافرنج, الاسماعيلية",
	"lat":"30.593551000000001",
	"lng":"32.272129",
	"enName":"203 El Horreya St., El afrang district, Ismaileya"
},
		{	"profileId":"376334",
	"profileURL":"//www.yellowpages.com.eg/en/profile/misr-life-insurance/376334?b=17&k=19446&l=search",
	"arName":"ش سيدى عقيل, سمنود, الغربية",
	"lat":"30.964665799999999",
	"lng":"31.240310600000001",
	"enName":"Sidi Aqil St., Samannoud, El gharbeya"
},
		{	"profileId":"356983",
	"profileURL":"//www.yellowpages.com.eg/en/profile/misr-life-insurance/356983?b=84&k=19446&l=search",
	"arName":"24 برج مصر للتأمين - ش احمد عرابى, دمنهور, البحيرة",
	"lat":"31.039293000000001",
	"lng":"30.470355000000001",
	"enName":"24 Misr Lel Taamin Tower, Ahmed Orabi St., Damanhour, El beheira"
},
		{	"profileId":"145286",
	"profileURL":"//www.yellowpages.com.eg/en/profile/misr-life-insurance/145286?b=74&k=19446&l=search",
	"arName":"55 ش ابى الدرداء, المنشية, الاسكندرية",
	"lat":"31.193304999999999",
	"lng":"29.894732000000001",
	"enName":"55 Abi El Dardaa St., El mansheya, Alexandria"
},
		{	"profileId":"376583",
	"profileURL":"//www.yellowpages.com.eg/en/profile/misr-life-insurance/376583?b=77&k=19446&l=search",
	"arName":"ش البساتين, ابو المطامير, البحيرة",
	"lat":"",
	"lng":"",
	"enName":"El Basateen St., Aboul matamir, El beheira"
},
		{	"profileId":"397263",
	"profileURL":"//www.yellowpages.com.eg/en/profile/misr-life-insurance/397263?b=60&k=19446&l=search",
	"arName":"1 ش الجيش, حى السويس, السويس",
	"lat":"29.965926100000001",
	"lng":"32.554684299999998",
	"enName":"1 El Guish St., Suez district, Suez"
},
		{	"profileId":"396893",
	"profileURL":"//www.yellowpages.com.eg/en/profile/misr-life-insurance/396893?b=6&k=19446&l=search",
	"arName":"21 ش محمود بسيونى ميدان طلعت حرب, وسط البلد, القاهرة",
	"lat":"30.047682999999999",
	"lng":"31.237971999999999",
	"enName":"21 Mahmoud Basiony St. Talaat Harb Sq., Downtown, Cairo"
},
		{	"profileId":"396892",
	"profileURL":"//www.yellowpages.com.eg/en/profile/misr-life-insurance/396892?b=8&k=19446&l=search",
	"arName":"19 ش ميريت باشا ميدان عبد المنعم رياض, وسط البلد, القاهرة",
	"lat":"30.048425999999999",
	"lng":"31.234752",
	"enName":"19 Merritt Pasha St. Abdel Moneim Riad Sq., Downtown, Cairo"
},
		{	"profileId":"397349",
	"profileURL":"//www.yellowpages.com.eg/en/profile/misr-life-insurance/397349?b=82&k=19446&l=search",
	"arName":"ش بورسعيد, منيا القمح, الشرقية",
	"lat":"30.515611",
	"lng":"31.3449141",
	"enName":"Port Said St., Minya el qamh, El sharkeya"
},
		{	"profileId":"396897",
	"profileURL":"//www.yellowpages.com.eg/en/profile/misr-life-insurance/396897?b=9&k=19446&l=search",
	"arName":"175 ش بورسعيد, السيدة زينب, القاهرة",
	"lat":"30.033062000000001",
	"lng":"31.238285000000001",
	"enName":"175 Port Said St., El sayeda zeinab, Cairo"
},
		{	"profileId":"376366",
	"profileURL":"//www.yellowpages.com.eg/en/profile/misr-life-insurance/376366?b=85&k=19446&l=search",
	"arName":"9 ش الحرية تقاطع ش احمد عرابى, تلا, المنوفية",
	"lat":"30.678681000000001",
	"lng":"30.9449264",
	"enName":"9 El Horreya St. Intersection Of Ahmed Orabi St., Tala, El monofeya"
},
		{	"profileId":"396935",
	"profileURL":"//www.yellowpages.com.eg/en/profile/misr-life-insurance/396935?b=79&k=19446&l=search",
	"arName":"22 ش الاسكندر الاكبر, الازاريطة, الاسكندرية",
	"lat":"31.204101999999999",
	"lng":"29.905912000000001",
	"enName":"22 El Iskandar El Akbar St., Azarita, Alexandria"
},
		{	"profileId":"396933",
	"profileURL":"//www.yellowpages.com.eg/en/profile/misr-life-insurance/396933?b=25&k=19446&l=search",
	"arName":"برج الشرطة -, شبرا الخيمة, القليوبية",
	"lat":"30.118539999999999",
	"lng":"31.243265999999998",
	"enName":"El Shorta Tower,, Shoubra el khaymah, Kaliobeya"
},
		{	"profileId":"146781",
	"profileURL":"//www.yellowpages.com.eg/en/profile/misr-life-insurance/146781?b=14&k=19446&l=search",
	"arName":"346 ش السودان - برج الشرطة - الدور 1, المهندسين, الجيزة",
	"lat":"30.070592000000001",
	"lng":"31.203561000000001",
	"enName":"346 Sudan St., El Shorta Tower, Floor 1, Mohandeseen, Giza"
},
		{	"profileId":"396936",
	"profileURL":"//www.yellowpages.com.eg/en/profile/misr-life-insurance/396936?b=53&k=19446&l=search",
	"arName":"6 ش الغرفة التجارية, المنشية, الاسكندرية",
	"lat":"31.199846000000001",
	"lng":"29.894940999999999",
	"enName":"6 El Ghorfa El Togareya St., El mansheya, Alexandria"
},
		{	"profileId":"397195",
	"profileURL":"//www.yellowpages.com.eg/en/profile/misr-life-insurance/397195?b=30&k=19446&l=search",
	"arName":"ش الجلاء, اخميم, سوهاج",
	"lat":"",
	"lng":"",
	"enName":"El Galaa St., Akhmeem, Sohag"
},
		{	"profileId":"397074",
	"profileURL":"//www.yellowpages.com.eg/en/profile/misr-life-insurance/397074?b=42&k=19446&l=search",
	"arName":"برج اللؤلؤة - ش لطيف سعد زغلول, بنها, القليوبية",
	"lat":"",
	"lng":"",
	"enName":"El Loualoaa Tower, Latif Saad Zaghloul St., Banha, Kaliobeya"
},
		{	"profileId":"377462",
	"profileURL":"//www.yellowpages.com.eg/en/profile/misr-life-insurance/377462?b=72&k=19446&l=search",
	"arName":"ش احمد عرابى, الوسطى, بنى سويف",
	"lat":"",
	"lng":"",
	"enName":"Ahmed Orabi St., El wastah, Benisuef"
},
		{	"profileId":"397351",
	"profileURL":"//www.yellowpages.com.eg/en/profile/misr-life-insurance/397351?b=83&k=19446&l=search",
	"arName":"ش احمد عرابى, ههيا, الشرقية",
	"lat":"30.672449",
	"lng":"31.591840999999999",
	"enName":"Ahmed Orabi St., Hehia, El sharkeya"
},
		{	"profileId":"397352",
	"profileURL":"//www.yellowpages.com.eg/en/profile/misr-life-insurance/397352?b=63&k=19446&l=search",
	"arName":"ش العروبة, مشتول السوق, الشرقية",
	"lat":"30.361286",
	"lng":"31.385552000000001",
	"enName":"El Orouba St., Mashtoul el souk, El sharkeya"
},
		{	"profileId":"531507",
	"profileURL":"//www.yellowpages.com.eg/en/profile/misr-life-insurance/531507?b=49&k=19446&l=search",
	"arName":"26 ش البطل احمد عبد العزيز, المهندسين, الجيزة",
	"lat":"30.052685",
	"lng":"31.206831000000001",
	"enName":"26 El Batal Ahmed Abdel Aziz St., Mohandeseen, Giza"
},
		{	"profileId":"397359",
	"profileURL":"//www.yellowpages.com.eg/en/profile/misr-life-insurance/397359?b=34&k=19446&l=search",
	"arName":"ِش البحر, اولاد صقر, الشرقية",
	"lat":"",
	"lng":"",
	"enName":"El Bahr St., Awlad saqr, El sharkeya"
},
		{	"profileId":"377448",
	"profileURL":"//www.yellowpages.com.eg/en/profile/misr-life-insurance/377448?b=71&k=19446&l=search",
	"arName":"ش المحطة, فارسكور, دمياط",
	"lat":"31.331457",
	"lng":"31.718057000000002",
	"enName":"E Mahatta St., Faraskour, Damietta"
},
		{	"profileId":"376357",
	"profileURL":"//www.yellowpages.com.eg/en/profile/misr-life-insurance/376357?b=36&k=19446&l=search",
	"arName":"87 التقسيم السياحى, القناطر الخيرية, القليوبية",
	"lat":"30.187824200000001",
	"lng":"31.139734499999999",
	"enName":"87 Touristic Division, El qanatir el khayriyah, Kaliobeya"
},
		{	"profileId":"397354",
	"profileURL":"//www.yellowpages.com.eg/en/profile/misr-life-insurance/397354?b=33&k=19446&l=search",
	"arName":"ش الجلاء, ابو حماد, الشرقية",
	"lat":"",
	"lng":"",
	"enName":"El Galaa St., Abou hammad, El sharkeya"
},
		{	"profileId":"376631",
	"profileURL":"//www.yellowpages.com.eg/en/profile/misr-life-insurance/376631?b=37&k=19446&l=search",
	"arName":"ش العاشر من رمضان, الحامول, كفر الشيخ",
	"lat":"31.3103965",
	"lng":"31.150721300000001",
	"enName":"10th Of Ramadan St., El hamoul, Kafr el sheikh"
},
		{	"profileId":"397079",
	"profileURL":"//www.yellowpages.com.eg/en/profile/misr-life-insurance/397079?b=43&k=19446&l=search",
	"arName":"عمارة حسين الجمل - ش المستشفى المركزى, الخانكة, القليوبية",
	"lat":"30.224281999999999",
	"lng":"31.361588999999999",
	"enName":"Hussein El Gamal Bldg., El Mostashfa El Markazy St., El khanka, Kaliobeya"
},
		{	"profileId":"397112",
	"profileURL":"//www.yellowpages.com.eg/en/profile/misr-life-insurance/397112?b=58&k=19446&l=search",
	"arName":"ش الجيش, قطور, الغربية",
	"lat":"30.970300999999999",
	"lng":"30.957235000000001",
	"enName":"El Guish St., Kutour, El gharbeya"
},
		{	"profileId":"396941",
	"profileURL":"//www.yellowpages.com.eg/en/profile/misr-life-insurance/396941?b=93&k=19446&l=search",
	"arName":"3 ش كنيسة دبانة متفرع من ش صلاح سالم, المنشية, الاسكندرية",
	"lat":"31.197635999999999",
	"lng":"29.900217000000001",
	"enName":"3 Kaniset Debbana St. Off Salah Salem St., El mansheya, Alexandria"
},
		{	"profileId":"570841",
	"profileURL":"//www.yellowpages.com.eg/en/profile/misr-life-insurance/570841?b=50&k=19446&l=search",
	"arName":"59 ش بورسعيد, منوف, المنوفية",
	"lat":"30.471710999999999",
	"lng":"30.939238",
	"enName":"59 Port Said St., Minuf, El monofeya"
},
		{	"profileId":"396943",
	"profileURL":"//www.yellowpages.com.eg/en/profile/misr-life-insurance/396943?b=54&k=19446&l=search",
	"arName":"17 ش صلاح سالم, العطارين, الاسكندرية",
	"lat":"31.196232999999999",
	"lng":"29.897414000000001",
	"enName":"17 Salah Salem St., El attarin, Alexandria"
},
		{	"profileId":"396948",
	"profileURL":"//www.yellowpages.com.eg/en/profile/misr-life-insurance/396948?b=55&k=19446&l=search",
	"arName":"ش اسكندرية, وسط البلد, مرسى مطروح",
	"lat":"31.355191999999999",
	"lng":"27.240220000000001",
	"enName":"Alexandria St., Downtown, Marsa matrouh"
},
		{	"profileId":"397085",
	"profileURL":"//www.yellowpages.com.eg/en/profile/misr-life-insurance/397085?b=56&k=19446&l=search",
	"arName":"ش السيسى متفرع من ش بورسعيد, الشهداء, المنوفية",
	"lat":"",
	"lng":"",
	"enName":"El Sisi St. Off Port Said St., El shohadaa, El monofeya"
},
		{	"profileId":"397086",
	"profileURL":"//www.yellowpages.com.eg/en/profile/misr-life-insurance/397086?b=44&k=19446&l=search",
	"arName":"ش التحرير, قليوب, القليوبية",
	"lat":"30.180185999999999",
	"lng":"31.209337000000001",
	"enName":"El Tahrir St., Qalyub, Kaliobeya"
},
		{	"profileId":"377451",
	"profileURL":"//www.yellowpages.com.eg/en/profile/misr-life-insurance/377451?b=38&k=19446&l=search",
	"arName":"10 ش مأمون الشناوى, الزرقا, دمياط",
	"lat":"31.210681999999998",
	"lng":"31.634118000000001",
	"enName":"10 Maamoun El Shennawy St., El zarka, Damietta"
},
		{	"profileId":"376702",
	"profileURL":"//www.yellowpages.com.eg/en/profile/misr-life-insurance/376702?b=22&k=19446&l=search",
	"arName":"ش النصر, ديرب نجم, الشرقية",
	"lat":"",
	"lng":"",
	"enName":"El Nasr St., Deyerb negm, El sharkeya"
},
		{	"profileId":"397446",
	"profileURL":"//www.yellowpages.com.eg/en/profile/misr-life-insurance/397446?b=64&k=19446&l=search",
	"arName":"ش 15 مايو, مسطرد, القليوبية",
	"lat":"30.135209",
	"lng":"31.272261",
	"enName":"15th Of May St., Mostorod, Kaliobeya"
},
		{	"profileId":"376426",
	"profileURL":"//www.yellowpages.com.eg/en/profile/misr-life-insurance/376426?b=68&k=19446&l=search",
	"arName":"ش الجيش تقاطع ش بورسعيد, قويسنا, المنوفية",
	"lat":"30.547843",
	"lng":"31.132238000000001",
	"enName":"El Guish St. Intersection Of Port Said St., Quwasnah, El monofeya"
},
		{	"profileId":"376305",
	"profileURL":"//www.yellowpages.com.eg/en/profile/misr-life-insurance/376305?b=76&k=19446&l=search",
	"arName":"95 برج السلسلة - طريق 26 يوليو, الازاريطة, الاسكندرية",
	"lat":"31.205836000000001",
	"lng":"29.905362",
	"enName":"95 El Selsela Tower, 26th Of July Rd., Azarita, Alexandria"
},
		{	"profileId":"397568",
	"profileURL":"//www.yellowpages.com.eg/en/profile/misr-life-insurance/397568?b=4&k=19446&l=search",
	"arName":"15 ش قصر النيل, وسط البلد, القاهرة",
	"lat":"30.047395000000002",
	"lng":"31.238220999999999",
	"enName":"15 Kasr El Nil St., Downtown, Cairo"
},
		{	"profileId":"397448",
	"profileURL":"//www.yellowpages.com.eg/en/profile/misr-life-insurance/397448?b=35&k=19446&l=search",
	"arName":"1 عمارة كوستيكا - ميدان التحرير, المنشية, الاسكندرية",
	"lat":"31.197673999999999",
	"lng":"29.890920999999999",
	"enName":"1 Costika Bldg., El Tahrir Sq., El mansheya, Alexandria"
},
		{	"profileId":"397166",
	"profileURL":"//www.yellowpages.com.eg/en/profile/misr-life-insurance/397166?b=80&k=19446&l=search",
	"arName":"42 ش الجيش, ابنوب, اسيوط",
	"lat":"27.182687000000001",
	"lng":"31.185476000000001",
	"enName":"42 El Guish St., Abnob, Assyout"
},
		{	"profileId":"377514",
	"profileURL":"//www.yellowpages.com.eg/en/profile/misr-life-insurance/377514?b=41&k=19446&l=search",
	"arName":"طريق النصر, قوص, قنا",
	"lat":"",
	"lng":"",
	"enName":"El Nasr Rd., Quos, Qena"
},
		{	"profileId":"377516",
	"profileURL":"//www.yellowpages.com.eg/en/profile/misr-life-insurance/377516?b=92&k=19446&l=search",
	"arName":"ميدان السيدة زينب, اسنا, الاقصر",
	"lat":"25.291577",
	"lng":"32.554957999999999",
	"enName":"El Sayeda Zeinab Sq., ESNA, Esna, Luxor"
},
		{	"profileId":"376671",
	"profileURL":"//www.yellowpages.com.eg/en/profile/misr-life-insurance/376671?b=89&k=19446&l=search",
	"arName":"ش بنك مصر تقاطع ش المحاكم, كفر صقر, الشرقية",
	"lat":"30.793769000000001",
	"lng":"31.629113",
	"enName":"Bank Misr St. Intersection Of El Mahakem St., Kafr sakr, El sharkeya"
},
		{	"profileId":"304462",
	"profileURL":"//www.yellowpages.com.eg/en/profile/misr-life-insurance/304462?b=24&k=19446&l=search",
	"arName":"26 ش الجيش, طنطا, الغربية",
	"lat":"30.7904436",
	"lng":"30.998935899999999",
	"enName":"26 El Guish St., Tanta, El gharbeya"
},
		{	"profileId":"397451",
	"profileURL":"//www.yellowpages.com.eg/en/profile/misr-life-insurance/397451?b=97&k=19446&l=search",
	"arName":"طريق الحرية, بلقاس, الدقهلية",
	"lat":"31.216297000000001",
	"lng":"31.360835999999999",
	"enName":"El Horreya Rd., Belqas, El dakahleya"
},
		{	"profileId":"397171",
	"profileURL":"//www.yellowpages.com.eg/en/profile/misr-life-insurance/397171?b=29&k=19446&l=search",
	"arName":"ش الجلاء, القوصية, اسيوط",
	"lat":"",
	"lng":"",
	"enName":"El Galaa St., El quseyah, Assyout"
},
		{	"profileId":"377506",
	"profileURL":"//www.yellowpages.com.eg/en/profile/misr-life-insurance/377506?b=73&k=19446&l=search",
	"arName":"عمارة د. محسن ناعوم - ش الجمهورية, ابو قرقاص, المنيا",
	"lat":"27.932579",
	"lng":"30.836724",
	"enName":"Dr. Mohsen Naaoum Bldg., El Gomhoureya St., Abou qurqas, El menia"
},
		{	"profileId":"396882",
	"profileURL":"//www.yellowpages.com.eg/en/profile/misr-life-insurance/396882?b=2&k=19446&l=search",
	"arName":"5 مساكن النيل - بلوك 3 - ش المرور, مدينة السلام, القاهرة",
	"lat":"",
	"lng":"",
	"enName":"5 Masaken El Nil, Block 3, El Morour St., El salam city, Cairo"
},
		{	"profileId":"397458",
	"profileURL":"//www.yellowpages.com.eg/en/profile/misr-life-insurance/397458?b=66&k=19446&l=search",
	"arName":"ش المحطة, نجع حمادى, قنا",
	"lat":"26.045774999999999",
	"lng":"32.242223000000003",
	"enName":"El Mahatta St., Nagaa hamady, Qena"
},
		{	"profileId":"397338",
	"profileURL":"//www.yellowpages.com.eg/en/profile/misr-life-insurance/397338?b=62&k=19446&l=search",
	"arName":"خدمة العملاء, طنطا, الغربية",
	"lat":"",
	"lng":"",
	"enName":"Customer Service, Tanta, El gharbeya"
},
		{	"profileId":"377509",
	"profileURL":"//www.yellowpages.com.eg/en/profile/misr-life-insurance/377509?b=91&k=19446&l=search",
	"arName":"ش مصطفى كامل, جرجا, سوهاج",
	"lat":"26.340691",
	"lng":"31.890115999999999",
	"enName":"Mostafa Kamel St., Gerga, Sohag"
},
		{	"profileId":"396887",
	"profileURL":"//www.yellowpages.com.eg/en/profile/misr-life-insurance/396887?b=3&k=19446&l=search",
	"arName":"59 ش رمسيس, وسط البلد, القاهرة",
	"lat":"30.053661000000002",
	"lng":"31.239236999999999",
	"enName":"59 Ramsis St., Downtown, Cairo"
},
		{	"profileId":"397331",
	"profileURL":"//www.yellowpages.com.eg/en/profile/misr-life-insurance/397331?b=96&k=19446&l=search",
	"arName":"برج الشرق - - الاعصر الاولى - الدور 2, دمياط, دمياط",
	"lat":"",
	"lng":"",
	"enName":"El Sharq Tower, , El Aasar El Oula, Floor 2, Damietta, Damietta"
},
		{	"profileId":"397453",
	"profileURL":"//www.yellowpages.com.eg/en/profile/misr-life-insurance/397453?b=65&k=19446&l=search",
	"arName":"ش الحرية, ابو تيج, اسيوط",
	"lat":"27.043790000000001",
	"lng":"31.316464",
	"enName":"El Horreya St., Abou tig, Assyout"
},
		{	"profileId":"397454",
	"profileURL":"//www.yellowpages.com.eg/en/profile/misr-life-insurance/397454?b=48&k=19446&l=search",
	"arName":"ش الجيش, طما, سوهاج",
	"lat":"26.904833",
	"lng":"31.435760999999999",
	"enName":"El Guish St., Tama, Sohag"
},
		{	"profileId":"376652",
	"profileURL":"//www.yellowpages.com.eg/en/profile/misr-life-insurance/376652?b=88&k=19446&l=search",
	"arName":"ش البحر, اجا, الدقهلية",
	"lat":"30.938428999999999",
	"lng":"31.291964",
	"enName":"El Bahr St., Aga, El dakahleya"
},
		{	"profileId":"396884",
	"profileURL":"//www.yellowpages.com.eg/en/profile/misr-life-insurance/396884?b=78&k=19446&l=search",
	"arName":"3 - مركز الحى الاول شقة 3, العاشر من رمضان, الشرقية",
	"lat":"",
	"lng":"",
	"enName":"3 , 1St District Center Flat 3, 10th of ramadan, El sharkeya"
},
		{	"profileId":"396889",
	"profileURL":"//www.yellowpages.com.eg/en/profile/misr-life-insurance/396889?b=11&k=19446&l=search",
	"arName":"21 ش 26 يوليو, وسط البلد, القاهرة",
	"lat":"30.052997000000001",
	"lng":"31.240905999999999",
	"enName":"21 26Th Of July St., Downtown, Cairo"
},
		{	"profileId":"396888",
	"profileURL":"//www.yellowpages.com.eg/en/profile/misr-life-insurance/396888?b=13&k=19446&l=search",
	"arName":"48 ش قصر النيل ميدان مصطفى كامل, وسط البلد, القاهرة",
	"lat":"30.049548999999999",
	"lng":"31.244824000000001",
	"enName":"48 Kasr El Nil St. Mostafa Kamel Sq., Downtown, Cairo"
},
		{	"profileId":"377502",
	"profileURL":"//www.yellowpages.com.eg/en/profile/misr-life-insurance/377502?b=40&k=19446&l=search",
	"arName":"32 ش الجيش, اسيوط, اسيوط",
	"lat":"27.182565700000001",
	"lng":"31.185373500000001",
	"enName":"32 El Guish St., Assyout, Assyout"
},
		{	"profileId":"376417",
	"profileURL":"//www.yellowpages.com.eg/en/profile/misr-life-insurance/376417?b=86&k=19446&l=search",
	"arName":"ش كمال الشاذلى - ش الجيش سابقا ميدان الباجور, الباجور, المنوفية",
	"lat":"30.432801000000001",
	"lng":"31.036246999999999",
	"enName":"Kamal El Shazly St. - El Guish St. Previously El Bagour Sq., El bagour, El monofeya"
},
		{	"profileId":"397180",
	"profileURL":"//www.yellowpages.com.eg/en/profile/misr-life-insurance/397180?b=81&k=19446&l=search",
	"arName":"16 ش الجلاء, ملوى, المنيا",
	"lat":"27.736215999999999",
	"lng":"30.845663999999999",
	"enName":"16 El Galaa St., Mallawi, El menia"
}
	]
}]}