{"items":[{	"arName":"جمعية رسالة للاعمال الخيرية",
	"enName":"Resala Charity Organization",
	"hotline":"19450",
	"facebook":"http://www.facebook.com/Resala.org",
	"web":"http://www.resala.org/",
	"arCategory":[
		"منظمات وجمعيات خيرية وتنموية وخدمات اجتماعية ومنظمات لا ربحية"
	],
	"enCategories":[
		"Charitable, Non-profit & Social Services & Development Organizations"
	],
	"contacts":[
		{	"profileId":"535198",
	"profileURL":"//www.yellowpages.com.eg/en/profile/resala-charity-organization/535198?b=14&k=19450&l=search",
	"arName":"ش القليوبية, قنطرة غرب, الاسماعيلية",
	"lat":"",
	"lng":"",
	"enName":"El Qalioubeya St., EL QANTARAH GHARB, Qantarah gharb, Ismaileya"
},
		{	"profileId":"432278",
	"profileURL":"//www.yellowpages.com.eg/en/profile/resala-charity-organization/432278?b=26&k=19450&l=search",
	"arName":"1 ش الفلكى, طوخ, القليوبية",
	"lat":"30.358971",
	"lng":"31.202631",
	"enName":"1 El Falaky St., Tukh, Kaliobeya"
},
		{	"profileId":"432234",
	"profileURL":"//www.yellowpages.com.eg/en/profile/resala-charity-organization/432234?b=33&k=19450&l=search",
	"arName":"ش مسجد التوحيد تقسيم العطار, بلقاس, الدقهلية",
	"lat":"31.218208000000001",
	"lng":"31.359791999999999",
	"enName":"Masged El Tawhid St. El Attar Division, Belqas, El dakahleya"
},
		{	"profileId":"572219",
	"profileURL":"//www.yellowpages.com.eg/en/profile/resala-charity-organization/572219?b=29&k=19450&l=search",
	"arName":"ش زاهر جلال, وسط البلد, مرسى مطروح",
	"lat":"",
	"lng":"",
	"enName":"Zaher Galal St., Downtown, Marsa matrouh"
},
		{	"profileId":"432219",
	"profileURL":"//www.yellowpages.com.eg/en/profile/resala-charity-organization/432219?b=42&k=19450&l=search",
	"arName":"ش سعد زغلول - عمارة د. مصطفى حزين - الدور 2, وسط البلد, اسوان",
	"lat":"24.085277000000001",
	"lng":"32.893909000000001",
	"enName":"Saad Zaghloul St., Dr. Mosatafa Hozayen Bldg., Floor 2, Downtown, Aswan"
},
		{	"profileId":"572238",
	"profileURL":"//www.yellowpages.com.eg/en/profile/resala-charity-organization/572238?b=30&k=19450&l=search",
	"arName":"الوادى, رأس غارب, البحر الاحمر",
	"lat":"",
	"lng":"",
	"enName":"El Wadi, RAS GHAREB, Ras ghareb, Red sea"
},
		{	"profileId":"446463",
	"profileURL":"//www.yellowpages.com.eg/en/profile/resala-charity-organization/446463?b=37&k=19450&l=search",
	"arName":"3 ش صلاح سالم امتداد ش بورسعيد, قويسنا, المنوفية",
	"lat":"30.548634499999999",
	"lng":"31.131879600000001",
	"enName":"3 Salah Salem St. Extension Of Port Said St., Quwasnah, El monofeya"
},
		{	"profileId":"447533",
	"profileURL":"//www.yellowpages.com.eg/en/profile/resala-charity-organization/447533?b=15&k=19450&l=search",
	"arName":"ش الرحمن متفرع من ش احمد ماهر, المنصورة, الدقهلية",
	"lat":"31.032803000000001",
	"lng":"31.361981",
	"enName":"El Rahman St. Off Ahmed Maher St., El mansoura, El dakahleya"
},
		{	"profileId":"446521",
	"profileURL":"//www.yellowpages.com.eg/en/profile/resala-charity-organization/446521?b=38&k=19450&l=search",
	"arName":"ش الجيش - عمارة احمد طلبة - الدور 3, الصف, الجيزة",
	"lat":"29.574497000000001",
	"lng":"31.285762999999999",
	"enName":"El Guish St., Ahmed Tolba Bldg., Floor 3, El saff, Giza"
},
		{	"profileId":"143073",
	"profileURL":"//www.yellowpages.com.eg/en/profile/resala-charity-organization/143073?b=2&k=19450&l=search",
	"arName":"3 ش زكى رستم متفرع من ش محمد حسنين هيكل, المنطقة السادسة, مدينة نصر, القاهرة",
	"lat":"30.060798999999999",
	"lng":"31.339062999999999",
	"enName":"3 Zaky Rostom St. Off Mohamed Hassanein Heikal St., 6th Zone, Nasr city, Cairo"
},
		{	"profileId":"129240",
	"profileURL":"//www.yellowpages.com.eg/en/profile/resala-charity-organization/129240?b=12&k=19450&l=search",
	"arName":"13 ش الحرية - برج القدس - الدور 1 شقة 2, 4, الملاحة, السويس",
	"lat":"29.965198699999998",
	"lng":"32.549539699999997",
	"enName":"13 El Horreya St., El Qods Tower, Floor 1 Flat 2, 4, El malaha, Suez"
},
		{	"profileId":"99058",
	"profileURL":"//www.yellowpages.com.eg/en/profile/resala-charity-organization/99058?b=19&k=19450&l=search",
	"arName":"44 ش توت عنخ امون, سموحة, الاسكندرية",
	"lat":"31.214872",
	"lng":"29.938723",
	"enName":"44 Tut Ankh Amoun St., Semouha, Alexandria"
},
		{	"profileId":"143074",
	"profileURL":"//www.yellowpages.com.eg/en/profile/resala-charity-organization/143074?b=3&k=19450&l=search",
	"arName":"16 أ ش يوسف زكى, حلوان, القاهرة",
	"lat":"29.846492999999999",
	"lng":"31.340253000000001",
	"enName":"16 A Youssef Zaky St., Helwan, Cairo"
},
		{	"profileId":"467026",
	"profileURL":"//www.yellowpages.com.eg/en/profile/resala-charity-organization/467026?b=48&k=19450&l=search",
	"arName":"المجاورة الثالثة - مركز الحى الاول, العاشر من رمضان, الشرقية",
	"lat":"30.291848999999999",
	"lng":"31.741268000000002",
	"enName":"3rd Neighbourhood, 1St District Center, 10th of ramadan, El sharkeya"
},
		{	"profileId":"544056",
	"profileURL":"//www.yellowpages.com.eg/en/profile/resala-charity-organization/544056?b=11&k=19450&l=search",
	"arName":"ش النصر, الدهار, الغردقة",
	"lat":"27.238600000000002",
	"lng":"33.831228000000003",
	"enName":"El Nasr St., Dahar, Hurghada"
},
		{	"profileId":"432282",
	"profileURL":"//www.yellowpages.com.eg/en/profile/resala-charity-organization/432282?b=10&k=19450&l=search",
	"arName":"1 ش السينما القديمة متفرع من ش سعد زغلول, الحوامدية, الجيزة",
	"lat":"29.893550000000001",
	"lng":"31.263756000000001",
	"enName":"1 El Cinema El Qadima St. Off Saad Zaghloul St., El hawamdeya, Giza"
},
		{	"profileId":"172581",
	"profileURL":"//www.yellowpages.com.eg/en/profile/resala-charity-organization/172581?b=20&k=19450&l=search",
	"arName":"قرية الغار, الزقازيق, الشرقية",
	"lat":"30.560931",
	"lng":"31.537258999999999",
	"enName":"El Ghar Village, El zagazig, El sharkeya"
},
		{	"profileId":"432461",
	"profileURL":"//www.yellowpages.com.eg/en/profile/resala-charity-organization/432461?b=45&k=19450&l=search",
	"arName":"ميدان ماجدة, الحى السابع, السادس من اكتوبر, الجيزة",
	"lat":"29.976051999999999",
	"lng":"30.942541200000001",
	"enName":"Magda Sq., 7th District, 6th of october, Giza"
},
		{	"profileId":"329920",
	"profileURL":"//www.yellowpages.com.eg/en/profile/resala-charity-organization/329920?b=24&k=19450&l=search",
	"arName":"ش التحرير, ابو كبير, الشرقية",
	"lat":"30.726085000000001",
	"lng":"31.670748",
	"enName":"El Tahrir St., Abou kebeir, El sharkeya"
},
		{	"profileId":"432269",
	"profileURL":"//www.yellowpages.com.eg/en/profile/resala-charity-organization/432269?b=43&k=19450&l=search",
	"arName":"5 ش الحجاز - منشية المصرى, مغاغة, المنيا",
	"lat":"28.650500999999998",
	"lng":"30.842738000000001",
	"enName":"5 El Hegaz St., Mansheyet El Masry, Magaghah, El menia"
},
		{	"profileId":"89384",
	"profileURL":"//www.yellowpages.com.eg/en/profile/resala-charity-organization/89384?b=1&k=19450&l=search",
	"arName":"5 ش منسى ياسين, الطوابق, فيصل, الجيزة",
	"lat":"29.997887500000001",
	"lng":"31.159741100000002",
	"enName":"5 Mansy Yassin St., El Tawabeq, Faisal, Giza"
},
		{	"profileId":"432301",
	"profileURL":"//www.yellowpages.com.eg/en/profile/resala-charity-organization/432301?b=16&k=19450&l=search",
	"arName":"ش عبد الحليم محمود متفرع من ش الجمهورية, سوهاج, سوهاج",
	"lat":"26.569582",
	"lng":"31.694220999999999",
	"enName":"Abdel Halim Mahmoud St. Off El Gomhoureya St., Sohag, Sohag"
},
		{	"profileId":"129234",
	"profileURL":"//www.yellowpages.com.eg/en/profile/resala-charity-organization/129234?b=21&k=19450&l=search",
	"arName":"2 ش عثمان الصاوى متفرع من ش النبوى المهندس, المسلة, الفيوم",
	"lat":"29.314209000000002",
	"lng":"30.854572000000001",
	"enName":"2 Othman El Sawy St. Off El Nabawy El Mohandes St., El massalah, El fayoum"
},
		{	"profileId":"432246",
	"profileURL":"//www.yellowpages.com.eg/en/profile/resala-charity-organization/432246?b=34&k=19450&l=search",
	"arName":"29 ش محمد فريد - برج المودة - الدور 2, زفتى, الغربية",
	"lat":"30.722491999999999",
	"lng":"31.243706",
	"enName":"29 Mohamed Farid St., El Mawadda Tower, Floor 2, Zefta, El gharbeya"
},
		{	"profileId":"511851",
	"profileURL":"//www.yellowpages.com.eg/en/profile/resala-charity-organization/511851?b=28&k=19450&l=search",
	"arName":"ش الحلو تقاطع ش حسن رضوان - برج جوهرة الحلو, طنطا, الغربية",
	"lat":"30.791998",
	"lng":"31.004089",
	"enName":"El Helw St. Intersection Of Hassan Radwan St., Gawharet El Helw Tower, Tanta, El gharbeya"
},
		{	"profileId":"432469",
	"profileURL":"//www.yellowpages.com.eg/en/profile/resala-charity-organization/432469?b=17&k=19450&l=search",
	"arName":"ش فريد متفرع من ش مقبل, مقبل, بنى سويف",
	"lat":"29.077798999999999",
	"lng":"31.103362000000001",
	"enName":"Farid St. Off Moqbel St., Mokbel, Benisuef"
},
		{	"profileId":"298439",
	"profileURL":"//www.yellowpages.com.eg/en/profile/resala-charity-organization/298439?b=31&k=19450&l=search",
	"arName":"21 طريق القاهرة اسكندرية الزراعى, شبرا الخيمة, القليوبية",
	"lat":"30.112809500000001",
	"lng":"31.249314900000002",
	"enName":"21 Cairo Alex Agricultural Rd., Shoubra el khaymah, Kaliobeya"
},
		{	"profileId":"369344",
	"profileURL":"//www.yellowpages.com.eg/en/profile/resala-charity-organization/369344?b=22&k=19450&l=search",
	"arName":"11 ش مصدق, الدقى, الجيزة",
	"lat":"30.040338999999999",
	"lng":"31.208617",
	"enName":"11 Mossadak St., Dokki, Giza"
},
		{	"profileId":"343691",
	"profileURL":"//www.yellowpages.com.eg/en/profile/resala-charity-organization/343691?b=25&k=19450&l=search",
	"arName":"ش عبد العال متفرع من ش المركز, دسوق, كفر الشيخ",
	"lat":"31.1324328",
	"lng":"30.644842199999999",
	"enName":"Abdel Aal St. Off El Markaz St., Disuq, Kafr el sheikh"
},
		{	"profileId":"66426",
	"profileURL":"//www.yellowpages.com.eg/en/profile/resala-charity-organization/66426?b=5&k=19450&l=search",
	"arName":"8 /3د تقسيم اللاسلكى, المعادى الجديدة, المعادى, القاهرة",
	"lat":"29.974542",
	"lng":"31.282031",
	"enName":"8 /3D El Laselky Division, New Maadi, Maadi, Cairo"
},
		{	"profileId":"441358",
	"profileURL":"//www.yellowpages.com.eg/en/profile/resala-charity-organization/441358?b=8&k=19450&l=search",
	"arName":"ش الثورة - عمارة د. طلعت مطاوع - الدور 3, بلقاس, الدقهلية",
	"lat":"31.209388000000001",
	"lng":"31.356712999999999",
	"enName":"El Thawra St., Dr. Talaat Motawea Bldg., Floor 3, Belqas, El dakahleya"
},
		{	"profileId":"186027",
	"profileURL":"//www.yellowpages.com.eg/en/profile/resala-charity-organization/186027?b=41&k=19450&l=search",
	"arName":"4 ش النادى الرياضى تقسيم ابو عياد, بنها, القليوبية",
	"lat":"30.466514",
	"lng":"31.180323000000001",
	"enName":"4 El Nady El Riady St. Abou Ayyad Division, Banha, Kaliobeya"
},
		{	"profileId":"298651",
	"profileURL":"//www.yellowpages.com.eg/en/profile/resala-charity-organization/298651?b=23&k=19450&l=search",
	"arName":"ش الجلاء البحرى, شبين الكوم, المنوفية",
	"lat":"30.561738999999999",
	"lng":"31.007735",
	"enName":"El Galaa El Bahary St., SHIBIN EL KAWM, Shebein el kawm, El monofeya"
},
		{	"profileId":"99360",
	"profileURL":"//www.yellowpages.com.eg/en/profile/resala-charity-organization/99360?b=39&k=19450&l=search",
	"arName":"45 ش مجمع المصالح الحكومية متفرع من ش المحافظة, الزقازيق, الشرقية",
	"lat":"30.586255000000001",
	"lng":"31.496798999999999",
	"enName":"45 Mogamaa El Masaleh El Hokoumeya St. Off El Mohafza St., El zagazig, El sharkeya"
},
		{	"profileId":"172559",
	"profileURL":"//www.yellowpages.com.eg/en/profile/resala-charity-organization/172559?b=13&k=19450&l=search",
	"arName":"امتداد ش فلسطين, بيلا, كفر الشيخ",
	"lat":"31.1715251",
	"lng":"31.218958600000001",
	"enName":"Extension Of Palestine St., Beilla, Kafr el sheikh"
},
		{	"profileId":"359488",
	"profileURL":"//www.yellowpages.com.eg/en/profile/resala-charity-organization/359488?b=32&k=19450&l=search",
	"arName":"ش احمد عرابى, ههيا, الشرقية",
	"lat":"30.673027999999999",
	"lng":"31.587852999999999",
	"enName":"Ahmed Orabi St., Hehia, El sharkeya"
},
		{	"profileId":"447535",
	"profileURL":"//www.yellowpages.com.eg/en/profile/resala-charity-organization/447535?b=47&k=19450&l=search",
	"arName":"فيلا 15 - - الهلال, الدهار, الغردقة",
	"lat":"27.263776",
	"lng":"33.802872000000001",
	"enName":"Villa 15, , El Helal, Dahar, Hurghada"
},
		{	"profileId":"172539",
	"profileURL":"//www.yellowpages.com.eg/en/profile/resala-charity-organization/172539?b=6&k=19450&l=search",
	"arName":"خدمة العملاء, المهندسين, الجيزة",
	"lat":"",
	"lng":"",
	"enName":"Customer Service, Mohandeseen, Giza"
},
		{	"profileId":"447539",
	"profileURL":"//www.yellowpages.com.eg/en/profile/resala-charity-organization/447539?b=9&k=19450&l=search",
	"arName":"ش بورسعيد, كوم امبو, اسوان",
	"lat":"24.476945000000001",
	"lng":"32.948084000000001",
	"enName":"Port Said St., Kom ombo, Aswan"
},
		{	"profileId":"432470",
	"profileURL":"//www.yellowpages.com.eg/en/profile/resala-charity-organization/432470?b=27&k=19450&l=search",
	"arName":"ش التكوين المهنى متفرع من ش التليفزيون, الاقصر, الاقصر",
	"lat":"25.690028000000002",
	"lng":"32.638840999999999",
	"enName":"El Takween El Mehany St. Off Television St., LUXOR, Luxor, Luxor"
},
		{	"profileId":"432471",
	"profileURL":"//www.yellowpages.com.eg/en/profile/resala-charity-organization/432471?b=18&k=19450&l=search",
	"arName":"ش فندق المصطفى متفرع من ش التليفزيون, الاقصر, الاقصر",
	"lat":"25.690906999999999",
	"lng":"32.639353999999997",
	"enName":"Fondoq El Mostafa St. Off Television St., LUXOR, Luxor, Luxor"
},
		{	"profileId":"432493",
	"profileURL":"//www.yellowpages.com.eg/en/profile/resala-charity-organization/432493?b=36&k=19450&l=search",
	"arName":"ش منير واصف, ارمنت, الاقصر",
	"lat":"25.605422000000001",
	"lng":"32.508260999999997",
	"enName":"Monir Wasef St., Arment, Luxor"
},
		{	"profileId":"129229",
	"profileURL":"//www.yellowpages.com.eg/en/profile/resala-charity-organization/129229?b=40&k=19450&l=search",
	"arName":"33 ش الجلاء امتداد ش المعهد الدينى - التقسيم السياحى, القناطر الخيرية, القليوبية",
	"lat":"30.1875803",
	"lng":"31.142603099999999",
	"enName":"33 El Galaa St. Extension Of El Maahad El Diny St., Touristic Division, El qanatir el khayriyah, Kaliobeya"
},
		{	"profileId":"432276",
	"profileURL":"//www.yellowpages.com.eg/en/profile/resala-charity-organization/432276?b=44&k=19450&l=search",
	"arName":"31 ش الشعراوى - عمارة خالد بن الوليد - الدور 1 شقة 3, بور فؤاد, بور سعيد",
	"lat":"31.269888000000002",
	"lng":"32.285575999999999",
	"enName":"31 El Shaarawy St., Khaled Ibn El Walid Bldg., Floor 1 Flat 3, Port fouad, Port said"
},
		{	"profileId":"511847",
	"profileURL":"//www.yellowpages.com.eg/en/profile/resala-charity-organization/511847?b=46&k=19450&l=search",
	"arName":"تقسيم جورجينا, اجا, الدقهلية",
	"lat":"30.938949000000001",
	"lng":"31.298342999999999",
	"enName":"Georgina Division, Aga, El dakahleya"
},
		{	"profileId":"109616",
	"profileURL":"//www.yellowpages.com.eg/en/profile/resala-charity-organization/109616?b=4&k=19450&l=search",
	"arName":"9 ش احمد عبد الخالق متفرع من ش الحجاز, ميدان الحجاز, مصر الجديدة, القاهرة",
	"lat":"30.115100000000002",
	"lng":"31.349599999999999",
	"enName":"9 Ahmed Abdel Khaleq St. Off El Hegaz St., Hegaz Square, Heliopolis, Cairo"
},
		{	"profileId":"89386",
	"profileURL":"//www.yellowpages.com.eg/en/profile/resala-charity-organization/89386?b=7&k=19450&l=search",
	"arName":"24 ش المدينة المنورة متفرع من ش محيى الدين ابو العز, المهندسين, الجيزة",
	"lat":"30.0471",
	"lng":"31.197900000000001",
	"enName":"24 El Madina El Monawara St. Off Mohy El Din Abou El Ezz St., Mohandeseen, Giza"
},
		{	"profileId":"432330",
	"profileURL":"//www.yellowpages.com.eg/en/profile/resala-charity-organization/432330?b=35&k=19450&l=search",
	"arName":"6 ش السادات متفرع من ش ابو دهشان, فاقوس, الشرقية",
	"lat":"30.732627999999998",
	"lng":"31.794739",
	"enName":"6 El Sadat St. Off Abou Dahshan St., Faqus, El sharkeya"
}
	]
}]}