{"items":[{	"arName":"كوكى شوب",
	"enName":"Koki Shop",
	"hotline":"19585",
	"facebook":"http://www.facebook.com/KokiShop",
	"web":"http://www.koki-americana.com/",
	"arCategory":[
		"دواجن مزارع ومعدات"
	],
	"enCategories":[
		"Poultry Industry"
	],
	"contacts":[
		{	"profileId":"221848",
	"profileURL":"//www.yellowpages.com.eg/en/profile/koki-shop/221848?b=9&k=19585&l=search",
	"arName":"30 ش السودان, الدقى, الجيزة",
	"lat":"30.038145",
	"lng":"31.196300999999998",
	"enName":"30 Sudan St., Dokki, Giza"
},
		{	"profileId":"221834",
	"profileURL":"//www.yellowpages.com.eg/en/profile/koki-shop/221834?b=4&k=19585&l=search",
	"arName":"19 ش ادريس راغب, الظاهر, القاهرة",
	"lat":"30.065332000000001",
	"lng":"31.260480000000001",
	"enName":"19 Edris Ragheb St., El zaher, Cairo"
},
		{	"profileId":"461817",
	"profileURL":"//www.yellowpages.com.eg/en/profile/koki-shop/461817?b=2&k=19585&l=search",
	"arName":"283 ممر الشانزليزيه - - السوق التجارى, مدينة الرحاب, القاهرة",
	"lat":"30.056260999999999",
	"lng":"31.491827099999998",
	"enName":"283 Champs Elysees Passage, , Commercial Market, Al rehab city, Cairo"
},
		{	"profileId":"221861",
	"profileURL":"//www.yellowpages.com.eg/en/profile/koki-shop/221861?b=3&k=19585&l=search",
	"arName":"8 ش احمد خشبة, ميدان الحجاز, مصر الجديدة, القاهرة",
	"lat":"30.109893",
	"lng":"31.345732000000002",
	"enName":"8 Ahmed Khashaba St., Hegaz Square, Heliopolis, Cairo"
},
		{	"profileId":"221883",
	"profileURL":"//www.yellowpages.com.eg/en/profile/koki-shop/221883?b=5&k=19585&l=search",
	"arName":"105 ش محمد فريد, عابدين, القاهرة",
	"lat":"30.043132",
	"lng":"31.244063000000001",
	"enName":"105 Mohamed Farid St., Abdin, Cairo"
},
		{	"profileId":"187090",
	"profileURL":"//www.yellowpages.com.eg/en/profile/koki-shop/187090?b=6&k=19585&l=search",
	"arName":"خدمة توصيل الطلبات للمنازل, الجيزة, الجيزة",
	"lat":"",
	"lng":"",
	"enName":"Home Delivery, Giza, Giza"
},
		{	"profileId":"221882",
	"profileURL":"//www.yellowpages.com.eg/en/profile/koki-shop/221882?b=7&k=19585&l=search",
	"arName":"المحور الخدمى, الحى الثالث, السادس من اكتوبر, الجيزة",
	"lat":"29.963673",
	"lng":"30.930847",
	"enName":"Service Spine, 3rd District, 6th of october, Giza"
},
		{	"profileId":"167151",
	"profileURL":"//www.yellowpages.com.eg/en/profile/koki-shop/167151?b=8&k=19585&l=search",
	"arName":"5 ش على جمال الدين متفرع من ش الهرم, الهرم, الجيزة",
	"lat":"30.008965",
	"lng":"31.201601",
	"enName":"5 Aly Gamal El Din St. Off Haram St., El haram, Giza"
},
		{	"profileId":"284144",
	"profileURL":"//www.yellowpages.com.eg/en/profile/koki-shop/284144?b=10&k=19585&l=search",
	"arName":"1 ش محجوب ثابت, العجوزة, الجيزة",
	"lat":"30.052116999999999",
	"lng":"31.212254000000001",
	"enName":"1 Mahgoub Thabet St., Agouza, Giza"
},
		{	"profileId":"67629",
	"profileURL":"//www.yellowpages.com.eg/en/profile/koki-shop/67629?b=1&k=19585&l=search",
	"arName":"4 ش 151 ميدان الحرية, المعادى, القاهرة",
	"lat":"29.959994999999999",
	"lng":"31.251538",
	"enName":"4 Rd. 151 El Horreya Sq., Maadi, Cairo"
},
		{	"profileId":"221864",
	"profileURL":"//www.yellowpages.com.eg/en/profile/koki-shop/221864?b=11&k=19585&l=search",
	"arName":"34 ش العشرين, فيصل, الجيزة",
	"lat":"30.012404",
	"lng":"31.185534000000001",
	"enName":"34 El Eshreen St., Faisal, Giza"
}
	]
}]}