{"items":[{	"arName":"كازيون",
	"enName":"Kazyon",
	"hotline":"19609",
	"facebook":"http://www.facebook.com/Kazyon-646619042108922",
	"web":"http://www.kazyon.com/",
	"arCategory":[
		"سوبر ماركت"
	],
	"enCategories":[
		"Supermarkets"
	],
	"contacts":[
		{	"profileId":"486937",
	"profileURL":"//www.yellowpages.com.eg/en/profile/kazyon/486937?b=44&k=19609&l=search",
	"arName":"258 ش ترعة الجبل, الزيتون, القاهرة",
	"lat":"30.1052",
	"lng":"31.306899999999999",
	"enName":"258 Teraet El Gabal St., El zaytoun, Cairo"
},
		{	"profileId":"489409",
	"profileURL":"//www.yellowpages.com.eg/en/profile/kazyon/489409?b=7&k=19609&l=search",
	"arName":"بلوك 11 - - عمارة 3 - حى الواحة, مدينة نصر, القاهرة",
	"lat":"30.039014999999999",
	"lng":"31.372655999999999",
	"enName":"Block 11, , Bldg. 3, El Waha District, Nasr city, Cairo"
},
		{	"profileId":"488711",
	"profileURL":"//www.yellowpages.com.eg/en/profile/kazyon/488711?b=5&k=19609&l=search",
	"arName":"346 ش ترعة الجبل - برج الايمان, حلمية الزيتون, القاهرة",
	"lat":"30.114100000000001",
	"lng":"31.3124",
	"enName":"346 Teraet El Gabal St., El Eman Tower, Helmeyet el zaitoun, Cairo"
},
		{	"profileId":"489404",
	"profileURL":"//www.yellowpages.com.eg/en/profile/kazyon/489404?b=6&k=19609&l=search",
	"arName":"القطعة 21 - بلوك 28 - ش احمد الزمر, الحى التاسع, مدينة نصر, القاهرة",
	"lat":"30.047560000000001",
	"lng":"31.362416",
	"enName":"Plot 21, Block 28, Ahmed El Zomor St., 9th District, Nasr city, Cairo"
},
		{	"profileId":"489921",
	"profileURL":"//www.yellowpages.com.eg/en/profile/kazyon/489921?b=102&k=19609&l=search",
	"arName":"خدمة العملاء, المهندسين, الجيزة",
	"lat":"",
	"lng":"",
	"enName":"Customer Service, Mohandeseen, Giza"
},
		{	"profileId":"525824",
	"profileURL":"//www.yellowpages.com.eg/en/profile/kazyon/525824?b=130&k=19609&l=search",
	"arName":"ش بورسعيد, بنى مزار, المنيا",
	"lat":"28.496079000000002",
	"lng":"30.802230999999999",
	"enName":"Port Said St., Bani mazar, El menia"
},
		{	"profileId":"486896",
	"profileURL":"//www.yellowpages.com.eg/en/profile/kazyon/486896?b=13&k=19609&l=search",
	"arName":"51 ش نصوح متفرع من ش طومانباى, الزيتون, القاهرة",
	"lat":"30.102406999999999",
	"lng":"31.317145",
	"enName":"51 Nasouh St. Off Tomanbay St., El zaytoun, Cairo"
},
		{	"profileId":"488715",
	"profileURL":"//www.yellowpages.com.eg/en/profile/kazyon/488715?b=78&k=19609&l=search",
	"arName":"ش طلعت حرب - برج الفسطاط, شبين الكوم, المنوفية",
	"lat":"30.560680999999999",
	"lng":"31.006519000000001",
	"enName":"Talaat Harb St., El Fostat Tower, SHIBIN EL KAWM, Shebein el kawm, El monofeya"
},
		{	"profileId":"489649",
	"profileURL":"//www.yellowpages.com.eg/en/profile/kazyon/489649?b=58&k=19609&l=search",
	"arName":"6 ش الهنيدى متفرع من ش الهرم, الهرم, الجيزة",
	"lat":"30.002800000000001",
	"lng":"31.187000000000001",
	"enName":"6 El Henaidy St. Off Haram St., El haram, Giza"
},
		{	"profileId":"486930",
	"profileURL":"//www.yellowpages.com.eg/en/profile/kazyon/486930?b=14&k=19609&l=search",
	"arName":"7 ش محمد مهدى عرفة, الحى العاشر, مدينة نصر, القاهرة",
	"lat":"30.047393",
	"lng":"31.378729",
	"enName":"7 Mohamed Mahdy Arafa St., 10th District, Nasr city, Cairo"
},
		{	"profileId":"489647",
	"profileURL":"//www.yellowpages.com.eg/en/profile/kazyon/489647?b=101&k=19609&l=search",
	"arName":"2 ش بشرى ميخائيل متفرع من ش الاقصر - المنيرة الغربية, امبابة, الجيزة",
	"lat":"30.081469999999999",
	"lng":"31.195598",
	"enName":"2 Boshra Micheal St. Off Luxor St., El Monira El Gharbeya, Imbaba, Giza"
},
		{	"profileId":"486898",
	"profileURL":"//www.yellowpages.com.eg/en/profile/kazyon/486898?b=129&k=19609&l=search",
	"arName":"القطعة 21 - اسكان الشباب - ميدان الصورة, مدينة العبور, القليوبية",
	"lat":"30.266777000000001",
	"lng":"31.477868999999998",
	"enName":"Plot 21, Youth Housing, El Soura Sq., Obour city, Kaliobeya"
},
		{	"profileId":"485051",
	"profileURL":"//www.yellowpages.com.eg/en/profile/kazyon/485051?b=22&k=19609&l=search",
	"arName":"16 ش مصطفى حافظ, عزبة النخل, القاهرة",
	"lat":"30.138832000000001",
	"lng":"31.325330999999998",
	"enName":"16 Mostafa Hafez St., Ezbet el nakhl, Cairo"
},
		{	"profileId":"495648",
	"profileURL":"//www.yellowpages.com.eg/en/profile/kazyon/495648?b=107&k=19609&l=search",
	"arName":"القطعة الاولى - بلوك أ - المجاورة الاولى, الفردوس, السادس من اكتوبر, الجيزة",
	"lat":"",
	"lng":"",
	"enName":"1St Plot, Block A, 1St Neighbourhood, El Fardous, 6th of october, Giza"
},
		{	"profileId":"495649",
	"profileURL":"//www.yellowpages.com.eg/en/profile/kazyon/495649?b=24&k=19609&l=search",
	"arName":"414 ش ترعة الجبل, المطرية, القاهرة",
	"lat":"30.1221",
	"lng":"31.314",
	"enName":"414 Teraet El Gabal St., El matareya, Cairo"
},
		{	"profileId":"492252",
	"profileURL":"//www.yellowpages.com.eg/en/profile/kazyon/492252?b=120&k=19609&l=search",
	"arName":"84 ش النزهة - برج حامد احسان, الحوامدية, الجيزة",
	"lat":"29.896097000000001",
	"lng":"31.269425999999999",
	"enName":"84 El Nozha St., Hamed Ihsan Tower, El hawamdeya, Giza"
},
		{	"profileId":"525832",
	"profileURL":"//www.yellowpages.com.eg/en/profile/kazyon/525832?b=113&k=19609&l=search",
	"arName":"ش المسجد النبوى تقسيم عبد المنعم الجبالى, ملوى, المنيا",
	"lat":"27.732081999999998",
	"lng":"30.847072000000001",
	"enName":"El Masged El Nabawy St. Abdel Moneim El Gebaly Division, Mallawi, El menia"
},
		{	"profileId":"562182",
	"profileURL":"//www.yellowpages.com.eg/en/profile/kazyon/562182?b=123&k=19609&l=search",
	"arName":"برج المروة - التل, الوراق, الجيزة",
	"lat":"",
	"lng":"",
	"enName":"El Marwa Tower, El Tall, El warak, Giza"
},
		{	"profileId":"509065",
	"profileURL":"//www.yellowpages.com.eg/en/profile/kazyon/509065?b=93&k=19609&l=search",
	"arName":"ش بطل السلام - حى الحواتم, وسط البلد, الفيوم",
	"lat":"29.30463",
	"lng":"30.844175",
	"enName":"Batal El Salam St., El Hawatem District, Downtown, El fayoum"
},
		{	"profileId":"475358",
	"profileURL":"//www.yellowpages.com.eg/en/profile/kazyon/475358?b=42&k=19609&l=search",
	"arName":"13 ش احمد سعيد, عباسية, القاهرة",
	"lat":"30.064900000000002",
	"lng":"31.272600000000001",
	"enName":"13 Ahmed Said St., Abbasseya, Cairo"
},
		{	"profileId":"488708",
	"profileURL":"//www.yellowpages.com.eg/en/profile/kazyon/488708?b=77&k=19609&l=search",
	"arName":"ش الاميرة فايزة ميدان عرابى, الزقازيق, الشرقية",
	"lat":"30.583829999999999",
	"lng":"31.500844000000001",
	"enName":"El Amira Faiza St. Orabi Sq., El zagazig, El sharkeya"
},
		{	"profileId":"562980",
	"profileURL":"//www.yellowpages.com.eg/en/profile/kazyon/562980?b=41&k=19609&l=search",
	"arName":"16 مساكن التوفيق - ش المدينة المنورة متفرع من ش ابن فضلان, الحى العاشر, مدينة نصر, القاهرة",
	"lat":"30.060922999999999",
	"lng":"31.374238999999999",
	"enName":"16 El Tawfiq Bldgs., El Madina El Monawara St. Off Ibn Fadlan St., 10th District, Nasr city, Cairo"
},
		{	"profileId":"461520",
	"profileURL":"//www.yellowpages.com.eg/en/profile/kazyon/461520?b=88&k=19609&l=search",
	"arName":"72 ش الزهراء متفرع من ش السودان, المهندسين, الجيزة",
	"lat":"30.042705000000002",
	"lng":"31.196415999999999",
	"enName":"72 El Zahraa St. Off Sudan St., Mohandeseen, Giza"
},
		{	"profileId":"494392",
	"profileURL":"//www.yellowpages.com.eg/en/profile/kazyon/494392?b=40&k=19609&l=search",
	"arName":"38 ش محمد سيد احمد, حلوان, القاهرة",
	"lat":"29.847338000000001",
	"lng":"31.331198000000001",
	"enName":"38 Mohamed Sayed Ahmed St., Helwan, Cairo"
},
		{	"profileId":"486882",
	"profileURL":"//www.yellowpages.com.eg/en/profile/kazyon/486882?b=111&k=19609&l=search",
	"arName":"185 ش العبد - شرق الفيلات, بنها الجديدة, القليوبية",
	"lat":"",
	"lng":"",
	"enName":"185 El Abd St., Sharq El Villat, Banha el gadida, Kaliobeya"
},
		{	"profileId":"485036",
	"profileURL":"//www.yellowpages.com.eg/en/profile/kazyon/485036?b=34&k=19609&l=search",
	"arName":"4 ش محمد مقلد متفرع من ش مصطفى النحاس, مدينة نصر, القاهرة",
	"lat":"30.055295999999998",
	"lng":"31.356508999999999",
	"enName":"4 Mohamed Meqled St. Off Mostafa El Nahhas St., Nasr city, Cairo"
},
		{	"profileId":"525839",
	"profileURL":"//www.yellowpages.com.eg/en/profile/kazyon/525839?b=76&k=19609&l=search",
	"arName":"بلوك 24 - ش 960 تقاطع ش 56, سيدى بشر, الاسكندرية",
	"lat":"",
	"lng":"",
	"enName":"Block 24, Rd. 960 Intersection Of Rd. 56, Sidi beshr, Alexandria"
},
		{	"profileId":"486889",
	"profileURL":"//www.yellowpages.com.eg/en/profile/kazyon/486889?b=12&k=19609&l=search",
	"arName":"23 ش عبد العزيز عيسى, الحى الثامن, مدينة نصر, القاهرة",
	"lat":"30.054881999999999",
	"lng":"31.358574000000001",
	"enName":"23 Abdel Aziz Eissa St., 8th District, Nasr city, Cairo"
},
		{	"profileId":"492245",
	"profileURL":"//www.yellowpages.com.eg/en/profile/kazyon/492245?b=39&k=19609&l=search",
	"arName":"17 ش صعب صالح متفرع من ش احمد عصمت, عين شمس الشرقية, القاهرة",
	"lat":"30.120408000000001",
	"lng":"31.330382",
	"enName":"17 Saab Saleh St. Off Ahmed Essmat St., Ain shams el sharkeya, Cairo"
},
		{	"profileId":"490063",
	"profileURL":"//www.yellowpages.com.eg/en/profile/kazyon/490063?b=81&k=19609&l=search",
	"arName":"4 ش الحكيم متفرع من ش النادى, الجيزة, الجيزة",
	"lat":"30.013819000000002",
	"lng":"31.212858000000001",
	"enName":"4 El Hakim St. Off El Nady St., Giza, Giza"
},
		{	"profileId":"495750",
	"profileURL":"//www.yellowpages.com.eg/en/profile/kazyon/495750?b=46&k=19609&l=search",
	"arName":"171 ش ابو الفرج, شبرا, القاهرة",
	"lat":"30.07985",
	"lng":"31.236432000000001",
	"enName":"171 Abou El Farag St., Shoubra, Cairo"
},
		{	"profileId":"495752",
	"profileURL":"//www.yellowpages.com.eg/en/profile/kazyon/495752?b=92&k=19609&l=search",
	"arName":"17 ش احمد ابراهيم متفرع من ش فيصل, فيصل, الجيزة",
	"lat":"30.011392000000001",
	"lng":"31.188718000000001",
	"enName":"17 Ahmed Ibrahim St. Off Faisal St., Faisal, Giza"
},
		{	"profileId":"495753",
	"profileURL":"//www.yellowpages.com.eg/en/profile/kazyon/495753?b=20&k=19609&l=search",
	"arName":"6 ميدان الافضل, شبرا, القاهرة",
	"lat":"30.076754000000001",
	"lng":"31.251431",
	"enName":"6 El Afdal Sq., Shoubra, Cairo"
},
		{	"profileId":"495754",
	"profileURL":"//www.yellowpages.com.eg/en/profile/kazyon/495754?b=2&k=19609&l=search",
	"arName":"33 /45 ش المسيرى, حدائق الزيتون, القاهرة",
	"lat":"30.106645",
	"lng":"31.309335000000001",
	"enName":"33 /45 El Mesairy St., Hadayek el zaitoun, Cairo"
},
		{	"profileId":"495755",
	"profileURL":"//www.yellowpages.com.eg/en/profile/kazyon/495755?b=47&k=19609&l=search",
	"arName":"61 ش احمد عرابى, عين شمس, القاهرة",
	"lat":"30.125782999999998",
	"lng":"31.344373999999998",
	"enName":"61 Ahmed Orabi St., Ain shams, Cairo"
},
		{	"profileId":"475182",
	"profileURL":"//www.yellowpages.com.eg/en/profile/kazyon/475182?b=126&k=19609&l=search",
	"arName":"30 ش عمر طوسون متفرع من ش احمد عرابى, الكيت كات, الجيزة",
	"lat":"30.065763",
	"lng":"31.209765999999998",
	"enName":"30 Omar Toson St. Off Ahmed Orabi St., Al kit kat, Giza"
},
		{	"profileId":"495590",
	"profileURL":"//www.yellowpages.com.eg/en/profile/kazyon/495590?b=50&k=19609&l=search",
	"arName":"1 ش سمير الصناديلى امتداد ش الوحدة, امبابة, الجيزة",
	"lat":"30.087900999999999",
	"lng":"31.211849999999998",
	"enName":"1 Samir El Sanadily St. Extension Of El Wehda St., Imbaba, Giza"
},
		{	"profileId":"486873",
	"profileURL":"//www.yellowpages.com.eg/en/profile/kazyon/486873?b=4&k=19609&l=search",
	"arName":"21 ش السكاكينى, الظاهر, القاهرة",
	"lat":"30.066921000000001",
	"lng":"31.267113999999999",
	"enName":"21 El Sakakiny St., El zaher, Cairo"
},
		{	"profileId":"562999",
	"profileURL":"//www.yellowpages.com.eg/en/profile/kazyon/562999?b=21&k=19609&l=search",
	"arName":"85 - مدينة عباد الرحمن, القطامية, القاهرة",
	"lat":"29.988824999999999",
	"lng":"31.336521999999999",
	"enName":"85 , Ebad El Rahman City, El katameya, Cairo"
},
		{	"profileId":"502844",
	"profileURL":"//www.yellowpages.com.eg/en/profile/kazyon/502844?b=75&k=19609&l=search",
	"arName":"1 ش جسر الكنيسة, المنيب, الجيزة",
	"lat":"29.983820999999999",
	"lng":"31.208731",
	"enName":"1 Gesr El Konaysa St., El moneeb, Giza"
},
		{	"profileId":"495745",
	"profileURL":"//www.yellowpages.com.eg/en/profile/kazyon/495745?b=27&k=19609&l=search",
	"arName":"20 ش عبد الرحمن متفرع من ش رستم, حلوان, القاهرة",
	"lat":"29.845414999999999",
	"lng":"31.338861000000001",
	"enName":"20 Abdel Rahman St. Off Rostom St., Helwan, Cairo"
},
		{	"profileId":"503543",
	"profileURL":"//www.yellowpages.com.eg/en/profile/kazyon/503543?b=89&k=19609&l=search",
	"arName":"ش السلخانة, وسط البلد, الفيوم",
	"lat":"",
	"lng":"",
	"enName":"El Salakhana St., Downtown, El fayoum"
},
		{	"profileId":"495747",
	"profileURL":"//www.yellowpages.com.eg/en/profile/kazyon/495747?b=1&k=19609&l=search",
	"arName":"51 /ح ش ثابت, حلوان, القاهرة",
	"lat":"29.8477",
	"lng":"31.327999999999999",
	"enName":"51 /H Thabet St., Helwan, Cairo"
},
		{	"profileId":"490056",
	"profileURL":"//www.yellowpages.com.eg/en/profile/kazyon/490056?b=80&k=19609&l=search",
	"arName":"54 ش ترسا تقاطع ش عز الدين عمر, الهرم, الجيزة",
	"lat":"29.990010000000002",
	"lng":"31.162172999999999",
	"enName":"54 Tersa St. Intersection Of Ezz El Din Omar St., El haram, Giza"
},
		{	"profileId":"495749",
	"profileURL":"//www.yellowpages.com.eg/en/profile/kazyon/495749?b=32&k=19609&l=search",
	"arName":"7 أ ش يوسف, حلوان, القاهرة",
	"lat":"29.847577000000001",
	"lng":"31.327772",
	"enName":"7 A Youssef St., Helwan, Cairo"
},
		{	"profileId":"492231",
	"profileURL":"//www.yellowpages.com.eg/en/profile/kazyon/492231?b=8&k=19609&l=search",
	"arName":"2 ش محمد عبد الخالق متفرع من ش سليم الاول, حلمية الزيتون, القاهرة",
	"lat":"30.117659",
	"lng":"31.320294000000001",
	"enName":"2 Mohamed Abdel Khaleq St. Off Selim El Awal St., Helmeyet el zaitoun, Cairo"
},
		{	"profileId":"525777",
	"profileURL":"//www.yellowpages.com.eg/en/profile/kazyon/525777?b=57&k=19609&l=search",
	"arName":"ش احمد هريدى تقاطع ش المساكن, فيصل, الجيزة",
	"lat":"30.014887000000002",
	"lng":"31.184526000000002",
	"enName":"Ahmed Haridy St. Intersection Of El Masaken St., Faisal, Giza"
},
		{	"profileId":"490171",
	"profileURL":"//www.yellowpages.com.eg/en/profile/kazyon/490171?b=83&k=19609&l=search",
	"arName":"ش جمال عبد الناصر, وسط البلد, الفيوم",
	"lat":"29.310468",
	"lng":"30.848745999999998",
	"enName":"Gamal Abdel Nasser St., Downtown, El fayoum"
},
		{	"profileId":"525774",
	"profileURL":"//www.yellowpages.com.eg/en/profile/kazyon/525774?b=112&k=19609&l=search",
	"arName":"352 ش كفر طهرمس - برج الايمان, فيصل, الجيزة",
	"lat":"30.018922",
	"lng":"31.171692",
	"enName":"352 Kafr Tohormos St., El Eman Tower, Faisal, Giza"
},
		{	"profileId":"490052",
	"profileURL":"//www.yellowpages.com.eg/en/profile/kazyon/490052?b=59&k=19609&l=search",
	"arName":"79 ش الثلاثينى, المريوطية, الهرم, الجيزة",
	"lat":"29.997353",
	"lng":"31.196427",
	"enName":"79 El Thalathiny St., El Mariouteya, El haram, Giza"
},
		{	"profileId":"495741",
	"profileURL":"//www.yellowpages.com.eg/en/profile/kazyon/495741?b=19&k=19609&l=search",
	"arName":"3 ش معمل الالبان, شبرا, القاهرة",
	"lat":"30.097677000000001",
	"lng":"31.249493999999999",
	"enName":"3 Maamal El Alban St., Shoubra, Cairo"
},
		{	"profileId":"495587",
	"profileURL":"//www.yellowpages.com.eg/en/profile/kazyon/495587?b=66&k=19609&l=search",
	"arName":"106 ش البيطاش الرئيسى, العجمى, الاسكندرية",
	"lat":"31.124737",
	"lng":"29.782568000000001",
	"enName":"106 El Bitash Main St., Agami, Alexandria"
},
		{	"profileId":"490059",
	"profileURL":"//www.yellowpages.com.eg/en/profile/kazyon/490059?b=116&k=19609&l=search",
	"arName":"3 ش د. محمد فؤاد سعيد - برج المصطفى, العمرانية الغربية, الهرم, الجيزة",
	"lat":"29.988723",
	"lng":"31.204626999999999",
	"enName":"3 Dr. Mohamed Fouad Said St., El Mostafa Tower, El Omraneya El Gharbeya, El haram, Giza"
},
		{	"profileId":"495589",
	"profileURL":"//www.yellowpages.com.eg/en/profile/kazyon/495589?b=133&k=19609&l=search",
	"arName":"القطعة 26/6 - المجاورة السادسة, الحى الثانى, السادس من اكتوبر, الجيزة",
	"lat":"",
	"lng":"",
	"enName":"Plot 26/6, 6th Neighbourhood, 2nd District, 6th of october, Giza"
},
		{	"profileId":"495743",
	"profileURL":"//www.yellowpages.com.eg/en/profile/kazyon/495743?b=136&k=19609&l=search",
	"arName":"67 ش هليوبوليس متفرع من ش لاجيتيه, الابراهيمية, الاسكندرية",
	"lat":"31.212861",
	"lng":"29.926808999999999",
	"enName":"67 Heliopolis St. Off La Guitaih St., El ibrahimeya, Alexandria"
},
		{	"profileId":"492237",
	"profileURL":"//www.yellowpages.com.eg/en/profile/kazyon/492237?b=141&k=19609&l=search",
	"arName":"1 ش كورنيش النيل - برج العمدة, شبرا الخيمة, القليوبية",
	"lat":"30.118825999999999",
	"lng":"31.24004",
	"enName":"1 Corniche El Nil St., El Omda Tower, Shoubra el khaymah, Kaliobeya"
},
		{	"profileId":"489577",
	"profileURL":"//www.yellowpages.com.eg/en/profile/kazyon/489577?b=100&k=19609&l=search",
	"arName":"1 كورنيش النيل, الوراق, الجيزة",
	"lat":"30.096602000000001",
	"lng":"31.223299999999998",
	"enName":"1 Corniche El Nil, El warak, Giza"
},
		{	"profileId":"481331",
	"profileURL":"//www.yellowpages.com.eg/en/profile/kazyon/481331?b=43&k=19609&l=search",
	"arName":"1 ش محمد نصار متفرع من ش جمال عبد الناصر - تقسيم عمر بن الخطاب, الحرفيين, القاهرة",
	"lat":"30.147082000000001",
	"lng":"31.393816000000001",
	"enName":"1 Mohamed Nassar St. Off Gamal Abdel Nasser St., Omar Ibn El Khattab Division, El herafeyeen, Cairo"
},
		{	"profileId":"486985",
	"profileURL":"//www.yellowpages.com.eg/en/profile/kazyon/486985?b=15&k=19609&l=search",
	"arName":"13 ش المشتل تقسيم الشيشينى, كورنيش المعادى, المعادى, القاهرة",
	"lat":"29.992515999999998",
	"lng":"31.229897999999999",
	"enName":"13 El Mashtal St. El Shishiny Division, Corniche El Maadi, Maadi, Cairo"
},
		{	"profileId":"502834",
	"profileURL":"//www.yellowpages.com.eg/en/profile/kazyon/502834?b=132&k=19609&l=search",
	"arName":"6 ش كامل عودة تقاطع ش سبيل الله, الطالبية, الهرم, الجيزة",
	"lat":"29.992840000000001",
	"lng":"31.185438000000001",
	"enName":"6 Kamel Aoda St. Intersection Of Sabeel Allah St., El Talbeya, El haram, Giza"
},
		{	"profileId":"486865",
	"profileURL":"//www.yellowpages.com.eg/en/profile/kazyon/486865?b=65&k=19609&l=search",
	"arName":"24 ش داليا متفرع من ش العاشر من رمضان - برج المدينة المنورة, قليوب, القليوبية",
	"lat":"30.179995999999999",
	"lng":"31.216828",
	"enName":"24 Dalia St. Off 10th Of Ramadan St., El Madina El Monawara Tower, Qalyub, Kaliobeya"
},
		{	"profileId":"492223",
	"profileURL":"//www.yellowpages.com.eg/en/profile/kazyon/492223?b=84&k=19609&l=search",
	"arName":"المجاورة الثانية - عمارة 198, الحى الاول, السادس من اكتوبر, الجيزة",
	"lat":"29.972543999999999",
	"lng":"30.951853",
	"enName":"2nd Neighbourhood, Bldg. 198, 1st District, 6th of october, Giza"
},
		{	"profileId":"490163",
	"profileURL":"//www.yellowpages.com.eg/en/profile/kazyon/490163?b=104&k=19609&l=search",
	"arName":"ش النبوى المهندس - برج الماسة, وسط البلد, الفيوم",
	"lat":"29.312000000000001",
	"lng":"30.856068",
	"enName":"El Nabawy El Mohandes St., El Masa Tower, Downtown, El fayoum"
},
		{	"profileId":"495694",
	"profileURL":"//www.yellowpages.com.eg/en/profile/kazyon/495694?b=91&k=19609&l=search",
	"arName":"188 ش السودان, المهندسين, الجيزة",
	"lat":"30.055402999999998",
	"lng":"31.190788999999999",
	"enName":"188 Sudan St., Mohandeseen, Giza"
},
		{	"profileId":"490326",
	"profileURL":"//www.yellowpages.com.eg/en/profile/kazyon/490326?b=118&k=19609&l=search",
	"arName":"56 ش محطة شدس, شدس, الاسكندرية",
	"lat":"31.241769999999999",
	"lng":"29.974549",
	"enName":"56 Mahattet Schutz St., Schutz, Alexandria"
},
		{	"profileId":"492227",
	"profileURL":"//www.yellowpages.com.eg/en/profile/kazyon/492227?b=30&k=19609&l=search",
	"arName":"56 أ ش عين شمس, عين شمس, القاهرة",
	"lat":"30.119",
	"lng":"31.317399999999999",
	"enName":"56 A Ain Shams St., Ain shams, Cairo"
},
		{	"profileId":"490169",
	"profileURL":"//www.yellowpages.com.eg/en/profile/kazyon/490169?b=82&k=19609&l=search",
	"arName":"بفرلى هيلز - منطقة الخدمات, الشيخ زايد, السادس من اكتوبر, الجيزة",
	"lat":"30.061211",
	"lng":"30.958786",
	"enName":"Beverly Hills, Services Zone, El Sheikh Zayed, 6th of october, Giza"
},
		{	"profileId":"490047",
	"profileURL":"//www.yellowpages.com.eg/en/profile/kazyon/490047?b=115&k=19609&l=search",
	"arName":"21 ش مصرف اللبينى, كرداسة, الجيزة",
	"lat":"30.034942999999998",
	"lng":"31.11694",
	"enName":"21 Masraf El Lebiny St., Kerdasa, Giza"
},
		{	"profileId":"475161",
	"profileURL":"//www.yellowpages.com.eg/en/profile/kazyon/475161?b=72&k=19609&l=search",
	"arName":"3 ش طهران, الدقى, الجيزة",
	"lat":"30.039731",
	"lng":"31.209620999999999",
	"enName":"3 Tahran St., Dokki, Giza"
},
		{	"profileId":"495690",
	"profileURL":"//www.yellowpages.com.eg/en/profile/kazyon/495690?b=69&k=19609&l=search",
	"arName":"القطعة 1379 - المجاورة السادسة, الحى الرابع, السادس من اكتوبر, الجيزة",
	"lat":"29.950800999999998",
	"lng":"30.931411000000001",
	"enName":"Plot 1379, 6th Neighbourhood, 4th District, 6th of october, Giza"
},
		{	"profileId":"486972",
	"profileURL":"//www.yellowpages.com.eg/en/profile/kazyon/486972?b=87&k=19609&l=search",
	"arName":"17 ش على مبارك متفرع من ش ابن الفارض, طنطا, الغربية",
	"lat":"30.79007",
	"lng":"30.98903",
	"enName":"17 Aly Mubarak St. Off Ibn El Fared St., Tanta, El gharbeya"
},
		{	"profileId":"490154",
	"profileURL":"//www.yellowpages.com.eg/en/profile/kazyon/490154?b=139&k=19609&l=search",
	"arName":"عمارة 12 - المجاورة الثانية - الحى 11, الشيخ زايد, السادس من اكتوبر, الجيزة",
	"lat":"30.050169",
	"lng":"30.974257000000001",
	"enName":"Bldg. 12, 2nd Neighbourhood, District 11, El Sheikh Zayed, 6th of october, Giza"
},
		{	"profileId":"494357",
	"profileURL":"//www.yellowpages.com.eg/en/profile/kazyon/494357?b=9&k=19609&l=search",
	"arName":"220 ش الجزائر, المعادى الجديدة, المعادى, القاهرة",
	"lat":"29.976661",
	"lng":"31.275745000000001",
	"enName":"220 El Gazaer St., New Maadi, Maadi, Cairo"
},
		{	"profileId":"492210",
	"profileURL":"//www.yellowpages.com.eg/en/profile/kazyon/492210?b=105&k=19609&l=search",
	"arName":"1 ش الجيش - برج العارف - وراق الحضر, الوراق, الجيزة",
	"lat":"30.091806999999999",
	"lng":"31.222007000000001",
	"enName":"1 El Guish St., El Aref Tower, Warraq El Hadar, El warak, Giza"
},
		{	"profileId":"503963",
	"profileURL":"//www.yellowpages.com.eg/en/profile/kazyon/503963?b=55&k=19609&l=search",
	"arName":"ش عبد المنعم رياض, وسط البلد, المنيا",
	"lat":"28.099492000000001",
	"lng":"30.754173999999999",
	"enName":"Abdel Moneim Riad St., Downtown, El menia"
},
		{	"profileId":"489575",
	"profileURL":"//www.yellowpages.com.eg/en/profile/kazyon/489575?b=49&k=19609&l=search",
	"arName":"50 ش ترعة التوفيقية - عزبة النخل الغربية, عزبة النخل, القاهرة",
	"lat":"30.142092999999999",
	"lng":"31.321141999999998",
	"enName":"50 Teraet El Tawfiqeya St., Ezbet El Nakhl El Gharbeya, Ezbet el nakhl, Cairo"
},
		{	"profileId":"475159",
	"profileURL":"//www.yellowpages.com.eg/en/profile/kazyon/475159?b=71&k=19609&l=search",
	"arName":"ش سهل حمزة, الكوم الاخضر, الهرم, الجيزة",
	"lat":"29.994126999999999",
	"lng":"31.155902000000001",
	"enName":"Sahl Hamza St., El Koum El Akhdar, El haram, Giza"
},
		{	"profileId":"475555",
	"profileURL":"//www.yellowpages.com.eg/en/profile/kazyon/475555?b=128&k=19609&l=search",
	"arName":"111 ش العلمين متفرع من ش السودان - مدينة الطلبة, المهندسين, الجيزة",
	"lat":"30.079954000000001",
	"lng":"31.221782000000001",
	"enName":"111 El Alamain St. Off Sudan St., Madinet El Talaba, Mohandeseen, Giza"
},
		{	"profileId":"495683",
	"profileURL":"//www.yellowpages.com.eg/en/profile/kazyon/495683?b=17&k=19609&l=search",
	"arName":"15 ش عبد الحميد عثمان متفرع من ش عين شمس, عين شمس, القاهرة",
	"lat":"30.123073999999999",
	"lng":"31.320205999999999",
	"enName":"15 Abdel Hamid Othman St. Off Ain Shams St., Ain shams, Cairo"
},
		{	"profileId":"475554",
	"profileURL":"//www.yellowpages.com.eg/en/profile/kazyon/475554?b=53&k=19609&l=search",
	"arName":"22 ب ش السد العالى متفرع من ش سليمان جوهر, الدقى, الجيزة",
	"lat":"30.0426",
	"lng":"31.214300000000001",
	"enName":"22 B El Sad El Aaly St. Off Soliman Gawhar St., Dokki, Giza"
},
		{	"profileId":"475158",
	"profileURL":"//www.yellowpages.com.eg/en/profile/kazyon/475158?b=95&k=19609&l=search",
	"arName":"4 ش السلولى ميدان المساحة, الدقى, الجيزة",
	"lat":"30.0364",
	"lng":"31.217600000000001",
	"enName":"4 El Salouly St. El Messaha Sq., Dokki, Giza"
},
		{	"profileId":"495685",
	"profileURL":"//www.yellowpages.com.eg/en/profile/kazyon/495685?b=135&k=19609&l=search",
	"arName":"2 ش طراد النيل - برج الرضوى, الحوامدية, الجيزة",
	"lat":"29.897364",
	"lng":"31.272358000000001",
	"enName":"2 Torad El Nil St., El Radwa Tower, El hawamdeya, Giza"
},
		{	"profileId":"475559",
	"profileURL":"//www.yellowpages.com.eg/en/profile/kazyon/475559?b=54&k=19609&l=search",
	"arName":"20 ش جمال سالم متفرع من ش مصدق, الدقى, الجيزة",
	"lat":"30.039133",
	"lng":"31.201702000000001",
	"enName":"20 Gamal Salem St. Off Mossadak St., Dokki, Giza"
},
		{	"profileId":"475558",
	"profileURL":"//www.yellowpages.com.eg/en/profile/kazyon/475558?b=73&k=19609&l=search",
	"arName":"68 ش احمد عرابى, البراجيل, الجيزة",
	"lat":"30.066849000000001",
	"lng":"31.180907999999999",
	"enName":"68 Ahmed Orabi St., El baragil, Giza"
},
		{	"profileId":"495688",
	"profileURL":"//www.yellowpages.com.eg/en/profile/kazyon/495688?b=18&k=19609&l=search",
	"arName":"26 أ ش غرب السكة الحديد, عين شمس الغربية, القاهرة",
	"lat":"30.129783",
	"lng":"31.318151",
	"enName":"26 A Gharb El Sekka El Hadid St., Ain shams el gharbeya, Cairo"
},
		{	"profileId":"492214",
	"profileURL":"//www.yellowpages.com.eg/en/profile/kazyon/492214?b=119&k=19609&l=search",
	"arName":"21 ش وجيه الدكرورى تقاطع ش المخزن, العمرانية الشرقية, الهرم, الجيزة",
	"lat":"30.006577",
	"lng":"31.205335000000002",
	"enName":"21 Waguih El Dakroury St. Intersection Of El Makhzan St., El Omraneya El Sharkeya, El haram, Giza"
},
		{	"profileId":"490159",
	"profileURL":"//www.yellowpages.com.eg/en/profile/kazyon/490159?b=140&k=19609&l=search",
	"arName":"6 ش محمود رمضان متفرع من ش المحطة, الجيزة, الجيزة",
	"lat":"30.009771000000001",
	"lng":"31.211378",
	"enName":"6 Mahmoud Ramadan St. Off El Mahatta St., Giza, Giza"
},
		{	"profileId":"561972",
	"profileURL":"//www.yellowpages.com.eg/en/profile/kazyon/561972?b=85&k=19609&l=search",
	"arName":"23 ش النصر, المنشية, الاسكندرية",
	"lat":"31.198062",
	"lng":"29.888037000000001",
	"enName":"23 El Nasr St., El mansheya, Alexandria"
},
		{	"profileId":"495680",
	"profileURL":"//www.yellowpages.com.eg/en/profile/kazyon/495680?b=134&k=19609&l=search",
	"arName":"القطعة 212 - المجاورة الثانية, الحى الخامس, السادس من اكتوبر, الجيزة",
	"lat":"",
	"lng":"",
	"enName":"Plot 212, 2nd Neighbourhood, 5th District, 6th of october, Giza"
},
		{	"profileId":"485199",
	"profileURL":"//www.yellowpages.com.eg/en/profile/kazyon/485199?b=36&k=19609&l=search",
	"arName":"ابراج الفاروق - ش مدرسة الاورمان, المرج الجديدة, القاهرة",
	"lat":"30.165967999999999",
	"lng":"31.337720000000001",
	"enName":"El Farouq Towers, Madraset El Orman St., El marg el gadida, Cairo"
},
		{	"profileId":"489557",
	"profileURL":"//www.yellowpages.com.eg/en/profile/kazyon/489557?b=114&k=19609&l=search",
	"arName":"ش جميل عدلى, بنها, القليوبية",
	"lat":"30.462527999999999",
	"lng":"31.180403999999999",
	"enName":"Gamil Adly St., Banha, Kaliobeya"
},
		{	"profileId":"490143",
	"profileURL":"//www.yellowpages.com.eg/en/profile/kazyon/490143?b=117&k=19609&l=search",
	"arName":"1 ش الشحايتة متفرع من ش العشرين, بولاق الدكرور, الجيزة",
	"lat":"30.045712000000002",
	"lng":"31.131848000000002",
	"enName":"1 El Shahayta St. Off El Eshreen St., Boulak el dakrour, Giza"
},
		{	"profileId":"489560",
	"profileURL":"//www.yellowpages.com.eg/en/profile/kazyon/489560?b=29&k=19609&l=search",
	"arName":"6 ش الملكة فريدة - مدينة المعراج, زهراء المعادى, المعادى, القاهرة",
	"lat":"29.983135000000001",
	"lng":"31.308937",
	"enName":"6 El Maleka Farida St., El Mearag City, Zahraa El Maadi, Maadi, Cairo"
},
		{	"profileId":"494343",
	"profileURL":"//www.yellowpages.com.eg/en/profile/kazyon/494343?b=31&k=19609&l=search",
	"arName":"161 ش الحجاز, ميدان الحجاز, مصر الجديدة, القاهرة",
	"lat":"30.110251000000002",
	"lng":"31.343917999999999",
	"enName":"161 El Hegaz St., Hegaz Square, Heliopolis, Cairo"
},
		{	"profileId":"489563",
	"profileURL":"//www.yellowpages.com.eg/en/profile/kazyon/489563?b=138&k=19609&l=search",
	"arName":"قرية ترسا, طوخ, القليوبية",
	"lat":"30.303822",
	"lng":"31.184101999999999",
	"enName":"Tersa Village, Tukh, Kaliobeya"
},
		{	"profileId":"495719",
	"profileURL":"//www.yellowpages.com.eg/en/profile/kazyon/495719?b=26&k=19609&l=search",
	"arName":"13 ش عبد العزيز الدرينى متفرع من ش سمير سيد احمد, المنيل, القاهرة",
	"lat":"30.021032999999999",
	"lng":"31.223665",
	"enName":"13 Abdel Aziz El Dereny St. Off Samir Sayed Ahmed St., El manyal, Cairo"
},
		{	"profileId":"475563",
	"profileURL":"//www.yellowpages.com.eg/en/profile/kazyon/475563?b=109&k=19609&l=search",
	"arName":"2 ش خاتم المرسلين تقاطع ش فاطمة رشدى, العمرانية الغربية, الهرم, الجيزة",
	"lat":"30.001387999999999",
	"lng":"31.192668999999999",
	"enName":"2 Khatam El Morsaleen St. Intersection Of Fatema Roshdy St., El Omraneya El Gharbeya, El haram, Giza"
},
		{	"profileId":"495676",
	"profileURL":"//www.yellowpages.com.eg/en/profile/kazyon/495676?b=16&k=19609&l=search",
	"arName":"67 ش البساتين العمومى, البساتين, القاهرة",
	"lat":"29.986639",
	"lng":"31.268315999999999",
	"enName":"67 El Basateen El Omoumy St., El bassateen, Cairo"
},
		{	"profileId":"490149",
	"profileURL":"//www.yellowpages.com.eg/en/profile/kazyon/490149?b=103&k=19609&l=search",
	"arName":"690 ش زكى السماك المجاورة الثالثة, الحى الثالث, السادس من اكتوبر, الجيزة",
	"lat":"",
	"lng":"",
	"enName":"690 Zaky El Sammak St. 3rd Neighbourhood, 3rd District, 6th of october, Giza"
},
		{	"profileId":"561985",
	"profileURL":"//www.yellowpages.com.eg/en/profile/kazyon/561985?b=62&k=19609&l=search",
	"arName":"ش الترعة - برج التيسير, المنتزة, المنتزه, الاسكندرية",
	"lat":"",
	"lng":"",
	"enName":"El Teraa St., El Tayseer Tower, EL MONTAZA, El montazah, Alexandria"
},
		{	"profileId":"489426",
	"profileURL":"//www.yellowpages.com.eg/en/profile/kazyon/489426?b=99&k=19609&l=search",
	"arName":"1 عمارات حمدى قنديل - ش صبرى ابو علم, شبين الكوم, المنوفية",
	"lat":"30.566039",
	"lng":"31.004051",
	"enName":"1 Hamdy Kandil Bldgs., Sabry Abou Alam St., SHIBIN EL KAWM, Shebein el kawm, El monofeya"
},
		{	"profileId":"485862",
	"profileURL":"//www.yellowpages.com.eg/en/profile/kazyon/485862?b=11&k=19609&l=search",
	"arName":"27 ش مسرة متفرع من ش شبرا, شبرا, القاهرة",
	"lat":"30.073523000000002",
	"lng":"31.242172",
	"enName":"27 Masarra St. Off Shoubra St., Shoubra, Cairo"
},
		{	"profileId":"489424",
	"profileURL":"//www.yellowpages.com.eg/en/profile/kazyon/489424?b=48&k=19609&l=search",
	"arName":"ش مؤسسة الزكاة - حوض السنتا, المرج, القاهرة",
	"lat":"30.141351",
	"lng":"31.341784000000001",
	"enName":"Moassaset El Zakah St., Houd El Santa, El marg, Cairo"
},
		{	"profileId":"483200",
	"profileURL":"//www.yellowpages.com.eg/en/profile/kazyon/483200?b=124&k=19609&l=search",
	"arName":"114 ش ابراهيم شريف - ش الخديوى سابقا متفرع من ش شريف, محطة مصر, الاسكندرية",
	"lat":"31.187553000000001",
	"lng":"29.896937000000001",
	"enName":"114 Ibrahim Sherif St. - El Khedaiwy St. Previously Off Sherif St., Misr station, Alexandria"
},
		{	"profileId":"489429",
	"profileURL":"//www.yellowpages.com.eg/en/profile/kazyon/489429?b=137&k=19609&l=search",
	"arName":"71 ش سعيد - برج صفوت سعيد, طنطا, الغربية",
	"lat":"30.800442",
	"lng":"31.00132",
	"enName":"71 Said St., Safwat Said Tower, Tanta, El gharbeya"
},
		{	"profileId":"503978",
	"profileURL":"//www.yellowpages.com.eg/en/profile/kazyon/503978?b=90&k=19609&l=search",
	"arName":"ش 23 يوليو, مقبل, بنى سويف",
	"lat":"29.075890999999999",
	"lng":"31.100663999999998",
	"enName":"23rd Of July St., Mokbel, Benisuef"
},
		{	"profileId":"495668",
	"profileURL":"//www.yellowpages.com.eg/en/profile/kazyon/495668?b=25&k=19609&l=search",
	"arName":"148 ش طومانباى, الزيتون, القاهرة",
	"lat":"30.108000000000001",
	"lng":"31.3186",
	"enName":"148 Tomanbay St., El zaytoun, Cairo"
},
		{	"profileId":"495823",
	"profileURL":"//www.yellowpages.com.eg/en/profile/kazyon/495823?b=70&k=19609&l=search",
	"arName":"29 ش محمد فريد متفرع من ش بطرس, طنطا, الغربية",
	"lat":"30.793880000000001",
	"lng":"31.010601000000001",
	"enName":"29 Mohamed Farid St. Off Botros St., Tanta, El gharbeya"
},
		{	"profileId":"525850",
	"profileURL":"//www.yellowpages.com.eg/en/profile/kazyon/525850?b=131&k=19609&l=search",
	"arName":"ش خضر تقاطع ش سعد زغلول - الحى الاول, المحلة الكبرى, الغربية",
	"lat":"30.979959000000001",
	"lng":"31.166067000000002",
	"enName":"Khedr St. Intersection Of Saad Zaghloul St., 1st District, El mahalla el kobra, El gharbeya"
},
		{	"profileId":"489393",
	"profileURL":"//www.yellowpages.com.eg/en/profile/kazyon/489393?b=38&k=19609&l=search",
	"arName":"4 ش ابو هاشم متفرع من ش شبرا, شبرا, القاهرة",
	"lat":"30.099799000000001",
	"lng":"31.246334999999998",
	"enName":"4 Abou Hashem St. Off Shoubra St., Shoubra, Cairo"
},
		{	"profileId":"495829",
	"profileURL":"//www.yellowpages.com.eg/en/profile/kazyon/495829?b=51&k=19609&l=search",
	"arName":"القطعة 925 - المجاورة الخامسة, الحى الاول, السادس من اكتوبر, الجيزة",
	"lat":"29.964151000000001",
	"lng":"30.953635999999999",
	"enName":"Plot 925, 5th Neighbourhood, 1st District, 6th of october, Giza"
},
		{	"profileId":"525852",
	"profileURL":"//www.yellowpages.com.eg/en/profile/kazyon/525852?b=96&k=19609&l=search",
	"arName":"6 ش ابراهيم الدسوقى, طنطا, الغربية",
	"lat":"30.809958999999999",
	"lng":"30.994772999999999",
	"enName":"6 Ibrahim El Desouqy St., Tanta, El gharbeya"
},
		{	"profileId":"509445",
	"profileURL":"//www.yellowpages.com.eg/en/profile/kazyon/509445?b=94&k=19609&l=search",
	"arName":"ش عبد السلام عارف متفرع من ش جميل سلامة, بنى سويف, بنى سويف",
	"lat":"29.070160000000001",
	"lng":"31.088290000000001",
	"enName":"Abdel Salam Aref St. Off Gamil Salama St., Benisuef, Benisuef"
},
		{	"profileId":"490139",
	"profileURL":"//www.yellowpages.com.eg/en/profile/kazyon/490139?b=61&k=19609&l=search",
	"arName":"ش العروبة - برج الجوهرة, العمرانية الغربية, الهرم, الجيزة",
	"lat":"29.987393999999998",
	"lng":"31.174495",
	"enName":"El Orouba St., El Gawhara Tower, El Omraneya El Gharbeya, El haram, Giza"
},
		{	"profileId":"495664",
	"profileURL":"//www.yellowpages.com.eg/en/profile/kazyon/495664?b=68&k=19609&l=search",
	"arName":"6 ش جميلة بوحريد - برج العمار, السيوف, الاسكندرية",
	"lat":"31.242311000000001",
	"lng":"29.985047999999999",
	"enName":"6 Gamila Bouhraid St., El Ammar Tower, El seyouf, Alexandria"
},
		{	"profileId":"508594",
	"profileURL":"//www.yellowpages.com.eg/en/profile/kazyon/508594?b=74&k=19609&l=search",
	"arName":"6 مساكن الموظفين - ش عدنان المالكى, ارض سلطان, المنيا",
	"lat":"",
	"lng":"",
	"enName":"6 El Mowazafeen Bldgs., Adnan El Malky St., Ard sultan, El menia"
},
		{	"profileId":"489390",
	"profileURL":"//www.yellowpages.com.eg/en/profile/kazyon/489390?b=79&k=19609&l=search",
	"arName":"ش المدينة المنورة, قها, القليوبية",
	"lat":"30.280981000000001",
	"lng":"31.205463000000002",
	"enName":"El Madina El Monawara St., Kaha, Kaliobeya"
},
		{	"profileId":"495821",
	"profileURL":"//www.yellowpages.com.eg/en/profile/kazyon/495821?b=33&k=19609&l=search",
	"arName":"79 ش احمد اسماعيل, عين شمس, القاهرة",
	"lat":"30.122709100000002",
	"lng":"31.335027100000001",
	"enName":"79 Ahmed Ismail St., Ain shams, Cairo"
},
		{	"profileId":"563013",
	"profileURL":"//www.yellowpages.com.eg/en/profile/kazyon/563013?b=10&k=19609&l=search",
	"arName":"191 ش بورسعيد حارة جنينة لاظ, السيدة زينب, القاهرة",
	"lat":"30.033698000000001",
	"lng":"31.239342000000001",
	"enName":"191 Port Said St. Genina Laz Alley, El sayeda zeinab, Cairo"
},
		{	"profileId":"486946",
	"profileURL":"//www.yellowpages.com.eg/en/profile/kazyon/486946?b=23&k=19609&l=search",
	"arName":"8 ش محمد عطية متفرع من ش عين شمس, عزبة النخل, القاهرة",
	"lat":"30.135311000000002",
	"lng":"31.325486999999999",
	"enName":"8 Mohamed Atteya St. Off Ain Shams St., Ezbet el nakhl, Cairo"
},
		{	"profileId":"562960",
	"profileURL":"//www.yellowpages.com.eg/en/profile/kazyon/562960?b=142&k=19609&l=search",
	"arName":"ش الجمهورية, اوسيم, الجيزة",
	"lat":"30.126736999999999",
	"lng":"31.133441000000001",
	"enName":"El Gomhoureya St., Auseem, Giza"
},
		{	"profileId":"564229",
	"profileURL":"//www.yellowpages.com.eg/en/profile/kazyon/564229?b=86&k=19609&l=search",
	"arName":"49 ش على هيبة متفرع من ش جمال عبد الناصر, العصافرة قبلى, الاسكندرية",
	"lat":"31.253603999999999",
	"lng":"29.982261000000001",
	"enName":"49 Aly Heiba St. Off Gamal Abdel Nasser St., El asafra kebly, Alexandria"
},
		{	"profileId":"475551",
	"profileURL":"//www.yellowpages.com.eg/en/profile/kazyon/475551?b=108&k=19609&l=search",
	"arName":"17 ش الحسن متفرع من ش السودان, المهندسين, الجيزة",
	"lat":"30.0627",
	"lng":"31.192399999999999",
	"enName":"17 El Hassan St. Off Sudan St., Mohandeseen, Giza"
},
		{	"profileId":"561994",
	"profileURL":"//www.yellowpages.com.eg/en/profile/kazyon/561994?b=121&k=19609&l=search",
	"arName":"ش الدرايسة قبلى طريق اسكندرية مطروح الصحراوى, الهانوفيل, الاسكندرية",
	"lat":"31.104479000000001",
	"lng":"29.78002",
	"enName":"El Daraysa Qebly St. Alex Matrouh Desert Rd., Hannoville, Alexandria"
},
		{	"profileId":"475550",
	"profileURL":"//www.yellowpages.com.eg/en/profile/kazyon/475550?b=127&k=19609&l=search",
	"arName":"ش كعبيش, الطوابق, فيصل, الجيزة",
	"lat":"30.001778000000002",
	"lng":"31.147351",
	"enName":"Kaabish St., El Tawabeq, Faisal, Giza"
},
		{	"profileId":"485057",
	"profileURL":"//www.yellowpages.com.eg/en/profile/kazyon/485057?b=63&k=19609&l=search",
	"arName":"12 ش فرق الامن - اتريب, بنها, القليوبية",
	"lat":"30.474926",
	"lng":"31.192473",
	"enName":"12 Feraq El Amn St., Etreeb, Banha, Kaliobeya"
},
		{	"profileId":"525857",
	"profileURL":"//www.yellowpages.com.eg/en/profile/kazyon/525857?b=97&k=19609&l=search",
	"arName":"ش عبد السلام الشاذلى, دمنهور, البحيرة",
	"lat":"31.034949999999998",
	"lng":"30.452905000000001",
	"enName":"Abdel El Salam El Shazly St., Damanhour, El beheira"
},
		{	"profileId":"485059",
	"profileURL":"//www.yellowpages.com.eg/en/profile/kazyon/485059?b=125&k=19609&l=search",
	"arName":"2 ش الحافظ - برج عبد الرحمن - الشدية, بنها, القليوبية",
	"lat":"30.453514999999999",
	"lng":"31.177095999999999",
	"enName":"2 El Hafez St., Abdel Rahman Tower, El Sheddeya, Banha, Kaliobeya"
},
		{	"profileId":"489419",
	"profileURL":"//www.yellowpages.com.eg/en/profile/kazyon/489419?b=28&k=19609&l=search",
	"arName":"ش الجمهورية - القلج, المرج الجديدة, القاهرة",
	"lat":"30.178044",
	"lng":"31.349042000000001",
	"enName":"El Gomhoureya St., El Qelag, El marg el gadida, Cairo"
},
		{	"profileId":"485060",
	"profileURL":"//www.yellowpages.com.eg/en/profile/kazyon/485060?b=56&k=19609&l=search",
	"arName":"37 ش السريع - عمارة السعادة - كفر الجزار, بنها, القليوبية",
	"lat":"30.478290000000001",
	"lng":"31.170251",
	"enName":"37 El Sarea St., El Saada Bldg., Kafr El Gazzar, Banha, Kaliobeya"
},
		{	"profileId":"495657",
	"profileURL":"//www.yellowpages.com.eg/en/profile/kazyon/495657?b=67&k=19609&l=search",
	"arName":"8 ش اسماعيل باشا سرهنك متفرع من ش ابو قير - برج مؤمن, لوران, الاسكندرية",
	"lat":"31.246949999999998",
	"lng":"29.975090999999999",
	"enName":"8 Ismail Pasha Serhank St. Off Abou Qir St., Moamen Tower, Loran, Alexandria"
},
		{	"profileId":"485062",
	"profileURL":"//www.yellowpages.com.eg/en/profile/kazyon/485062?b=35&k=19609&l=search",
	"arName":"19 ش على بن ابى طالب, شبرا, القاهرة",
	"lat":"30.080628000000001",
	"lng":"31.247979000000001",
	"enName":"19 Aly Ibn Abi Taleb St., Shoubra, Cairo"
},
		{	"profileId":"485064",
	"profileURL":"//www.yellowpages.com.eg/en/profile/kazyon/485064?b=64&k=19609&l=search",
	"arName":"ش ترعة الرملة - عزبة الزراعة, بنها, القليوبية",
	"lat":"",
	"lng":"",
	"enName":"Teraet El Ramla St., Ezbet El Zeraah, Banha, Kaliobeya"
},
		{	"profileId":"489421",
	"profileURL":"//www.yellowpages.com.eg/en/profile/kazyon/489421?b=98&k=19609&l=search",
	"arName":"45 ش احمد ماهر - برج الرواد, شبين الكوم, المنوفية",
	"lat":"30.559452",
	"lng":"31.006626000000001",
	"enName":"45 Ahmed Maher St., El Rowad Tower, SHIBIN EL KAWM, Shebein el kawm, El monofeya"
},
		{	"profileId":"509437",
	"profileURL":"//www.yellowpages.com.eg/en/profile/kazyon/509437?b=110&k=19609&l=search",
	"arName":"ش كورنيش النيل - شرق النيل - الحمريا - برج الايطالى, بنى سويف الجديدة, بنى سويف",
	"lat":"29.045294999999999",
	"lng":"31.107185000000001",
	"enName":"Corniche El Nil St., Sharq El Nil, El Hamarya, El Italy Tower, Benisuef al gadida, Benisuef"
},
		{	"profileId":"495817",
	"profileURL":"//www.yellowpages.com.eg/en/profile/kazyon/495817?b=3&k=19609&l=search",
	"arName":"8 ش طومانباى, سراى القبة, القاهرة",
	"lat":"30.091820999999999",
	"lng":"31.304732000000001",
	"enName":"8 Tomanbay St., Saray el koba, Cairo"
},
		{	"profileId":"562051",
	"profileURL":"//www.yellowpages.com.eg/en/profile/kazyon/562051?b=106&k=19609&l=search",
	"arName":"98 ش قنال المحمودية - برج المدينة المنورة, كرموز, الاسكندرية",
	"lat":"31.178132999999999",
	"lng":"29.899076999999998",
	"enName":"98 Canal El Mahmoudeya St., El Madina El Monawara Tower, Karmouz, Alexandria"
},
		{	"profileId":"489381",
	"profileURL":"//www.yellowpages.com.eg/en/profile/kazyon/489381?b=37&k=19609&l=search",
	"arName":"30 ش الشيخ ريحان, عابدين, القاهرة",
	"lat":"30.041302000000002",
	"lng":"31.241123000000002",
	"enName":"30 El Sheikh Rihan St., Abdin, Cairo"
},
		{	"profileId":"495654",
	"profileURL":"//www.yellowpages.com.eg/en/profile/kazyon/495654?b=45&k=19609&l=search",
	"arName":"80 ش معز الدولة متفرع من ش ابو داوود الظاهرى, الحى الثامن, مدينة نصر, القاهرة",
	"lat":"30.060866000000001",
	"lng":"31.356431000000001",
	"enName":"80 Moez El Dawla St. Off Abou Dawoud El Zahery St., 8th District, Nasr city, Cairo"
},
		{	"profileId":"475547",
	"profileURL":"//www.yellowpages.com.eg/en/profile/kazyon/475547?b=52&k=19609&l=search",
	"arName":"51 ش احمد عرابى, المهندسين, الجيزة",
	"lat":"30.065570999999998",
	"lng":"31.202904",
	"enName":"51 Ahmed Orabi St., Mohandeseen, Giza"
},
		{	"profileId":"490127",
	"profileURL":"//www.yellowpages.com.eg/en/profile/kazyon/490127?b=60&k=19609&l=search",
	"arName":"6 ش المنشية ميدان الساعة, الطالبية, فيصل, الجيزة",
	"lat":"29.999375000000001",
	"lng":"31.159029",
	"enName":"6 El Mansheya St. El Saah Sq., El Talbeya, Faisal, Giza"
},
		{	"profileId":"562175",
	"profileURL":"//www.yellowpages.com.eg/en/profile/kazyon/562175?b=122&k=19609&l=search",
	"arName":"ش المسابك متفرع من ش العروبة - عزبة المفتى, امبابة, الجيزة",
	"lat":"30.09074",
	"lng":"31.201601",
	"enName":"El Masabek St. Off El Orouba St., Ezbet El Mofty, Imbaba, Giza"
}
	]
}]}