{"items":[{	"arName":"مترو ماركت",
	"enName":"Metro Market",
	"hotline":"19619",
	"facebook":"http://www.facebook.com/MetroMarketEgypt",
	"web":"http://www.metro-markets.com/",
	"arCategory":[
		"سوبر ماركت"
	],
	"enCategories":[
		"Supermarkets"
	],
	"contacts":[
		{	"profileId":"242721",
	"profileURL":"//www.yellowpages.com.eg/en/profile/metro-market/242721?b=23&k=19619&l=search",
	"arName":"24 ش 233, دجلة, المعادى, القاهرة",
	"lat":"29.962114",
	"lng":"31.278375",
	"enName":"24 Rd. 233, Degla, Maadi, Cairo"
},
		{	"profileId":"159359",
	"profileURL":"//www.yellowpages.com.eg/en/profile/metro-market/159359?b=24&k=19619&l=search",
	"arName":"الغرقانة, خليج نبق, شرم الشيخ",
	"lat":"28.045394000000002",
	"lng":"34.430636999999997",
	"enName":"El Gharqana, Nabq bay, Sharm el sheikh"
},
		{	"profileId":"404882",
	"profileURL":"//www.yellowpages.com.eg/en/profile/metro-market/404882?b=30&k=19619&l=search",
	"arName":"ش سعد زغلول - برج المغازى, المنصورة, الدقهلية",
	"lat":"31.059031999999998",
	"lng":"31.400604999999999",
	"enName":"Saad Zaghloul St., El Moghazy Tower, El mansoura, El dakahleya"
},
		{	"profileId":"260650",
	"profileURL":"//www.yellowpages.com.eg/en/profile/metro-market/260650?b=38&k=19619&l=search",
	"arName":"22 ش البنوك, هضبة ام السيد, شرم الشيخ",
	"lat":"27.861201999999999",
	"lng":"34.309680999999998",
	"enName":"22 El Benouk St., Umm el sid hill, Sharm el sheikh"
},
		{	"profileId":"109499",
	"profileURL":"//www.yellowpages.com.eg/en/profile/metro-market/109499?b=32&k=19619&l=search",
	"arName":"3 ش العريش متفرع من ش الهرم, الهرم, الجيزة",
	"lat":"29.994346",
	"lng":"31.160126000000002",
	"enName":"3 El Arish St. Off Haram St., El haram, Giza"
},
		{	"profileId":"394932",
	"profileURL":"//www.yellowpages.com.eg/en/profile/metro-market/394932?b=31&k=19619&l=search",
	"arName":"32 ش سعيد ميدان كتشنر, طنطا, الغربية",
	"lat":"30.791236999999999",
	"lng":"31.001888999999998",
	"enName":"32 Said St. Kotshnar Sq., Tanta, El gharbeya"
},
		{	"profileId":"425764",
	"profileURL":"//www.yellowpages.com.eg/en/profile/metro-market/425764?b=48&k=19619&l=search",
	"arName":"17 أ ش سوريا, رشدى, الاسكندرية",
	"lat":"31.230212000000002",
	"lng":"29.949712000000002",
	"enName":"17 A Syria St., Roushdy, Alexandria"
},
		{	"profileId":"76140",
	"profileURL":"//www.yellowpages.com.eg/en/profile/metro-market/76140?b=17&k=19619&l=search",
	"arName":"19 ش المنيل ميدان المماليك, منيل الروضة, القاهرة",
	"lat":"30.013604000000001",
	"lng":"31.225172000000001",
	"enName":"19 Manial St. El Mamalik Sq., Manial el roda, Cairo"
},
		{	"profileId":"112428",
	"profileURL":"//www.yellowpages.com.eg/en/profile/metro-market/112428?b=9&k=19619&l=search",
	"arName":"1 ج ش اللاسلكى, المعادى الجديدة, المعادى, القاهرة",
	"lat":"29.972733999999999",
	"lng":"31.280578999999999",
	"enName":"1 C El Laselky St., New Maadi, Maadi, Cairo"
},
		{	"profileId":"76141",
	"profileURL":"//www.yellowpages.com.eg/en/profile/metro-market/76141?b=40&k=19619&l=search",
	"arName":"26 ش جامعة الدول العربية, المهندسين, الجيزة",
	"lat":"30.056819000000001",
	"lng":"31.205390999999999",
	"enName":"26 Gamaet El Dewal El Arabeya St., Mohandeseen, Giza"
},
		{	"profileId":"76142",
	"profileURL":"//www.yellowpages.com.eg/en/profile/metro-market/76142?b=22&k=19619&l=search",
	"arName":"76 ش عمار بن ياسر متفرع من ش فريد سميكة, ميدان الحجاز, مصر الجديدة, القاهرة",
	"lat":"30.113491",
	"lng":"31.357486999999999",
	"enName":"76 Ammar Ibn Yasser St. Off Farid Semeika St., Hegaz Square, Heliopolis, Cairo"
},
		{	"profileId":"76143",
	"profileURL":"//www.yellowpages.com.eg/en/profile/metro-market/76143?b=4&k=19619&l=search",
	"arName":"130 ش النزهة, تريومف, مصر الجديدة, القاهرة",
	"lat":"30.101244000000001",
	"lng":"31.342987000000001",
	"enName":"130 El Nozha St., Triumph Square, Heliopolis, Cairo"
},
		{	"profileId":"229134",
	"profileURL":"//www.yellowpages.com.eg/en/profile/metro-market/229134?b=26&k=19619&l=search",
	"arName":"ش الشيراتون, سقالة, الغردقة",
	"lat":"27.214838",
	"lng":"33.838991",
	"enName":"Sheraton Rd., Sekala, Hurghada"
},
		{	"profileId":"355472",
	"profileURL":"//www.yellowpages.com.eg/en/profile/metro-market/355472?b=27&k=19619&l=search",
	"arName":"4 ش ويصا واصف متفرع من ش مراد - ميدان النهضة, الجيزة, الجيزة",
	"lat":"30.028129",
	"lng":"31.217127999999999",
	"enName":"4 Wissa Wasef St. Off Mourad St., El Nahda Sq., Giza, Giza"
},
		{	"profileId":"314715",
	"profileURL":"//www.yellowpages.com.eg/en/profile/metro-market/314715?b=47&k=19619&l=search",
	"arName":"25 عمارة احلام لوران - ش اسماعيل سرهنك, لوران, الاسكندرية",
	"lat":"31.248685999999999",
	"lng":"29.973844",
	"enName":"25 Ahlam Loran Bldg., Ismail Sirhank St., Loran, Alexandria"
},
		{	"profileId":"120988",
	"profileURL":"//www.yellowpages.com.eg/en/profile/metro-market/120988?b=34&k=19619&l=search",
	"arName":"98 ش خالد بن الوليد, سيدى بشر, الاسكندرية",
	"lat":"31.259004000000001",
	"lng":"29.981757999999999",
	"enName":"98 Khaled Ibn El Walid St., Sidi beshr, Alexandria"
},
		{	"profileId":"159365",
	"profileURL":"//www.yellowpages.com.eg/en/profile/metro-market/159365?b=43&k=19619&l=search",
	"arName":"22 ب ش محمد سعيد, الكوثر, الغردقة",
	"lat":"27.194921000000001",
	"lng":"33.826991",
	"enName":"22 B Mohamed Said St., El kawther, Hurghada"
},
		{	"profileId":"109501",
	"profileURL":"//www.yellowpages.com.eg/en/profile/metro-market/109501?b=1&k=19619&l=search",
	"arName":"18 ش الخليفة المأمون, منشية البكرى, مصر الجديدة, القاهرة",
	"lat":"30.086948",
	"lng":"31.303319999999999",
	"enName":"18 El Khalifa El Maamoun St., Mansheyet El Bakry, Heliopolis, Cairo"
},
		{	"profileId":"112459",
	"profileURL":"//www.yellowpages.com.eg/en/profile/metro-market/112459?b=33&k=19619&l=search",
	"arName":"4 ش الجمهورية, المنصورة, الدقهلية",
	"lat":"31.045366000000001",
	"lng":"31.352751000000001",
	"enName":"4 El Gomhoureya St., El mansoura, El dakahleya"
},
		{	"profileId":"18021",
	"profileURL":"//www.yellowpages.com.eg/en/profile/metro-market/18021?b=7&k=19619&l=search",
	"arName":"الشطر الخامس - المنطقة الصناعية, زهراء المعادى, المعادى, القاهرة",
	"lat":"29.962185000000002",
	"lng":"31.321881999999999",
	"enName":"5Th Sector, Industrial Zone, Zahraa El Maadi, Maadi, Cairo"
},
		{	"profileId":"121690",
	"profileURL":"//www.yellowpages.com.eg/en/profile/metro-market/121690?b=10&k=19619&l=search",
	"arName":"16 ش 9 ميدان النافورة, المقطم, القاهرة",
	"lat":"30.014605",
	"lng":"31.280843999999998",
	"enName":"16 Rd. 9 El Nafoura Sq., Mokattam, Cairo"
},
		{	"profileId":"240615",
	"profileURL":"//www.yellowpages.com.eg/en/profile/metro-market/240615?b=12&k=19619&l=search",
	"arName":"حى النادى, مدينة الشروق, القاهرة",
	"lat":"30.135542000000001",
	"lng":"31.613351999999999",
	"enName":"El Nady District, El sherouk city, Cairo"
},
		{	"profileId":"109122",
	"profileURL":"//www.yellowpages.com.eg/en/profile/metro-market/109122?b=8&k=19619&l=search",
	"arName":"الطريق الدائرى - القطامية, التجمع الخامس, القاهرة الجديدة, القاهرة",
	"lat":"29.989136999999999",
	"lng":"31.405705999999999",
	"enName":"Ring Rd., El Qattameya, 5th Compound, New cairo, Cairo"
},
		{	"profileId":"511370",
	"profileURL":"//www.yellowpages.com.eg/en/profile/metro-market/511370?b=18&k=19619&l=search",
	"arName":"3 ش الكمال, حلمية الزيتون, القاهرة",
	"lat":"30.113894999999999",
	"lng":"31.314952000000002",
	"enName":"3 El Kamal St., Helmeyet el zaitoun, Cairo"
},
		{	"profileId":"229218",
	"profileURL":"//www.yellowpages.com.eg/en/profile/metro-market/229218?b=20&k=19619&l=search",
	"arName":"القطعة 68/67 - - منطقة خدمات الحى الاول, التجمع الخامس, القاهرة الجديدة, القاهرة",
	"lat":"30.004241",
	"lng":"31.424783000000001",
	"enName":"Plot 67/68, , 1St District Services Zone, 5th Compound, New cairo, Cairo"
},
		{	"profileId":"76130",
	"profileURL":"//www.yellowpages.com.eg/en/profile/metro-market/76130?b=45&k=19619&l=search",
	"arName":"5 ش المساحة, الدقى, الجيزة",
	"lat":"30.031994999999998",
	"lng":"31.213279",
	"enName":"5 El Messaha St., Dokki, Giza"
},
		{	"profileId":"76131",
	"profileURL":"//www.yellowpages.com.eg/en/profile/metro-market/76131?b=3&k=19619&l=search",
	"arName":"54 طريق مصر حلوان الزراعى - برج اللؤلؤة, المعادى, القاهرة",
	"lat":"29.965275999999999",
	"lng":"31.248857999999998",
	"enName":"54 Misr Helwan Agricultural Rd., El Loualoaa Tower, Maadi, Cairo"
},
		{	"profileId":"336004",
	"profileURL":"//www.yellowpages.com.eg/en/profile/metro-market/336004?b=28&k=19619&l=search",
	"arName":"المجاورة الثالثة - المحور المركزى - الحى الثالث, الشيخ زايد, السادس من اكتوبر, الجيزة",
	"lat":"30.030936000000001",
	"lng":"30.998421",
	"enName":"3rd Neighbourhood, Central Spine, 3rd District, El Sheikh Zayed, 6th of october, Giza"
},
		{	"profileId":"76132",
	"profileURL":"//www.yellowpages.com.eg/en/profile/metro-market/76132?b=35&k=19619&l=search",
	"arName":"10 ش ايران متفرع من ش التحرير, الدقى, الجيزة",
	"lat":"30.038796000000001",
	"lng":"31.209654",
	"enName":"10 Iran St. Off El Tahrir St., Dokki, Giza"
},
		{	"profileId":"76133",
	"profileURL":"//www.yellowpages.com.eg/en/profile/metro-market/76133?b=16&k=19619&l=search",
	"arName":"2 ش اسماعيل محمد تقاطع ش الجزيرة الوسطى, الزمالك, القاهرة",
	"lat":"30.065379",
	"lng":"31.216806999999999",
	"enName":"2 Ismail Mohamed St. Intersection Of El Gezirah El Wosta St., Zamalek, Cairo"
},
		{	"profileId":"547194",
	"profileURL":"//www.yellowpages.com.eg/en/profile/metro-market/547194?b=5&k=19619&l=search",
	"arName":"منطقة B1, مدينتى, القاهرة",
	"lat":"",
	"lng":"",
	"enName":"Zone B1, Madinty, Cairo"
},
		{	"profileId":"229227",
	"profileURL":"//www.yellowpages.com.eg/en/profile/metro-market/229227?b=13&k=19619&l=search",
	"arName":"مربع الوزراء - مربع 1174 -, مساكن شيراتون, مصر الجديدة, القاهرة",
	"lat":"30.095203000000001",
	"lng":"31.379937999999999",
	"enName":"El Wozaraa Square, Square 1174,, Sheraton Bldgs., Heliopolis, Cairo"
},
		{	"profileId":"191151",
	"profileURL":"//www.yellowpages.com.eg/en/profile/metro-market/191151?b=14&k=19619&l=search",
	"arName":"98 ش حسن المأمون, المنطقة السادسة, مدينة نصر, القاهرة",
	"lat":"30.067795",
	"lng":"31.356663999999999",
	"enName":"98 Hassan El Maamoun St., 6th Zone, Nasr city, Cairo"
},
		{	"profileId":"76134",
	"profileURL":"//www.yellowpages.com.eg/en/profile/metro-market/76134?b=19&k=19619&l=search",
	"arName":"17 ش الاهرام, الكوربة, مصر الجديدة, القاهرة",
	"lat":"30.085235000000001",
	"lng":"31.331409000000001",
	"enName":"17 El Ahram St., El Korba, Heliopolis, Cairo"
},
		{	"profileId":"147312",
	"profileURL":"//www.yellowpages.com.eg/en/profile/metro-market/147312?b=6&k=19619&l=search",
	"arName":"خدمة توصيل الطلبات للمنازل, زهراء المعادى, المعادى, القاهرة",
	"lat":"",
	"lng":"",
	"enName":"Home Delivery, Zahraa El Maadi, Maadi, Cairo"
},
		{	"profileId":"76135",
	"profileURL":"//www.yellowpages.com.eg/en/profile/metro-market/76135?b=46&k=19619&l=search",
	"arName":"32 ش سوريا, المهندسين, الجيزة",
	"lat":"30.052579999999999",
	"lng":"31.195982999999998",
	"enName":"32 Syria St., Mohandeseen, Giza"
},
		{	"profileId":"76136",
	"profileURL":"//www.yellowpages.com.eg/en/profile/metro-market/76136?b=25&k=19619&l=search",
	"arName":"21 ش اليمن, المهندسين, الجيزة",
	"lat":"30.058845999999999",
	"lng":"31.192923",
	"enName":"21 Yemen St., Mohandeseen, Giza"
},
		{	"profileId":"76137",
	"profileURL":"//www.yellowpages.com.eg/en/profile/metro-market/76137?b=11&k=19619&l=search",
	"arName":"2 ش الرياضة متفرع من ش البطراوى, المنطقة الاولى, مدينة نصر, القاهرة",
	"lat":"30.060321999999999",
	"lng":"31.330397000000001",
	"enName":"2 El Riada St. Off El Batrawy St., 1st Zone, Nasr city, Cairo"
},
		{	"profileId":"229125",
	"profileURL":"//www.yellowpages.com.eg/en/profile/metro-market/229125?b=37&k=19619&l=search",
	"arName":"61 ش الجيش متفرع من ش الجبرتى, حى الشرق, بور سعيد",
	"lat":"31.264987999999999",
	"lng":"32.311191999999998",
	"enName":"61 El Guish St. Off El Gabarty St., El shark district, Port said"
},
		{	"profileId":"76138",
	"profileURL":"//www.yellowpages.com.eg/en/profile/metro-market/76138?b=36&k=19619&l=search",
	"arName":"131 ش البرت الاول, سموحة, الاسكندرية",
	"lat":"31.214279000000001",
	"lng":"29.939572999999999",
	"enName":"131 Albert El Awal St., Semouha, Alexandria"
},
		{	"profileId":"159396",
	"profileURL":"//www.yellowpages.com.eg/en/profile/metro-market/159396?b=21&k=19619&l=search",
	"arName":"35 ش مكرم عبيد, المنطقة السادسة, مدينة نصر, القاهرة",
	"lat":"30.058737000000001",
	"lng":"31.345977999999999",
	"enName":"35 Makram Ebaid St., 6th Zone, Nasr city, Cairo"
},
		{	"profileId":"76139",
	"profileURL":"//www.yellowpages.com.eg/en/profile/metro-market/76139?b=39&k=19619&l=search",
	"arName":"601 طريق الحرية, زيزينيا, الاسكندرية",
	"lat":"31.240372000000001",
	"lng":"29.965848000000001",
	"enName":"601 El Horreya Rd., Zezenia, Alexandria"
},
		{	"profileId":"229220",
	"profileURL":"//www.yellowpages.com.eg/en/profile/metro-market/229220?b=42&k=19619&l=search",
	"arName":"18 ش الثورة متفرع من ش البطل احمد عبد العزيز, المهندسين, الجيزة",
	"lat":"30.047789000000002",
	"lng":"31.206475999999999",
	"enName":"18 El Thawra St. Off El Batal Ahmed Abdel Aziz St., Mohandeseen, Giza"
},
		{	"profileId":"377351",
	"profileURL":"//www.yellowpages.com.eg/en/profile/metro-market/377351?b=29&k=19619&l=search",
	"arName":"كم 107 - طريق اسكندرية مطروح الصحراوى, العلمين, الساحل الشمالى",
	"lat":"30.843602000000001",
	"lng":"28.945927999999999",
	"enName":"Km 107, Alex Matrouh Desert Rd., El alamein, North coast"
},
		{	"profileId":"134672",
	"profileURL":"//www.yellowpages.com.eg/en/profile/metro-market/134672?b=44&k=19619&l=search",
	"arName":"طريق السلام - كينيدى, السوق القديم, شرم الشيخ",
	"lat":"27.866562999999999",
	"lng":"34.299447000000001",
	"enName":"El Salam Rd., Kennedy, El souk el kadim, Sharm el sheikh"
},
		{	"profileId":"159354",
	"profileURL":"//www.yellowpages.com.eg/en/profile/metro-market/159354?b=2&k=19619&l=search",
	"arName":"المرحلة الثالثة, مدينة الرحاب, القاهرة",
	"lat":"30.061150999999999",
	"lng":"31.482616",
	"enName":"Phase 3, Al rehab city, Cairo"
},
		{	"profileId":"109914",
	"profileURL":"//www.yellowpages.com.eg/en/profile/metro-market/109914?b=15&k=19619&l=search",
	"arName":"16 ش 81 متفرع من ش 9, المعادى, القاهرة",
	"lat":"29.958697999999998",
	"lng":"31.260261",
	"enName":"16 Rd. 81 Off Rd. 9, Maadi, Cairo"
},
		{	"profileId":"109915",
	"profileURL":"//www.yellowpages.com.eg/en/profile/metro-market/109915?b=41&k=19619&l=search",
	"arName":"ش التحرير تقاطع ش الثورة - ش السلطان حسين سابقا, حى الافرنج, الاسماعيلية",
	"lat":"",
	"lng":"",
	"enName":"El Tahrir St. Intersection Of El Thawra St. - El Sultan Hussein St. Previously, El afrang district, Ismaileya"
}
	]
}]}