{"items":[{	"arName":"مشويات ع الفحم",
	"enName":"3al Fa7m",
	"hotline":"19647",
	"facebook":"http://www.facebook.com/3alfa7m",
	"web":"",
	"arCategory":[
		"مطاعم خليجية",
		"مشويات",
		"مطاعم",
		"مطاعم صالات طعام"
	],
	"enCategories":[
		"Gulf Cuisine",
		"B. B. Q.",
		"Restaurants",
		"Restaurants Eat Out"
	],
	"contacts":[
		{	"profileId":"516920",
	"profileURL":"//www.yellowpages.com.eg/en/profile/3al-fa7m/516920?b=3&k=19647&l=search",
	"arName":"كم 33 - طريق القاهرة السويس الصحراوى, مدينتى, القاهرة",
	"lat":"30.106171199999999",
	"lng":"31.631575300000002",
	"enName":"Km 33, Cairo Suez Desert Rd., Madinty, Cairo"
},
		{	"profileId":"389437",
	"profileURL":"//www.yellowpages.com.eg/en/profile/3al-fa7m/389437?b=1&k=19647&l=search",
	"arName":"السوق التجارى - محل 122, مدينة الرحاب, القاهرة",
	"lat":"30.056567000000001",
	"lng":"31.491710999999999",
	"enName":"Commercial Market, Shop 122, Al rehab city, Cairo"
},
		{	"profileId":"516921",
	"profileURL":"//www.yellowpages.com.eg/en/profile/3al-fa7m/516921?b=7&k=19647&l=search",
	"arName":"كم 30 - طريق شرم الشيخ الصحراوى - المشاية, رأس سدر, جنوب سيناء",
	"lat":"29.833869",
	"lng":"32.631625999999997",
	"enName":"Km 30, Sharm El Sheikh Desert Rd., El Mashaya, RAS SIDR, Ras sidr, South sinai"
},
		{	"profileId":"454857",
	"profileURL":"//www.yellowpages.com.eg/en/profile/3al-fa7m/454857?b=4&k=19647&l=search",
	"arName":"خدمة توصيل الطلبات للمنازل, مدينة الرحاب, القاهرة",
	"lat":"",
	"lng":"",
	"enName":"Home Delivery, Al rehab city, Cairo"
},
		{	"profileId":"516917",
	"profileURL":"//www.yellowpages.com.eg/en/profile/3al-fa7m/516917?b=5&k=19647&l=search",
	"arName":"., التجمع الخامس, القاهرة الجديدة, القاهرة",
	"lat":"30.00732",
	"lng":"31.425673",
	"enName":"., 5th Compound, New cairo, Cairo"
},
		{	"profileId":"516918",
	"profileURL":"//www.yellowpages.com.eg/en/profile/3al-fa7m/516918?b=2&k=19647&l=search",
	"arName":"170 ش النزهة, سانت فاتيما, مصر الجديدة, القاهرة",
	"lat":"30.106459000000001",
	"lng":"31.343966000000002",
	"enName":"170 El Nozha St., Saint Fatima, Heliopolis, Cairo"
},
		{	"profileId":"446596",
	"profileURL":"//www.yellowpages.com.eg/en/profile/3al-fa7m/446596?b=6&k=19647&l=search",
	"arName":"السوق التجارى - مارينا 4, مارينا, الساحل الشمالى",
	"lat":"30.828469800000001",
	"lng":"28.982976099999998",
	"enName":"Commercial Market, Marina 4, Marina, North coast"
}
	]
}]}