{"items":[{	"arName":"سرار - العز للتجارة والتوكيلات",
	"enName":"Sarar - El Ezz For Trade & Agencies",
	"hotline":"19756",
	"facebook":"http://www.facebook.com/pages/Sarar-Egypt-Official/134919786557126",
	"web":"http://www.sarar.com/",
	"arCategory":[
		"ملابس - تسوق"
	],
	"enCategories":[
		"Clothing - Shopping"
	],
	"contacts":[
		{	"profileId":"127736",
	"profileURL":"//www.yellowpages.com.eg/en/profile/sarar-_-el-ezz-for-trade-&-agencies/127736?b=1&k=19756&l=search",
	"arName":"ش عمر بن الخطاب, مصر الجديدة, القاهرة",
	"lat":"30.073031",
	"lng":"31.347348",
	"enName":"Omar Ibn El Khattab St., Heliopolis, Cairo"
},
		{	"profileId":"389205",
	"profileURL":"//www.yellowpages.com.eg/en/profile/sarar-_-el-ezz-for-trade-&-agencies/389205?b=3&k=19756&l=search",
	"arName":"75 طريق النصر - الدور 2, مدينة نصر, القاهرة",
	"lat":"30.067571999999998",
	"lng":"31.329775000000001",
	"enName":"75 El Nasr Rd., Floor 2, Nasr city, Cairo"
},
		{	"profileId":"392297",
	"profileURL":"//www.yellowpages.com.eg/en/profile/sarar-_-el-ezz-for-trade-&-agencies/392297?b=5&k=19756&l=search",
	"arName":"ش الثورة, الماظة, مصر الجديدة, القاهرة",
	"lat":"30.085702999999999",
	"lng":"31.336473000000002",
	"enName":"El Thawra St., Almaza, Heliopolis, Cairo"
},
		{	"profileId":"245234",
	"profileURL":"//www.yellowpages.com.eg/en/profile/sarar-_-el-ezz-for-trade-&-agencies/245234?b=4&k=19756&l=search",
	"arName":"80 ش جوزيف تيتو, النزهة الجديدة, القاهرة",
	"lat":"30.125813999999998",
	"lng":"31.377575",
	"enName":"80 Joseph Tito St., El nozha el gadida, Cairo"
},
		{	"profileId":"217450",
	"profileURL":"//www.yellowpages.com.eg/en/profile/sarar-_-el-ezz-for-trade-&-agencies/217450?b=8&k=19756&l=search",
	"arName":"7 ش وادى النيل, المهندسين, الجيزة",
	"lat":"30.054998000000001",
	"lng":"31.201602000000001",
	"enName":"7 Wadi El Nil St., Mohandeseen, Giza"
},
		{	"profileId":"134793",
	"profileURL":"//www.yellowpages.com.eg/en/profile/sarar-_-el-ezz-for-trade-&-agencies/134793?b=7&k=19756&l=search",
	"arName":"كم 6 -, طريق الاسكندرية القاهرة الصحرا, طريق الاسكندرية القاهرة الصحراوى, الاسكندرية",
	"lat":"31.167404000000001",
	"lng":"29.933047999999999",
	"enName":"Km 6,, Alex. cairo desert rd., Alexandria"
},
		{	"profileId":"315698",
	"profileURL":"//www.yellowpages.com.eg/en/profile/sarar-_-el-ezz-for-trade-&-agencies/315698?b=9&k=19756&l=search",
	"arName":"ميدان جهينة, السادس من اكتوبر, الجيزة",
	"lat":"30.005434000000001",
	"lng":"30.974428",
	"enName":"Juhaina Sq., 6th of october, Giza"
},
		{	"profileId":"463233",
	"profileURL":"//www.yellowpages.com.eg/en/profile/sarar-_-el-ezz-for-trade-&-agencies/463233?b=6&k=19756&l=search",
	"arName":"الطريق الدائرى, كايرو فيستيفال, القاهرة الجديدة, القاهرة",
	"lat":"30.028863000000001",
	"lng":"31.407785000000001",
	"enName":"Ring Rd., Cairo Festival City, New cairo, Cairo"
},
		{	"profileId":"323796",
	"profileURL":"//www.yellowpages.com.eg/en/profile/sarar-_-el-ezz-for-trade-&-agencies/323796?b=2&k=19756&l=search",
	"arName":"خدمة العملاء, مصر الجديدة, القاهرة",
	"lat":"",
	"lng":"",
	"enName":"customer Service, Heliopolis, Cairo"
}
	]
}]}