{"items":[{	"arName":"يونيفرسال جروب",
	"enName":"Universal Group Co.",
	"hotline":"19797",
	"facebook":"http://www.facebook.com/UniversalHomeAppliances",
	"web":"http://www.universalgroup.org/",
	"arCategory":[
		"اجهزة منزلية"
	],
	"enCategories":[
		"Appliances"
	],
	"contacts":[
		{	"profileId":"126070",
	"profileURL":"//www.yellowpages.com.eg/en/profile/universal-group-co./126070?b=3&k=19797&l=search",
	"arName":"10 ش البستان, وسط البلد, قنا",
	"lat":"26.155062000000001",
	"lng":"32.716372999999997",
	"enName":"10 El Bostan St., Downtown, Qena"
},
		{	"profileId":"391452",
	"profileURL":"//www.yellowpages.com.eg/en/profile/universal-group-co./391452?b=2&k=19797&l=search",
	"arName":"27 ش محمد حسن الجمل متفرع من ش عباس العقاد, مدينة نصر, القاهرة",
	"lat":"30.067235",
	"lng":"31.341940000000001",
	"enName":"27 Mohamed Hassan El Gamal St. Off Abbas El Akkad St., Nasr city, Cairo"
},
		{	"profileId":"5896",
	"profileURL":"//www.yellowpages.com.eg/en/profile/universal-group-co./5896?b=1&k=19797&l=search",
	"arName":"20 ش سوريا, المهندسين, الجيزة",
	"lat":"30.052762000000001",
	"lng":"31.197465000000001",
	"enName":"20 Syria St., Mohandeseen, Giza"
},
		{	"profileId":"126069",
	"profileURL":"//www.yellowpages.com.eg/en/profile/universal-group-co./126069?b=6&k=19797&l=search",
	"arName":"23 ش عمر بن عبد العزيز, حى شرق, اسيوط",
	"lat":"27.184850999999998",
	"lng":"31.184654999999999",
	"enName":"23 Omar Ibn Abdel Aziz St., Shark district, Assyout"
},
		{	"profileId":"449596",
	"profileURL":"//www.yellowpages.com.eg/en/profile/universal-group-co./449596?b=4&k=19797&l=search",
	"arName":"الحى الثالث, الشيخ زايد, الاسماعيلية",
	"lat":"30.604711000000002",
	"lng":"32.292520000000003",
	"enName":"3rd District, El sheikh zayed, Ismaileya"
},
		{	"profileId":"181133",
	"profileURL":"//www.yellowpages.com.eg/en/profile/universal-group-co./181133?b=5&k=19797&l=search",
	"arName":"خدمة العملاء, المهندسين, الجيزة",
	"lat":"",
	"lng":"",
	"enName":"Customer Service, Mohandeseen, Giza"
},
		{	"profileId":"153608",
	"profileURL":"//www.yellowpages.com.eg/en/profile/universal-group-co./153608?b=7&k=19797&l=search",
	"arName":"1 ش عمر بن الخطاب - ارض الحرية, بنى سويف, بنى سويف",
	"lat":"",
	"lng":"",
	"enName":"1 Omar Ibn El Khattab St., Ard El Horreya, Benisuef, Benisuef"
}
	]
}]}