{"items":[{	"arName":"اس ام جى - الشركة الهندسية للسيارات",
	"enName":"SMG - Engineering Automotive Co.",
	"hotline":"19862",
	"facebook":"http://www.facebook.com/SMGautomotive",
	"web":"http://www.smg.com.eg/",
	"arCategory":[
		"سيارات - وكلاء حصريون - سيارات جديدة",
		"سيارات - قطع غيار وكماليات"
	],
	"enCategories":[
		"Cars - Sole Agents, New Cars",
		"Cars - Parts & Accessories"
	],
	"contacts":[
		{	"profileId":"454760",
	"profileURL":"//www.yellowpages.com.eg/en/profile/smg-_-engineering-automotive-co./454760?b=12&k=19862&l=search",
	"arName":"محور 26 يوليو, الشيخ زايد, السادس من اكتوبر, الجيزة",
	"lat":"30.0249956",
	"lng":"31.013203900000001",
	"enName":"26th Of July Spine, El Sheikh Zayed, 6th of october, Giza"
},
		{	"profileId":"131540",
	"profileURL":"//www.yellowpages.com.eg/en/profile/smg-_-engineering-automotive-co./131540?b=14&k=19862&l=search",
	"arName":"19 ش عبد السلام عارف, المنصورة, الدقهلية",
	"lat":"31.033272",
	"lng":"31.382339000000002",
	"enName":"19 Abdel Salam Aref St., El mansoura, El dakahleya"
},
		{	"profileId":"91304",
	"profileURL":"//www.yellowpages.com.eg/en/profile/smg-_-engineering-automotive-co./91304?b=4&k=19862&l=search",
	"arName":"12 ابراج اغاخان - ش دولتيان - الخلفاوى, شبرا, القاهرة",
	"lat":"30.100783",
	"lng":"31.241502000000001",
	"enName":"12 Aghakhan Towers, Dawletian St., El Khalafawy, Shoubra, Cairo"
},
		{	"profileId":"110561",
	"profileURL":"//www.yellowpages.com.eg/en/profile/smg-_-engineering-automotive-co./110561?b=1&k=19862&l=search",
	"arName":"211 ش رمسيس, وسط البلد, القاهرة",
	"lat":"30.065300000000001",
	"lng":"31.257100000000001",
	"enName":"211 Ramsis St., Downtown, Cairo"
},
		{	"profileId":"91285",
	"profileURL":"//www.yellowpages.com.eg/en/profile/smg-_-engineering-automotive-co./91285?b=7&k=19862&l=search",
	"arName":"1 ش محمود صدقى متفرع من ش المراغى, العجوزة, الجيزة",
	"lat":"30.0488",
	"lng":"31.212499999999999",
	"enName":"1 Mahmoud Sedqy St. off el maraghy st., Agouza, Giza"
},
		{	"profileId":"110558",
	"profileURL":"//www.yellowpages.com.eg/en/profile/smg-_-engineering-automotive-co./110558?b=5&k=19862&l=search",
	"arName":"1 ش وادى النيل متفرع من ش جامعة الدول العربية, المهندسين, الجيزة",
	"lat":"30.054266999999999",
	"lng":"31.201771999999998",
	"enName":"1 Wadi El Nil St. Off Gamaet El Dewal El Arabeya St., Mohandeseen, Giza"
},
		{	"profileId":"120522",
	"profileURL":"//www.yellowpages.com.eg/en/profile/smg-_-engineering-automotive-co./120522?b=2&k=19862&l=search",
	"arName":"5 ش معروف, وسط البلد, القاهرة",
	"lat":"30.050000000000001",
	"lng":"31.238600000000002",
	"enName":"5 Maarouf St., Downtown, Cairo"
},
		{	"profileId":"187230",
	"profileURL":"//www.yellowpages.com.eg/en/profile/smg-_-engineering-automotive-co./187230?b=10&k=19862&l=search",
	"arName":"خدمة العملاء, الشيخ زايد, السادس من اكتوبر, الجيزة",
	"lat":"",
	"lng":"",
	"enName":"customer service, El Sheikh Zayed, 6th of october, Giza"
},
		{	"profileId":"198526",
	"profileURL":"//www.yellowpages.com.eg/en/profile/smg-_-engineering-automotive-co./198526?b=13&k=19862&l=search",
	"arName":"29 ش النبى دانيال - مركز الغنيمى الادارى, محطة الرمل, الاسكندرية",
	"lat":"31.195142000000001",
	"lng":"29.901624999999999",
	"enName":"29 El Nabi Daniel St., El Ghonaimey Administrative Center, Raml station, Alexandria"
},
		{	"profileId":"142587",
	"profileURL":"//www.yellowpages.com.eg/en/profile/smg-_-engineering-automotive-co./142587?b=8&k=19862&l=search",
	"arName":"406 طريق الحرية, مصطفى كامل, الاسكندرية",
	"lat":"31.225418000000001",
	"lng":"29.947675",
	"enName":"406 El Horreya Rd., Mostafa kamel, Alexandria"
},
		{	"profileId":"60324",
	"profileURL":"//www.yellowpages.com.eg/en/profile/smg-_-engineering-automotive-co./60324?b=11&k=19862&l=search",
	"arName":"89 ش ترعة الزمر, ارض اللواء, الجيزة",
	"lat":"30.063286000000002",
	"lng":"31.186596999999999",
	"enName":"89 Teraet El Zomor St., Ard el lewaa, Giza"
},
		{	"profileId":"139135",
	"profileURL":"//www.yellowpages.com.eg/en/profile/smg-_-engineering-automotive-co./139135?b=9&k=19862&l=search",
	"arName":"القطعة 148 - - المنطقة الصناعية الثالثة, السادس من اكتوبر, الجيزة",
	"lat":"29.916741999999999",
	"lng":"30.893719000000001",
	"enName":"Plot 148, , 3rd Industrial Zone, 6th of october, Giza"
},
		{	"profileId":"120524",
	"profileURL":"//www.yellowpages.com.eg/en/profile/smg-_-engineering-automotive-co./120524?b=3&k=19862&l=search",
	"arName":"55 ش القبيصى, الظاهر, القاهرة",
	"lat":"30.064399999999999",
	"lng":"31.257000000000001",
	"enName":"55 El Qobeisy St., El zaher, Cairo"
},
		{	"profileId":"120525",
	"profileURL":"//www.yellowpages.com.eg/en/profile/smg-_-engineering-automotive-co./120525?b=15&k=19862&l=search",
	"arName":"31 ش 45 - ش ابن سعد سابقا, ميامى, الاسكندرية",
	"lat":"31.269347",
	"lng":"29.998901",
	"enName":"31 Rd. 45 - Ibn Saad St. Previously, Miami, Alexandria"
},
		{	"profileId":"120526",
	"profileURL":"//www.yellowpages.com.eg/en/profile/smg-_-engineering-automotive-co./120526?b=6&k=19862&l=search",
	"arName":"ش 25 متفرع من ش جسر السلطان, حى غرب, اسيوط",
	"lat":"",
	"lng":"",
	"enName":"Rd. 25 Off Gesr El Sultan St., Gharb district, Assyout"
}
	]
}]}