{"items":[{	"arName":"مكتبات سمير وعلى",
	"enName":"Samir & Aly Stationery Houses",
	"hotline":"19891",
	"facebook":"http://www.facebook.com/SamirAlyStationeryHousesCo",
	"web":"http://www.samirandaly.com/",
	"arCategory":[
		"ادوات مكتبية"
	],
	"enCategories":[
		"Stationery"
	],
	"contacts":[
		{	"profileId":"455179",
	"profileURL":"//www.yellowpages.com.eg/en/profile/samir-&-aly-stationery-houses/455179?b=23&k=19891&l=search",
	"arName":"20 ش العدلى متفرع من ش محمود رشوان, اسيوط, اسيوط",
	"lat":"27.191768",
	"lng":"31.182293999999999",
	"enName":"20 El Adly St. Off Mahmoud Rashwan St., Assyout, Assyout"
},
		{	"profileId":"166718",
	"profileURL":"//www.yellowpages.com.eg/en/profile/samir-&-aly-stationery-houses/166718?b=7&k=19891&l=search",
	"arName":"88 ش الثورة, الماظة, مصر الجديدة, القاهرة",
	"lat":"30.082813999999999",
	"lng":"31.343191000000001",
	"enName":"88 El Thawra St., Almaza, Heliopolis, Cairo"
},
		{	"profileId":"289532",
	"profileURL":"//www.yellowpages.com.eg/en/profile/samir-&-aly-stationery-houses/289532?b=17&k=19891&l=search",
	"arName":"محور 26 يوليو, الحى المتميز, السادس من اكتوبر, الجيزة",
	"lat":"29.994405",
	"lng":"30.962913",
	"enName":"26th Of July Spine, El Motamayez District, 6th of october, Giza"
},
		{	"profileId":"449242",
	"profileURL":"//www.yellowpages.com.eg/en/profile/samir-&-aly-stationery-houses/449242?b=6&k=19891&l=search",
	"arName":"الطريق الدائرى, كايرو فيستيفال, القاهرة الجديدة, القاهرة",
	"lat":"30.028863000000001",
	"lng":"31.407785000000001",
	"enName":"Ring Rd., Cairo Festival City, New cairo, Cairo"
},
		{	"profileId":"245226",
	"profileURL":"//www.yellowpages.com.eg/en/profile/samir-&-aly-stationery-houses/245226?b=12&k=19891&l=search",
	"arName":"القطعة A - ش التسعين - مركز المدينة, التجمع الخامس, القاهرة الجديدة, القاهرة",
	"lat":"30.016922000000001",
	"lng":"31.412593999999999",
	"enName":"Plot A, El Tesaeen St., City Center, 5th Compound, New cairo, Cairo"
},
		{	"profileId":"288326",
	"profileURL":"//www.yellowpages.com.eg/en/profile/samir-&-aly-stationery-houses/288326?b=14&k=19891&l=search",
	"arName":"4 ش حسن المأمون, مدينة نصر, القاهرة",
	"lat":"30.059805000000001",
	"lng":"31.358163999999999",
	"enName":"4 Hassan El Maamoun St., Nasr city, Cairo"
},
		{	"profileId":"390042",
	"profileURL":"//www.yellowpages.com.eg/en/profile/samir-&-aly-stationery-houses/390042?b=21&k=19891&l=search",
	"arName":"ش المحمدى حويدق - الممشى السياحى - مبارك 2, الكوثر, الغردقة",
	"lat":"27.193853000000001",
	"lng":"33.829028999999998",
	"enName":"El Mohamady Howaidaq St., Touristic Passage, Mubarak 2, El kawther, Hurghada"
},
		{	"profileId":"116527",
	"profileURL":"//www.yellowpages.com.eg/en/profile/samir-&-aly-stationery-houses/116527?b=3&k=19891&l=search",
	"arName":"ش عمر بن الخطاب, مصر الجديدة, القاهرة",
	"lat":"30.073031",
	"lng":"31.347348",
	"enName":"Omar Ibn El Khattab St., Heliopolis, Cairo"
},
		{	"profileId":"378824",
	"profileURL":"//www.yellowpages.com.eg/en/profile/samir-&-aly-stationery-houses/378824?b=15&k=19891&l=search",
	"arName":"القطعة 5106 - ش 9, المقطم, القاهرة",
	"lat":"30.012729700000001",
	"lng":"31.291017799999999",
	"enName":"Plot 5106, Rd. 9, Mokattam, Cairo"
},
		{	"profileId":"79201",
	"profileURL":"//www.yellowpages.com.eg/en/profile/samir-&-aly-stationery-houses/79201?b=19&k=19891&l=search",
	"arName":"8 ش مراد, الجيزة, الجيزة",
	"lat":"30.016496",
	"lng":"31.213222999999999",
	"enName":"8 Mourad St., Giza, Giza"
},
		{	"profileId":"79200",
	"profileURL":"//www.yellowpages.com.eg/en/profile/samir-&-aly-stationery-houses/79200?b=1&k=19891&l=search",
	"arName":"71 ش النصر, المعادى الجديدة, المعادى, القاهرة",
	"lat":"29.973244999999999",
	"lng":"31.272652999999998",
	"enName":"71 El Nasr St., New Maadi, Maadi, Cairo"
},
		{	"profileId":"79203",
	"profileURL":"//www.yellowpages.com.eg/en/profile/samir-&-aly-stationery-houses/79203?b=9&k=19891&l=search",
	"arName":"2 ابراج النيل - ش طه حسين, الزمالك, القاهرة",
	"lat":"30.063966000000001",
	"lng":"31.220509",
	"enName":"2 El Nil Towers, Taha Hussein St., Zamalek, Cairo"
},
		{	"profileId":"79202",
	"profileURL":"//www.yellowpages.com.eg/en/profile/samir-&-aly-stationery-houses/79202?b=4&k=19891&l=search",
	"arName":"78 ش العباسية, عباسية, القاهرة",
	"lat":"30.065799999999999",
	"lng":"31.277100000000001",
	"enName":"78 Abbaseya St., Abbasseya, Cairo"
},
		{	"profileId":"79213",
	"profileURL":"//www.yellowpages.com.eg/en/profile/samir-&-aly-stationery-houses/79213?b=20&k=19891&l=search",
	"arName":"21 ش شهاب, المهندسين, الجيزة",
	"lat":"30.052046000000001",
	"lng":"31.195585999999999",
	"enName":"21 Shehab St., Mohandeseen, Giza"
},
		{	"profileId":"116773",
	"profileURL":"//www.yellowpages.com.eg/en/profile/samir-&-aly-stationery-houses/116773?b=18&k=19891&l=search",
	"arName":"12 ش الدقى, الدقى, الجيزة",
	"lat":"30.034784999999999",
	"lng":"31.211659000000001",
	"enName":"12 Dokki St., Dokki, Giza"
},
		{	"profileId":"116530",
	"profileURL":"//www.yellowpages.com.eg/en/profile/samir-&-aly-stationery-houses/116530?b=8&k=19891&l=search",
	"arName":"8 أ ش السرايات, عباسية, القاهرة",
	"lat":"30.066199999999998",
	"lng":"31.2789",
	"enName":"8 A El Sarayat St., Abbasseya, Cairo"
},
		{	"profileId":"79204",
	"profileURL":"//www.yellowpages.com.eg/en/profile/samir-&-aly-stationery-houses/79204?b=13&k=19891&l=search",
	"arName":"4 عمارات عثمان - ش الاثرى محمد بن نافع, روكسى, مصر الجديدة, القاهرة",
	"lat":"30.093564000000001",
	"lng":"31.317077999999999",
	"enName":"4 Othman Bldgs., El Athary Mohamed Ibn Nafea St., Roxy, Heliopolis, Cairo"
},
		{	"profileId":"141236",
	"profileURL":"//www.yellowpages.com.eg/en/profile/samir-&-aly-stationery-houses/141236?b=16&k=19891&l=search",
	"arName":"خدمة العملاء, الجيزة, الجيزة",
	"lat":"",
	"lng":"",
	"enName":"Customer Service, Giza, Giza"
},
		{	"profileId":"79206",
	"profileURL":"//www.yellowpages.com.eg/en/profile/samir-&-aly-stationery-houses/79206?b=2&k=19891&l=search",
	"arName":"23 ش شريف, وسط البلد, القاهرة",
	"lat":"30.049719",
	"lng":"31.242488000000002",
	"enName":"23 Sherif St., Downtown, Cairo"
},
		{	"profileId":"212744",
	"profileURL":"//www.yellowpages.com.eg/en/profile/samir-&-aly-stationery-houses/212744?b=11&k=19891&l=search",
	"arName":"السوق التجارى, مدينة الرحاب, القاهرة",
	"lat":"30.056567000000001",
	"lng":"31.491710999999999",
	"enName":"Commercial Market, Al rehab city, Cairo"
},
		{	"profileId":"284422",
	"profileURL":"//www.yellowpages.com.eg/en/profile/samir-&-aly-stationery-houses/284422?b=5&k=19891&l=search",
	"arName":"64 ش ذاكر حسين, الحى السابع, مدينة نصر, القاهرة",
	"lat":"30.044768999999999",
	"lng":"31.337291",
	"enName":"64 Zaker Hussein St., 7th District, Nasr city, Cairo"
},
		{	"profileId":"79208",
	"profileURL":"//www.yellowpages.com.eg/en/profile/samir-&-aly-stationery-houses/79208?b=10&k=19891&l=search",
	"arName":"25 ش شريف, وسط البلد, القاهرة",
	"lat":"30.049600000000002",
	"lng":"31.2425",
	"enName":"25 Sherif St., Downtown, Cairo"
},
		{	"profileId":"190314",
	"profileURL":"//www.yellowpages.com.eg/en/profile/samir-&-aly-stationery-houses/190314?b=24&k=19891&l=search",
	"arName":"طريق مصر اسماعيلية الصحراوى - جولف سيتى, مدينة العبور, القليوبية",
	"lat":"30.174412",
	"lng":"31.474615",
	"enName":"Misr Ismaileya Desert Rd., Golf City, Obour city, Kaliobeya"
},
		{	"profileId":"439647",
	"profileURL":"//www.yellowpages.com.eg/en/profile/samir-&-aly-stationery-houses/439647?b=22&k=19891&l=search",
	"arName":"90 ش فوزى معاذ, سموحة, الاسكندرية",
	"lat":"31.212531999999999",
	"lng":"29.939304",
	"enName":"90 Fawzy Moaz St., Semouha, Alexandria"
}
	]
}]}