{"items":[{	"arName":"مؤسسة مصطفى السلاب",
	"enName":"Mostafa El Sallab Establishment",
	"hotline":"19904",
	"facebook":"http://www.facebook.com/elsallab.establishment",
	"web":"http://www.elsallab.org/",
	"arCategory":[
		"سيراميك وبورسيلين منتجات"
	],
	"enCategories":[
		"Ceramic & Porcelain"
	],
	"contacts":[
		{	"profileId":"70963",
	"profileURL":"//www.yellowpages.com.eg/en/profile/mostafa-el-sallab-establishment/70963?b=1&k=19904&l=search",
	"arName":"30 برج السلاب - ش مكرم عبيد, المنطقة السادسة, مدينة نصر, القاهرة",
	"lat":"30.057866000000001",
	"lng":"31.345490999999999",
	"enName":"30 El Sallab Tower, Makram Ebaid St., 6th Zone, Nasr city, Cairo"
},
		{	"profileId":"560451",
	"profileURL":"//www.yellowpages.com.eg/en/profile/mostafa-el-sallab-establishment/560451?b=8&k=19904&l=search",
	"arName":"كم 130 - طريق اسكندرية مطروح الصحراوى, سيدى عبد الرحمن, الساحل الشمالى",
	"lat":"30.972016",
	"lng":"28.73678",
	"enName":"Km 130, Alex Matrouh Desert Rd., Sidi abdel rahman, North coast"
},
		{	"profileId":"442564",
	"profileURL":"//www.yellowpages.com.eg/en/profile/mostafa-el-sallab-establishment/442564?b=9&k=19904&l=search",
	"arName":"كم 70 -, طريق اسكندرية مطروح الصحراوى, الساحل الشمالى",
	"lat":"30.855889999999999",
	"lng":"29.295216",
	"enName":"Km 70,, Alex. matrouh desert rd., North coast"
},
		{	"profileId":"97315",
	"profileURL":"//www.yellowpages.com.eg/en/profile/mostafa-el-sallab-establishment/97315?b=2&k=19904&l=search",
	"arName":"5 أ ش دمشق, روكسى, مصر الجديدة, القاهرة",
	"lat":"30.092742999999999",
	"lng":"31.319057000000001",
	"enName":"5 A Demascus St., Roxy, Heliopolis, Cairo"
},
		{	"profileId":"455185",
	"profileURL":"//www.yellowpages.com.eg/en/profile/mostafa-el-sallab-establishment/455185?b=3&k=19904&l=search",
	"arName":"الطريق الدائرى, القطامية, القاهرة",
	"lat":"29.982855099999998",
	"lng":"31.3398033",
	"enName":"Ring Rd., El katameya, Cairo"
},
		{	"profileId":"92624",
	"profileURL":"//www.yellowpages.com.eg/en/profile/mostafa-el-sallab-establishment/92624?b=4&k=19904&l=search",
	"arName":"1 ش السلاب متفرع من ش الميثاق , زهراء مدينة نصر, مدينة نصر, القاهرة",
	"lat":"30.052163",
	"lng":"31.392741000000001",
	"enName":"1 El Sallab St. Off El Mithaq St., Zahraa Nasr City, Nasr city, Cairo"
},
		{	"profileId":"133585",
	"profileURL":"//www.yellowpages.com.eg/en/profile/mostafa-el-sallab-establishment/133585?b=5&k=19904&l=search",
	"arName":"خدمة العملاء, المنطقة السادسة, مدينة نصر, القاهرة",
	"lat":"",
	"lng":"",
	"enName":"Customer Service, 6th Zone, Nasr city, Cairo"
},
		{	"profileId":"3463",
	"profileURL":"//www.yellowpages.com.eg/en/profile/mostafa-el-sallab-establishment/3463?b=10&k=19904&l=search",
	"arName":"6 ش الاحرار متفرع من ش البطل احمد عبد العزيز , المهندسين, الجيزة",
	"lat":"30.0486",
	"lng":"31.2072",
	"enName":"6 El Ahrar St. Off El Batal Ahmed Abdel Aziz St., Mohandeseen, Giza"
},
		{	"profileId":"475431",
	"profileURL":"//www.yellowpages.com.eg/en/profile/mostafa-el-sallab-establishment/475431?b=11&k=19904&l=search",
	"arName":"395 ش الهرم, الهرم, الجيزة",
	"lat":"30.006243000000001",
	"lng":"31.193307999999998",
	"enName":"395 Haram St., El haram, Giza"
},
		{	"profileId":"416375",
	"profileURL":"//www.yellowpages.com.eg/en/profile/mostafa-el-sallab-establishment/416375?b=6&k=19904&l=search",
	"arName":"628 طريق الحرية, جناكليس, الاسكندرية",
	"lat":"31.241879999999998",
	"lng":"29.967645000000001",
	"enName":"628 El Horreya Rd., Ganaklis, Alexandria"
},
		{	"profileId":"456213",
	"profileURL":"//www.yellowpages.com.eg/en/profile/mostafa-el-sallab-establishment/456213?b=7&k=19904&l=search",
	"arName":"ابراج الدلتا - طريق القاهرة اسكندرية الزراعى, طنطا, الغربية",
	"lat":"30.794121000000001",
	"lng":"30.982268000000001",
	"enName":"El Delta Towers, Cairo Alex Agricultural Rd., Tanta, El gharbeya"
}
	]
}]}