{"items":[{	"arName":"اجهزة اطفاء الحريق - بافاريا",
	"enName":"Bavaria - Fire Fighting Solutions",
	"hotline":"19944",
	"facebook":"",
	"web":"http://www.bavaria-firefighting.com/",
	"arCategory":[
		"حريق مكافحة وحماية ومعدات"
	],
	"enCategories":[
		"Fire Protection Equipment"
	],
	"contacts":[
		{	"profileId":"395046",
	"profileURL":"//www.yellowpages.com.eg/en/profile/bavaria-_-fire-fighting-solutions/395046?b=18&k=19944&l=search",
	"arName":"144 ش سعد زغلول, وسط البلد, الفيوم",
	"lat":"29.310411999999999",
	"lng":"30.857814000000001",
	"enName":"144 Saad Zaghloul St., Downtown, El fayoum"
},
		{	"profileId":"395022",
	"profileURL":"//www.yellowpages.com.eg/en/profile/bavaria-_-fire-fighting-solutions/395022?b=16&k=19944&l=search",
	"arName":"337 ش 23 يوليو - برج النصر - عمارة 18, حى السويس, السويس",
	"lat":"29.964613",
	"lng":"32.556108000000002",
	"enName":"337 23rd Of July St., El Nasr Tower, Bldg. 18, Suez district, Suez"
},
		{	"profileId":"395044",
	"profileURL":"//www.yellowpages.com.eg/en/profile/bavaria-_-fire-fighting-solutions/395044?b=26&k=19944&l=search",
	"arName":"القطعة 30 - - محور خدمات الحى الثانى, مدينة السادات, المنوفية",
	"lat":"30.363143999999998",
	"lng":"30.510549000000001",
	"enName":"Plot 30, , 2nd District Services Spine, Sadat city, El monofeya"
},
		{	"profileId":"108584",
	"profileURL":"//www.yellowpages.com.eg/en/profile/bavaria-_-fire-fighting-solutions/108584?b=2&k=19944&l=search",
	"arName":"108 ش جسر السويس, جسر السويس, القاهرة",
	"lat":"30.119184000000001",
	"lng":"31.339449999999999",
	"enName":"108 Gesr El Suez St., Gesr el suez, Cairo"
},
		{	"profileId":"108585",
	"profileURL":"//www.yellowpages.com.eg/en/profile/bavaria-_-fire-fighting-solutions/108585?b=4&k=19944&l=search",
	"arName":"خدمة العملاء, وسط البلد, القاهرة",
	"lat":"",
	"lng":"",
	"enName":"Customer Service, Downtown, Cairo"
},
		{	"profileId":"103772",
	"profileURL":"//www.yellowpages.com.eg/en/profile/bavaria-_-fire-fighting-solutions/103772?b=8&k=19944&l=search",
	"arName":"القطعة 109 - طريق مصر اسماعيلية الصحراوى - المنطقة الصناعية, جسر السويس, القاهرة",
	"lat":"30.132676",
	"lng":"31.377531999999999",
	"enName":"Plot 109, Misr Ismaileya Desert Rd., Industrial Zone, Gesr el suez, Cairo"
},
		{	"profileId":"231074",
	"profileURL":"//www.yellowpages.com.eg/en/profile/bavaria-_-fire-fighting-solutions/231074?b=6&k=19944&l=search",
	"arName":"15 ش عماد الدين, وسط البلد, القاهرة",
	"lat":"30.055852999999999",
	"lng":"31.244586000000002",
	"enName":"15 Emad El Din St., Downtown, Cairo"
},
		{	"profileId":"231069",
	"profileURL":"//www.yellowpages.com.eg/en/profile/bavaria-_-fire-fighting-solutions/231069?b=3&k=19944&l=search",
	"arName":"9 ش نجيب الريحانى, وسط البلد, القاهرة",
	"lat":"30.056522000000001",
	"lng":"31.244537000000001",
	"enName":"9 Naguib El Rihany St., Downtown, Cairo"
},
		{	"profileId":"475036",
	"profileURL":"//www.yellowpages.com.eg/en/profile/bavaria-_-fire-fighting-solutions/475036?b=27&k=19944&l=search",
	"arName":"المجاورة التاسعة, الحى السادس, السادس من اكتوبر, الجيزة",
	"lat":"29.941462999999999",
	"lng":"30.913568999999999",
	"enName":"9th Neighbourhood, 6th District, 6th of october, Giza"
},
		{	"profileId":"136282",
	"profileURL":"//www.yellowpages.com.eg/en/profile/bavaria-_-fire-fighting-solutions/136282?b=10&k=19944&l=search",
	"arName":"13 ش النادى, طنطا, الغربية",
	"lat":"30.7960344",
	"lng":"30.995245600000001",
	"enName":"13 El Nady St., Tanta, El gharbeya"
},
		{	"profileId":"136285",
	"profileURL":"//www.yellowpages.com.eg/en/profile/bavaria-_-fire-fighting-solutions/136285?b=20&k=19944&l=search",
	"arName":"23 ش محفوظ العجرودى متفرع من ش عبد الهادى غزالى, حى الشرق, بور سعيد",
	"lat":"31.2658159",
	"lng":"32.305211999999997",
	"enName":"23 Mahfouz El Agroudi St. Off Abdel Hady Ghazaly St., El shark district, Port said"
},
		{	"profileId":"136284",
	"profileURL":"//www.yellowpages.com.eg/en/profile/bavaria-_-fire-fighting-solutions/136284?b=14&k=19944&l=search",
	"arName":"ش التطبيقيين متفرع من ش شبين الكوم, حى ثالث, الاسماعيلية",
	"lat":"30.602864",
	"lng":"32.276158000000002",
	"enName":"El Tatbiqeyeen St. Off Shebin El Koum St., Third district, Ismaileya"
},
		{	"profileId":"395033",
	"profileURL":"//www.yellowpages.com.eg/en/profile/bavaria-_-fire-fighting-solutions/395033?b=22&k=19944&l=search",
	"arName":"51 ش الجيش, المنصورة, الدقهلية",
	"lat":"31.039173999999999",
	"lng":"31.394998000000001",
	"enName":"51 El Guish St., El mansoura, El dakahleya"
},
		{	"profileId":"15095",
	"profileURL":"//www.yellowpages.com.eg/en/profile/bavaria-_-fire-fighting-solutions/15095?b=1&k=19944&l=search",
	"arName":"17 ش عماد الدين, وسط البلد, القاهرة",
	"lat":"30.056245000000001",
	"lng":"31.244396999999999",
	"enName":"17 Emad El Din St., Downtown, Cairo"
},
		{	"profileId":"475033",
	"profileURL":"//www.yellowpages.com.eg/en/profile/bavaria-_-fire-fighting-solutions/475033?b=7&k=19944&l=search",
	"arName":"50 ش الجمهورية, وسط البلد, القاهرة",
	"lat":"30.053350999999999",
	"lng":"31.246797000000001",
	"enName":"50 El Gomhoureya St., Downtown, Cairo"
},
		{	"profileId":"164439",
	"profileURL":"//www.yellowpages.com.eg/en/profile/bavaria-_-fire-fighting-solutions/164439?b=24&k=19944&l=search",
	"arName":"طريق النصر, الدهار, الغردقة",
	"lat":"27.242653000000001",
	"lng":"33.828172000000002",
	"enName":"El Nasr Rd., Dahar, Hurghada"
},
		{	"profileId":"75358",
	"profileURL":"//www.yellowpages.com.eg/en/profile/bavaria-_-fire-fighting-solutions/75358?b=23&k=19944&l=search",
	"arName":"14 ش زهران رشدى متفرع من ش ابو قير, جليم, الاسكندرية",
	"lat":"31.237155999999999",
	"lng":"29.962477",
	"enName":"14 Zahran Roshdy St. Off Abou Qir St., Glim, Alexandria"
},
		{	"profileId":"75357",
	"profileURL":"//www.yellowpages.com.eg/en/profile/bavaria-_-fire-fighting-solutions/75357?b=19&k=19944&l=search",
	"arName":"16 - سوق البركة التجارى, برج العرب الجديدة, الاسكندرية",
	"lat":"30.885778999999999",
	"lng":"29.584416000000001",
	"enName":"16 , El Baraka Commercial Market, New borg el arab, Alexandria"
},
		{	"profileId":"75356",
	"profileURL":"//www.yellowpages.com.eg/en/profile/bavaria-_-fire-fighting-solutions/75356?b=5&k=19944&l=search",
	"arName":"74 ش الجمهورية, وسط البلد, القاهرة",
	"lat":"30.058",
	"lng":"31.246200000000002",
	"enName":"74 El Gomhoureya St., Downtown, Cairo"
},
		{	"profileId":"75354",
	"profileURL":"//www.yellowpages.com.eg/en/profile/bavaria-_-fire-fighting-solutions/75354?b=9&k=19944&l=search",
	"arName":"المرحلة الثانية - سوق الجملة - الاردنية, العاشر من رمضان, الشرقية",
	"lat":"30.296963000000002",
	"lng":"31.744351000000002",
	"enName":"Phase 2, Souk El Gomla, El Ordoneya, 10th of ramadan, El sharkeya"
},
		{	"profileId":"118003",
	"profileURL":"//www.yellowpages.com.eg/en/profile/bavaria-_-fire-fighting-solutions/118003?b=13&k=19944&l=search",
	"arName":"طريق السلام, خليج نعمة, شرم الشيخ",
	"lat":"27.911345000000001",
	"lng":"34.319398",
	"enName":"El Salam Rd., Naama bay, Sharm el sheikh"
},
		{	"profileId":"136292",
	"profileURL":"//www.yellowpages.com.eg/en/profile/bavaria-_-fire-fighting-solutions/136292?b=21&k=19944&l=search",
	"arName":"1 عمارات الاوقاف - ميدان البنوك - الدور 2, حى غرب, اسيوط",
	"lat":"27.179003000000002",
	"lng":"31.186591",
	"enName":"1 El Awqaf Bldgs., El Bonouk Sq., Floor 2, Gharb district, Assyout"
},
		{	"profileId":"136291",
	"profileURL":"//www.yellowpages.com.eg/en/profile/bavaria-_-fire-fighting-solutions/136291?b=15&k=19944&l=search",
	"arName":"28 ش عدلى يكن متفرع من ش المحطة, وسط البلد, المنيا",
	"lat":"28.097042999999999",
	"lng":"30.755775",
	"enName":"28 Adly Yakan St. Off El Mahatta St., Downtown, El menia"
},
		{	"profileId":"136294",
	"profileURL":"//www.yellowpages.com.eg/en/profile/bavaria-_-fire-fighting-solutions/136294?b=11&k=19944&l=search",
	"arName":"كورنيش النيل - الكرنك, الاقصر, الاقصر",
	"lat":"25.723866999999998",
	"lng":"32.653928999999998",
	"enName":"Corniche El Nil, El Karnak, LUXOR, Luxor, Luxor"
},
		{	"profileId":"395041",
	"profileURL":"//www.yellowpages.com.eg/en/profile/bavaria-_-fire-fighting-solutions/395041?b=17&k=19944&l=search",
	"arName":"4 ش جمال عبد الناصر, شبين الكوم, المنوفية",
	"lat":"30.565944999999999",
	"lng":"31.012331",
	"enName":"4 Gamal Abdel Nasser St., Shebein el kawm, El monofeya"
},
		{	"profileId":"136293",
	"profileURL":"//www.yellowpages.com.eg/en/profile/bavaria-_-fire-fighting-solutions/136293?b=25&k=19944&l=search",
	"arName":"ش التحرير, حى شرق, سوهاج",
	"lat":"26.564834000000001",
	"lng":"31.693566000000001",
	"enName":"El Tahrir St., Shark district, Sohag"
},
		{	"profileId":"136295",
	"profileURL":"//www.yellowpages.com.eg/en/profile/bavaria-_-fire-fighting-solutions/136295?b=12&k=19944&l=search",
	"arName":"ش ابطال التحرير, اطلس, اسوان",
	"lat":"24.100339999999999",
	"lng":"32.901274000000001",
	"enName":"Abtal El Tahrir St., Atlas, Aswan"
}
	]
}]}