{"items":[{	"arName":"كايرو لاب للتحاليل الطبية",
	"enName":"Cairo Lab",
	"hotline":"19962",
	"facebook":"http://www.facebook.com/cairolab",
	"web":"http://www.cairolabs.net/",
	"arCategory":[
		"معامل طبية"
	],
	"enCategories":[
		"Laboratories Medical"
	],
	"contacts":[
		{	"profileId":"543953",
	"profileURL":"//www.yellowpages.com.eg/en/profile/cairo-lab/543953?b=20&k=19962&l=search",
	"arName":"2 عمارات شباب المهندسين - طريق النصر, مدينة نصر, القاهرة",
	"lat":"30.069785",
	"lng":"31.343313999999999",
	"enName":"2 Shabab El Mohandeseen Bldgs., El Nasr Rd., Nasr city, Cairo"
},
		{	"profileId":"466989",
	"profileURL":"//www.yellowpages.com.eg/en/profile/cairo-lab/466989?b=26&k=19962&l=search",
	"arName":"42 ش مصدق - الدور 2, الدقى, الجيزة",
	"lat":"30.039494000000001",
	"lng":"31.206094",
	"enName":"42 Mossadak St., Floor 2, Dokki, Giza"
},
		{	"profileId":"167140",
	"profileURL":"//www.yellowpages.com.eg/en/profile/cairo-lab/167140?b=9&k=19962&l=search",
	"arName":"1 /1 ش فلسطين - الدور 1, المعادى الجديدة, المعادى, القاهرة",
	"lat":"29.977609000000001",
	"lng":"31.283678999999999",
	"enName":"1 /1 Palestine St., Floor 1, New Maadi, Maadi, Cairo"
},
		{	"profileId":"315311",
	"profileURL":"//www.yellowpages.com.eg/en/profile/cairo-lab/315311?b=10&k=19962&l=search",
	"arName":"56 طريق مصر حلوان الزراعى - برج بدر - الدور 7, المعادى, القاهرة",
	"lat":"29.958466000000001",
	"lng":"31.251356000000001",
	"enName":"56 Misr Helwan Agricultural Rd., Badr Tower, Floor 7, Maadi, Cairo"
},
		{	"profileId":"73063",
	"profileURL":"//www.yellowpages.com.eg/en/profile/cairo-lab/73063?b=4&k=19962&l=search",
	"arName":"81 عمارات عثمان - ش مصطفى النحاس تقاطع ش عباس العقاد - الدور 2 شقة 203, الحى السابع, مدينة نصر, القاهرة",
	"lat":"30.053362",
	"lng":"31.337112000000001",
	"enName":"81 Othman Bldgs., Mostafa El Nahhas St. Intersection Of Abbas El Akkad St., Floor 2 Flat 203, 7th District, Nasr city, Cairo"
},
		{	"profileId":"466993",
	"profileURL":"//www.yellowpages.com.eg/en/profile/cairo-lab/466993?b=11&k=19962&l=search",
	"arName":"41 ش رايل - الدور 1, حلوان, القاهرة",
	"lat":"29.850057",
	"lng":"31.325358000000001",
	"enName":"41 Rayel St., Floor 1, Helwan, Cairo"
},
		{	"profileId":"383278",
	"profileURL":"//www.yellowpages.com.eg/en/profile/cairo-lab/383278?b=17&k=19962&l=search",
	"arName":"ش طومانباى ميدان ابن الحكم - ابراج العز - برج أ - الدور 6, الزيتون, القاهرة",
	"lat":"30.109869",
	"lng":"31.319825999999999",
	"enName":"Tomanbay St. Ibn El Hakam Sq., El Ezz Towers, Tower A, Floor 6, El zaytoun, Cairo"
},
		{	"profileId":"466990",
	"profileURL":"//www.yellowpages.com.eg/en/profile/cairo-lab/466990?b=1&k=19962&l=search",
	"arName":"الشطر 13 - برج الندى - الدور 1 شقة 1, زهراء المعادى, المعادى, القاهرة",
	"lat":"29.964790000000001",
	"lng":"31.323274999999999",
	"enName":"Sector 13, El Nada Tower, Floor 1 Flat 1, Zahraa El Maadi, Maadi, Cairo"
},
		{	"profileId":"379164",
	"profileURL":"//www.yellowpages.com.eg/en/profile/cairo-lab/379164?b=24&k=19962&l=search",
	"arName":"ميدان الحصرى, الحى الثامن, السادس من اكتوبر, الجيزة",
	"lat":"29.972640999999999",
	"lng":"30.939184000000001",
	"enName":"El Hosary Sq., 8th District, 6th of october, Giza"
},
		{	"profileId":"175118",
	"profileURL":"//www.yellowpages.com.eg/en/profile/cairo-lab/175118?b=15&k=19962&l=search",
	"arName":"32 ش زكى تقاطع ش رياض - برج لؤلؤة حلوان - الدور 1, حلوان, القاهرة",
	"lat":"29.846422",
	"lng":"31.336953000000001",
	"enName":"32 Zaky St. Intersection Of Riad St., Loualoaat Helwan Tower, Floor 1, Helwan, Cairo"
},
		{	"profileId":"383273",
	"profileURL":"//www.yellowpages.com.eg/en/profile/cairo-lab/383273?b=16&k=19962&l=search",
	"arName":"13 ش نوبار تقاطع ش اسماعيل اباظة - الدور 2, لاظوغلى, القاهرة",
	"lat":"30.036484000000002",
	"lng":"31.239715",
	"enName":"13 Noubar St. Intersection Of Ismail Abaza St., Floor 2, Lazoughly, Cairo"
},
		{	"profileId":"8090",
	"profileURL":"//www.yellowpages.com.eg/en/profile/cairo-lab/8090?b=22&k=19962&l=search",
	"arName":"4 ش شهاب, المهندسين, الجيزة",
	"lat":"30.049330999999999",
	"lng":"31.197168999999999",
	"enName":"4 Shehab St., Mohandeseen, Giza"
},
		{	"profileId":"175113",
	"profileURL":"//www.yellowpages.com.eg/en/profile/cairo-lab/175113?b=14&k=19962&l=search",
	"arName":"138 ش النزهة - برج بانوراما - الدور 2, تريومف, مصر الجديدة, القاهرة",
	"lat":"30.102309999999999",
	"lng":"31.343156",
	"enName":"138 El Nozha St., Panorama Tower, Floor 2, Triumph Square, Heliopolis, Cairo"
},
		{	"profileId":"107702",
	"profileURL":"//www.yellowpages.com.eg/en/profile/cairo-lab/107702?b=21&k=19962&l=search",
	"arName":"446 ش فيصل - برج النصر - الدور 2, فيصل, الجيزة",
	"lat":"30.013445999999998",
	"lng":"31.198186",
	"enName":"446 Faisal St., El Nasr Tower, Floor 2, Faisal, Giza"
},
		{	"profileId":"175131",
	"profileURL":"//www.yellowpages.com.eg/en/profile/cairo-lab/175131?b=8&k=19962&l=search",
	"arName":"40 ش شبرا - الدور 4, شبرا, القاهرة",
	"lat":"30.070015999999999",
	"lng":"31.244771",
	"enName":"40 Shoubra St., Floor 4, Shoubra, Cairo"
},
		{	"profileId":"564600",
	"profileURL":"//www.yellowpages.com.eg/en/profile/cairo-lab/564600?b=3&k=19962&l=search",
	"arName":"74 ش النزهة ميدان السبع عمارات - برج الامير, مصر الجديدة, القاهرة",
	"lat":"30.089044999999999",
	"lng":"31.341038000000001",
	"enName":"74 El Nozha St. El Sabaa Emarat Sq., El Amir Tower, Heliopolis, Cairo"
},
		{	"profileId":"175097",
	"profileURL":"//www.yellowpages.com.eg/en/profile/cairo-lab/175097?b=6&k=19962&l=search",
	"arName":"9 ش شريف - الدور 2, باب اللوق, القاهرة",
	"lat":"30.046351999999999",
	"lng":"31.242317",
	"enName":"9 Sherif St., Floor 2, Bab el louk, Cairo"
},
		{	"profileId":"73059",
	"profileURL":"//www.yellowpages.com.eg/en/profile/cairo-lab/73059?b=19&k=19962&l=search",
	"arName":"89 أ ش المنيل - الدور 2, المنيل, القاهرة",
	"lat":"30.023555000000002",
	"lng":"31.226044999999999",
	"enName":"89 A Manial St., Floor 2, El manyal, Cairo"
},
		{	"profileId":"73058",
	"profileURL":"//www.yellowpages.com.eg/en/profile/cairo-lab/73058?b=13&k=19962&l=search",
	"arName":"54 ش عبد الخالق ثروت - الدور 2, وسط البلد, القاهرة",
	"lat":"30.05048",
	"lng":"31.246162999999999",
	"enName":"54 Abdel Khaleq Tharwat St., Floor 2, Downtown, Cairo"
},
		{	"profileId":"466997",
	"profileURL":"//www.yellowpages.com.eg/en/profile/cairo-lab/466997?b=25&k=19962&l=search",
	"arName":"ش النيل السعيد - برج المصطفى - الدور 2, البدرشين, الجيزة",
	"lat":"29.849761000000001",
	"lng":"31.279872999999998",
	"enName":"El Nil El Said St., El Mostafa Tower, Floor 2, El badrashin, Giza"
},
		{	"profileId":"466995",
	"profileURL":"//www.yellowpages.com.eg/en/profile/cairo-lab/466995?b=2&k=19962&l=search",
	"arName":"., مدينة الرحاب, القاهرة",
	"lat":"30.059887",
	"lng":"31.492045999999998",
	"enName":"., Al rehab city, Cairo"
},
		{	"profileId":"531912",
	"profileURL":"//www.yellowpages.com.eg/en/profile/cairo-lab/531912?b=12&k=19962&l=search",
	"arName":"ش 306 - الدور 2, المعادى الجديدة, المعادى, القاهرة",
	"lat":"29.990179999999999",
	"lng":"31.281523",
	"enName":"Rd. 306, Floor 2, New Maadi, Maadi, Cairo"
},
		{	"profileId":"313617",
	"profileURL":"//www.yellowpages.com.eg/en/profile/cairo-lab/313617?b=18&k=19962&l=search",
	"arName":"القطعة 18 - - منطقة خدمات التجمع الخامس, التجمع الخامس, القاهرة الجديدة, القاهرة",
	"lat":"30.0075991",
	"lng":"31.4268529",
	"enName":"Plot 18, , 5th Compound Services Zone, 5th Compound, New cairo, Cairo"
},
		{	"profileId":"244463",
	"profileURL":"//www.yellowpages.com.eg/en/profile/cairo-lab/244463?b=23&k=19962&l=search",
	"arName":"خدمة العملاء, المهندسين, الجيزة",
	"lat":"",
	"lng":"",
	"enName":"Customer Service, Mohandeseen, Giza"
},
		{	"profileId":"235697",
	"profileURL":"//www.yellowpages.com.eg/en/profile/cairo-lab/235697?b=5&k=19962&l=search",
	"arName":"18 ش المنصورة - برج هارون - الدور 3, ميدان الجامع, مصر الجديدة, القاهرة",
	"lat":"30.097245000000001",
	"lng":"31.328586999999999",
	"enName":"18 El Mansoura St., Haroun Tower, Floor 3, El Gamea Square, Heliopolis, Cairo"
},
		{	"profileId":"175105",
	"profileURL":"//www.yellowpages.com.eg/en/profile/cairo-lab/175105?b=7&k=19962&l=search",
	"arName":"القطعة 6030 - ش الاكاديمية تقاطع ش 9, المقطم, القاهرة",
	"lat":"30.012957",
	"lng":"31.300065",
	"enName":"Plot 6030, El Academeya St. Intersection Of Rd. 9, Mokattam, Cairo"
}
	]
}]}