{"items":[{	"arName":"رنين للاجهزة المنزلية",
	"enName":"Raneen For Appliances",
	"hotline":"16113",
	"facebook":"http://www.facebook.com/RaneenPage",
	"web":"",
	"arCategory":[
		"اجهزة منزلية"
	],
	"enCategories":[
		"Appliances"
	],
	"contacts":[
		{	"profileId":"513423",
	"profileURL":"//www.yellowpages.com.eg/en/profile/raneen-for-appliances/513423?b=23&k=16113&l=search",
	"arName":"ابراج الهاشم بلازا - ميدان المشحمة, المحلة الكبرى, الغربية",
	"lat":"30.979467",
	"lng":"31.176946000000001",
	"enName":"El Hashem Plaza Towers, El Mashhama Sq., El mahalla el kobra, El gharbeya"
},
		{	"profileId":"513422",
	"profileURL":"//www.yellowpages.com.eg/en/profile/raneen-for-appliances/513422?b=26&k=16113&l=search",
	"arName":"طريق القاهرة اسكندرية الزراعى ميدان المؤسسة, شبرا الخيمة, القليوبية",
	"lat":"30.119706999999998",
	"lng":"31.24295",
	"enName":"Cairo Alex Agricultural Rd. El Moassasa Sq., Shoubra el khaymah, Kaliobeya"
},
		{	"profileId":"487687",
	"profileURL":"//www.yellowpages.com.eg/en/profile/raneen-for-appliances/487687?b=17&k=16113&l=search",
	"arName":"14 ب ش نوبار ميدان لاظوغلى, لاظوغلى, القاهرة",
	"lat":"30.03716",
	"lng":"31.23978",
	"enName":"14 B Noubar St. Lazoughly Sq., Lazoughly, Cairo"
},
		{	"profileId":"581208",
	"profileURL":"//www.yellowpages.com.eg/en/profile/raneen-for-appliances/581208?b=27&k=16113&l=search",
	"arName":"128 ش الهرم, الكوم الاخضر, الهرم, الجيزة",
	"lat":"29.992899999999999",
	"lng":"31.157499999999999",
	"enName":"128 Haram St., El Koum El Akhdar, El haram, Giza"
},
		{	"profileId":"249069",
	"profileURL":"//www.yellowpages.com.eg/en/profile/raneen-for-appliances/249069?b=14&k=16113&l=search",
	"arName":"23 ش احمد الزمر امتداد ش ذاكر حسين, الحى العاشر, مدينة نصر, القاهرة",
	"lat":"30.049533",
	"lng":"31.375084000000001",
	"enName":"23 Ahmed El Zomor St. Extension Of Zaker Hussein St., 10th District, Nasr city, Cairo"
},
		{	"profileId":"490691",
	"profileURL":"//www.yellowpages.com.eg/en/profile/raneen-for-appliances/490691?b=20&k=16113&l=search",
	"arName":"طريق كفر طهرمس, الطالبية, فيصل, الجيزة",
	"lat":"30.006651000000002",
	"lng":"31.177734999999998",
	"enName":"Kafr Tohormos Rd., El Talbeya, Faisal, Giza"
},
		{	"profileId":"475357",
	"profileURL":"//www.yellowpages.com.eg/en/profile/raneen-for-appliances/475357?b=19&k=16113&l=search",
	"arName":"المحور المركزى - تقاطع محور 26 يوليو, السادس من اكتوبر, الجيزة",
	"lat":"29.978027000000001",
	"lng":"30.955269999999999",
	"enName":"Central Spine, Intersection Of 26th Of July Spine, 6th of october, Giza"
},
		{	"profileId":"490696",
	"profileURL":"//www.yellowpages.com.eg/en/profile/raneen-for-appliances/490696?b=12&k=16113&l=search",
	"arName":"37 ش عباس العقاد, مدينة نصر, القاهرة",
	"lat":"30.062543999999999",
	"lng":"31.336821",
	"enName":"37 Abbas El Akkad St., Nasr city, Cairo"
},
		{	"profileId":"457421",
	"profileURL":"//www.yellowpages.com.eg/en/profile/raneen-for-appliances/457421?b=16&k=16113&l=search",
	"arName":"130 ش جسر السويس, جسر السويس, القاهرة",
	"lat":"30.118714000000001",
	"lng":"31.339032",
	"enName":"130 Gesr El Suez St., Gesr el suez, Cairo"
},
		{	"profileId":"457422",
	"profileURL":"//www.yellowpages.com.eg/en/profile/raneen-for-appliances/457422?b=15&k=16113&l=search",
	"arName":"53 ش شبرا, شبرا, القاهرة",
	"lat":"30.067637999999999",
	"lng":"31.24531",
	"enName":"53 Shoubra St., Shoubra, Cairo"
},
		{	"profileId":"539742",
	"profileURL":"//www.yellowpages.com.eg/en/profile/raneen-for-appliances/539742?b=13&k=16113&l=search",
	"arName":"39 ش 9, المقطم, القاهرة",
	"lat":"30.013741",
	"lng":"31.285698",
	"enName":"39 Rd. 9, Mokattam, Cairo"
},
		{	"profileId":"457424",
	"profileURL":"//www.yellowpages.com.eg/en/profile/raneen-for-appliances/457424?b=22&k=16113&l=search",
	"arName":"32 ش الهرم - مدينة بيتكو, مشعل, الهرم, الجيزة",
	"lat":"29.987804000000001",
	"lng":"31.143408999999998",
	"enName":"32 Haram St., Bitco City, Mashaal, El haram, Giza"
},
		{	"profileId":"545827",
	"profileURL":"//www.yellowpages.com.eg/en/profile/raneen-for-appliances/545827?b=18&k=16113&l=search",
	"arName":"68 ش عين شمس الشرقية, عين شمس الشرقية, القاهرة",
	"lat":"30.139392999999998",
	"lng":"31.324708999999999",
	"enName":"68 Ain Shams El Sharqeya St., Ain shams el sharkeya, Cairo"
},
		{	"profileId":"566601",
	"profileURL":"//www.yellowpages.com.eg/en/profile/raneen-for-appliances/566601?b=21&k=16113&l=search",
	"arName":"49 ش مصطفى كامل - عمارات النيل, شبين الكوم, المنوفية",
	"lat":"30.553812000000001",
	"lng":"31.01257",
	"enName":"49 Mostafa Kamel St., El Nil Bldgs., SHIBIN EL KAWM, Shebein el kawm, El monofeya"
},
		{	"profileId":"475352",
	"profileURL":"//www.yellowpages.com.eg/en/profile/raneen-for-appliances/475352?b=11&k=16113&l=search",
	"arName":"خدمة العملاء, الحى العاشر, مدينة نصر, القاهرة",
	"lat":"",
	"lng":"",
	"enName":"Customer Service, 10th District, Nasr city, Cairo"
},
		{	"profileId":"573218",
	"profileURL":"//www.yellowpages.com.eg/en/profile/raneen-for-appliances/573218?b=24&k=16113&l=search",
	"arName":"الصالحية - ابراج الياسمين, دسوق, كفر الشيخ",
	"lat":"",
	"lng":"",
	"enName":"El Saleheya, El Yasmeen Towers, Disuq, Kafr el sheikh"
},
		{	"profileId":"531042",
	"profileURL":"//www.yellowpages.com.eg/en/profile/raneen-for-appliances/531042?b=29&k=16113&l=search",
	"arName":"ش طلبة عويضة - القومية, الزقازيق, الشرقية",
	"lat":"",
	"lng":"",
	"enName":"Tolba Ewida St., El Qawmeya, El zagazig, El sharkeya"
},
		{	"profileId":"579733",
	"profileURL":"//www.yellowpages.com.eg/en/profile/raneen-for-appliances/579733?b=28&k=16113&l=search",
	"arName":"ش محمود فهمى النقراشى متفرع من ميدان النصر, المنشية, الاسكندرية",
	"lat":"31.198561999999999",
	"lng":"29.887564999999999",
	"enName":"Mahmoud Fahmy El Noqrashy St. Off El Nasr Sq., El mansheya, Alexandria"
},
		{	"profileId":"520472",
	"profileURL":"//www.yellowpages.com.eg/en/profile/raneen-for-appliances/520472?b=25&k=16113&l=search",
	"arName":"255 ش الجلاء ميدان الجمهورية - عمارة مصر للتأمين, طنطا, الغربية",
	"lat":"30.786902999999999",
	"lng":"31.002053",
	"enName":"255 El Galaa St. El Gomhoureya Sq., Misr Lel Taamin Bldg., Tanta, El gharbeya"
}
	]
}, {	"arName":"بروج للمفروشات الراقية",
	"enName":"Brouj For Bedding",
	"hotline":"16113",
	"facebook":"http://www.facebook.com/brooj.mall",
	"web":"",
	"arCategory":[
		"مفروشات"
	],
	"enCategories":[
		"Bedding"
	],
	"contacts":[
		{	"profileId":"531056",
	"profileURL":"//www.yellowpages.com.eg/en/profile/brouj-for-bedding/531056?b=6&k=16113&l=search",
	"arName":"ابراج الهاشم بلازا - ميدان المشحمة, المحلة الكبرى, الغربية",
	"lat":"30.979467",
	"lng":"31.176946000000001",
	"enName":"El Hashem Plaza Towers, El Mashhama Sq., El mahalla el kobra, El gharbeya"
},
		{	"profileId":"531053",
	"profileURL":"//www.yellowpages.com.eg/en/profile/brouj-for-bedding/531053?b=5&k=16113&l=search",
	"arName":"طريق كفر طهرمس, الطالبية, فيصل, الجيزة",
	"lat":"30.006456",
	"lng":"31.177965",
	"enName":"Kafr Tohormos Rd., El Talbeya, Faisal, Giza"
},
		{	"profileId":"531050",
	"profileURL":"//www.yellowpages.com.eg/en/profile/brouj-for-bedding/531050?b=4&k=16113&l=search",
	"arName":"130 ش جسر السويس, جسر السويس, القاهرة",
	"lat":"30.101565000000001",
	"lng":"31.318021999999999",
	"enName":"130 Gesr El Suez St., Gesr el suez, Cairo"
},
		{	"profileId":"531049",
	"profileURL":"//www.yellowpages.com.eg/en/profile/brouj-for-bedding/531049?b=3&k=16113&l=search",
	"arName":"37 ش عباس العقاد, مدينة نصر, القاهرة",
	"lat":"30.062543999999999",
	"lng":"31.336821",
	"enName":"37 Abbas El Akkad St., Nasr city, Cairo"
},
		{	"profileId":"531047",
	"profileURL":"//www.yellowpages.com.eg/en/profile/brouj-for-bedding/531047?b=9&k=16113&l=search",
	"arName":"المحور المركزى - تقاطع محور 26 يوليو, السادس من اكتوبر, الجيزة",
	"lat":"29.9780275",
	"lng":"30.955269699999999",
	"enName":"Central Spine, Intersection Of 26th Of July Spine, 6th of october, Giza"
},
		{	"profileId":"531043",
	"profileURL":"//www.yellowpages.com.eg/en/profile/brouj-for-bedding/531043?b=7&k=16113&l=search",
	"arName":"ش طلبة عويضة - القومية, الزقازيق, الشرقية",
	"lat":"30.590267999999998",
	"lng":"31.490099000000001",
	"enName":"Tolba Ewida St., El Qawmia, El zagazig, El sharkeya"
},
		{	"profileId":"531044",
	"profileURL":"//www.yellowpages.com.eg/en/profile/brouj-for-bedding/531044?b=2&k=16113&l=search",
	"arName":"خدمة العملاء, شبرا, القاهرة",
	"lat":"",
	"lng":"",
	"enName":"Customer Service, Shoubra, Cairo"
},
		{	"profileId":"531062",
	"profileURL":"//www.yellowpages.com.eg/en/profile/brouj-for-bedding/531062?b=8&k=16113&l=search",
	"arName":"طريق القاهرة اسكندرية الزراعى ميدان المؤسسة, شبرا الخيمة, القليوبية",
	"lat":"30.121901999999999",
	"lng":"31.244259",
	"enName":"Cairo Alex Agricultural Rd. El Moassasa Sq., Shoubra el khaymah, Kaliobeya"
},
		{	"profileId":"531059",
	"profileURL":"//www.yellowpages.com.eg/en/profile/brouj-for-bedding/531059?b=10&k=16113&l=search",
	"arName":"255 ش الجلاء ميدان الجمهورية - عمارة مصر للتأمين, طنطا, الغربية",
	"lat":"30.786902999999999",
	"lng":"31.002053",
	"enName":"255 El Galaa St. El Gomhoureya Sq., Misr Lel Taamin Bldg., Tanta, El gharbeya"
},
		{	"profileId":"444609",
	"profileURL":"//www.yellowpages.com.eg/en/profile/brouj-for-bedding/444609?b=1&k=16113&l=search",
	"arName":"53 ش شبرا, شبرا, القاهرة",
	"lat":"30.067637999999999",
	"lng":"31.24531",
	"enName":"53 Shoubra St., Shoubra, Cairo"
}
	]
}]}