{"items":[{	"arName":"اسمنت حلوان",
	"enName":"Helwan Cement",
	"hotline":"19083",
	"facebook":"https://www.facebook.com/suezcementcompany/",
	"web":"https://www.suezcement.com.eg/ar",
	"arCategory":[
		"اسمنت وخرسانة وجبس وطوب ومعدات"
	],
	"enCategories":[
		"Cement & Concrete, Gypsum, Brick & Equipment"
	],
	"contacts":[
		{	"profileId":"140242",
	"profileURL":"//www.yellowpages.com.eg/en/profile/helwan-cement/140242?b=2&k=19083&l=search",
	"arName":"., حلوان, القاهرة",
	"lat":"29.823333699999999",
	"lng":"31.3051879",
	"enName":"., Helwan, Cairo"
}
	]
}, {	"arName":"أسمنت طره",
	"enName":"Tourah Cement",
	"hotline":"19083",
	"facebook":"https://www.facebook.com/suezcementcompany/",
	"web":"https://www.suezcement.com.eg/ar",
	"arCategory":[
		"اسمنت وخرسانة وجبس وطوب ومعدات"
	],
	"enCategories":[
		"Cement & Concrete, Gypsum, Brick & Equipment"
	],
	"contacts":[
		{	"profileId":"140242",
	"profileURL":"//www.yellowpages.com.eg/en/profile/helwan-cement/140242?b=2&k=19083&l=search",
	"arName":"., حلوان, القاهرة",
	"lat":"29.823333699999999",
	"lng":"31.3051879",
	"enName":"., Helwan, Cairo"
}
	]
},{	"arName":"السويس للاسمنت",
	"enName":"Suez Cement",
	"hotline":"19083",
	"facebook":"https://www.facebook.com/suezcementcompany/",
	"web":"http://www.suezcement.com.eg/",
	"arCategory":[
		"اسمنت وخرسانة وجبس وطوب ومعدات"
	],
	"enCategories":[
		"Cement & Concrete, Gypsum, Brick & Equipment"
	],
	"contacts":[
		{	"profileId":"187296",
	"profileURL":"//www.yellowpages.com.eg/en/profile/suez-cement/187296?b=4&k=19083&l=search",
	"arName":"35 ش رمسيس ميدان عبد المنعم رياض, وسط البلد, القاهرة",
	"lat":"30.050988",
	"lng":"31.236462",
	"enName":"35 Ramsis St. Abdel Moneim Riad Sq., Downtown, Cairo"
},
		{	"profileId":"176665",
	"profileURL":"//www.yellowpages.com.eg/en/profile/suez-cement/176665?b=5&k=19083&l=search",
	"arName":"5 ش التحرير, حى غرب, سوهاج",
	"lat":"26.559951999999999",
	"lng":"31.695122000000001",
	"enName":"5 El Tahrir St., Gharb district, Sohag"
},
		{	"profileId":"176631",
	"profileURL":"//www.yellowpages.com.eg/en/profile/suez-cement/176631?b=6&k=19083&l=search",
	"arName":"ش سعد زغلول تقاطع ش طلعت حرب - البر الشرقى, شبين الكوم, المنوفية",
	"lat":"30.554341000000001",
	"lng":"31.0077979",
	"enName":"Saad Zaghloul St. Intersection Of Talaat Harb St., East Bank, SHIBIN EL KAWM, Shebein el kawm, El monofeya"
},
		{	"profileId":"60383",
	"profileURL":"//www.yellowpages.com.eg/en/profile/suez-cement/60383?b=1&k=19083&l=search",
	"arName":"الكيلو 30 - طريق المعادي - العين السخنة, القطامية, القاهرة",
	"lat":"29.921689000000001",
	"lng":"31.536173000000002",
	"enName":"El Kilo 30, Maadi Rd., El Ain El Sokhna, El katameya, Cairo"
},
		{	"profileId":"187300",
	"profileURL":"//www.yellowpages.com.eg/en/profile/suez-cement/187300?b=3&k=19083&l=search",
	"arName":"خدمة العملاء, وسط البلد, القاهرة",
	"lat":"",
	"lng":"",
	"enName":"customer service, Downtown, Cairo"
}
	]
}]}