{"items":[{	"arName":"البنك الاهلى الكويتى - مصر - ماكينة الصراف الالى",
	"enName":"ABK - Al Ahli Bank Of Kuwait - Egypt - ATM",
	"hotline":"19322",
	"facebook":"",
	"web":"http://www.abkegypt.com/",
	"arCategory":[
		"ماكينات الصراف الالى"
	],
	"enCategories":[
		"ATMs"
	],
	"contacts":[
		{	"profileId":"543735",
	"profileURL":"//www.yellowpages.com.eg/en/profile/abk-_-al-ahli-bank-of-kuwait-_-egypt-_-atm/543735?b=58&k=19322&l=search",
	"arName":"طريق الواحات, السادس من اكتوبر, الجيزة",
	"lat":"29.971907000000002",
	"lng":"31.01773",
	"enName":"El Wahat Rd., 6th of october, Giza"
},
		{	"profileId":"304436",
	"profileURL":"//www.yellowpages.com.eg/en/profile/abk-_-al-ahli-bank-of-kuwait-_-egypt-_-atm/304436?b=55&k=19322&l=search",
	"arName":"ميدان جهينة, السادس من اكتوبر, الجيزة",
	"lat":"30.005434000000001",
	"lng":"30.974428",
	"enName":"Juhaina Sq., 6th of october, Giza"
},
		{	"profileId":"448979",
	"profileURL":"//www.yellowpages.com.eg/en/profile/abk-_-al-ahli-bank-of-kuwait-_-egypt-_-atm/448979?b=42&k=19322&l=search",
	"arName":"3 ش الميثاق امتداد ش زاكر حسين, مدينة نصر, القاهرة",
	"lat":"30.049418599999999",
	"lng":"31.381399800000001",
	"enName":"3 El Mithaq St. Extension Of Zaker Hussein St., Nasr city, Cairo"
},
		{	"profileId":"448976",
	"profileURL":"//www.yellowpages.com.eg/en/profile/abk-_-al-ahli-bank-of-kuwait-_-egypt-_-atm/448976?b=62&k=19322&l=search",
	"arName":"طريق اسكندرية مطروح الصحراوى, العجمى, الاسكندرية",
	"lat":"31.1103393",
	"lng":"29.787476000000002",
	"enName":"Alex Matrouh Desert Rd., Agami, Alexandria"
},
		{	"profileId":"117388",
	"profileURL":"//www.yellowpages.com.eg/en/profile/abk-_-al-ahli-bank-of-kuwait-_-egypt-_-atm/117388?b=39&k=19322&l=search",
	"arName":"9 ش البطراوى متفرع من ش عباس العقاد, المنطقة الاولى, مدينة نصر, القاهرة",
	"lat":"30.061188000000001",
	"lng":"31.332156000000001",
	"enName":"9 El Batrawy St. Off Abbas El Akkad St., 1st Zone, Nasr city, Cairo"
},
		{	"profileId":"545323",
	"profileURL":"//www.yellowpages.com.eg/en/profile/abk-_-al-ahli-bank-of-kuwait-_-egypt-_-atm/545323?b=51&k=19322&l=search",
	"arName":"القطعة 67/68 - - منطقة خدمات الحى الاول, التجمع الخامس, القاهرة الجديدة, القاهرة",
	"lat":"30.004241",
	"lng":"31.424783000000001",
	"enName":"Plot 67/68, , 1St District Services Zone, 5th Compound, New cairo, Cairo"
},
		{	"profileId":"514526",
	"profileURL":"//www.yellowpages.com.eg/en/profile/abk-_-al-ahli-bank-of-kuwait-_-egypt-_-atm/514526?b=46&k=19322&l=search",
	"arName":"مربع 1258ف - طريق الاوتوستراد, مساكن شيراتون, مصر الجديدة, القاهرة",
	"lat":"30.101785599999999",
	"lng":"31.3853753",
	"enName":"Square 1258f, Autostrad Rd., Sheraton Bldgs., Heliopolis, Cairo"
},
		{	"profileId":"230756",
	"profileURL":"//www.yellowpages.com.eg/en/profile/abk-_-al-ahli-bank-of-kuwait-_-egypt-_-atm/230756?b=41&k=19322&l=search",
	"arName":"10 ش مصطفى حافظ, عين شمس, القاهرة",
	"lat":"30.127393000000001",
	"lng":"31.350131999999999",
	"enName":"10 Mostafa Hafez St., Ain shams, Cairo"
},
		{	"profileId":"304887",
	"profileURL":"//www.yellowpages.com.eg/en/profile/abk-_-al-ahli-bank-of-kuwait-_-egypt-_-atm/304887?b=48&k=19322&l=search",
	"arName":"طريق النصر - الجبل الاخضر, مدينة نصر, القاهرة",
	"lat":"30.054841700000001",
	"lng":"31.296661199999999",
	"enName":"El Nasr Rd., El Gabal El Akhdar, Nasr city, Cairo"
},
		{	"profileId":"542036",
	"profileURL":"//www.yellowpages.com.eg/en/profile/abk-_-al-ahli-bank-of-kuwait-_-egypt-_-atm/542036?b=43&k=19322&l=search",
	"arName":"منطقة المطاعم, مدينة الرحاب, القاهرة",
	"lat":"30.059244",
	"lng":"31.488465999999999",
	"enName":"Food Court, Al rehab city, Cairo"
},
		{	"profileId":"170313",
	"profileURL":"//www.yellowpages.com.eg/en/profile/abk-_-al-ahli-bank-of-kuwait-_-egypt-_-atm/170313?b=44&k=19322&l=search",
	"arName":"3 ش مكرم عبيد, المنطقة السادسة, مدينة نصر, القاهرة",
	"lat":"30.068242999999999",
	"lng":"31.344439000000001",
	"enName":"3 Makram Ebaid St., 6th Zone, Nasr city, Cairo"
},
		{	"profileId":"468005",
	"profileURL":"//www.yellowpages.com.eg/en/profile/abk-_-al-ahli-bank-of-kuwait-_-egypt-_-atm/468005?b=53&k=19322&l=search",
	"arName":"الطريق الدائرى, كايرو فيستيفال, القاهرة الجديدة, القاهرة",
	"lat":"30.027971999999998",
	"lng":"31.408335000000001",
	"enName":"Ring Rd., Cairo Festival City, New cairo, Cairo"
},
		{	"profileId":"230864",
	"profileURL":"//www.yellowpages.com.eg/en/profile/abk-_-al-ahli-bank-of-kuwait-_-egypt-_-atm/230864?b=54&k=19322&l=search",
	"arName":"212 ش فيصل, فيصل, الجيزة",
	"lat":"29.998920999999999",
	"lng":"31.160702000000001",
	"enName":"212 Faisal St., Faisal, Giza"
},
		{	"profileId":"170356",
	"profileURL":"//www.yellowpages.com.eg/en/profile/abk-_-al-ahli-bank-of-kuwait-_-egypt-_-atm/170356?b=56&k=19322&l=search",
	"arName":"29 ش كورنيش النيل, حى شرق, اسيوط",
	"lat":"27.192398000000001",
	"lng":"31.190121000000001",
	"enName":"29 Corniche El Nil St., Shark district, Assyout"
},
		{	"profileId":"170311",
	"profileURL":"//www.yellowpages.com.eg/en/profile/abk-_-al-ahli-bank-of-kuwait-_-egypt-_-atm/170311?b=63&k=19322&l=search",
	"arName":"امتداد محور 26 يوليو, الشيخ زايد, السادس من اكتوبر, الجيزة",
	"lat":"30.030104000000001",
	"lng":"31.021932",
	"enName":"Extension Of 26th Of July Spine, El Sheikh Zayed, 6th of october, Giza"
},
		{	"profileId":"170358",
	"profileURL":"//www.yellowpages.com.eg/en/profile/abk-_-al-ahli-bank-of-kuwait-_-egypt-_-atm/170358?b=61&k=19322&l=search",
	"arName":"طريق خزان اسوان, الكورنيش, اسوان",
	"lat":"24.070725800000002",
	"lng":"32.885314800000003",
	"enName":"Khazzan Aswan Rd., El corniche, Aswan"
},
		{	"profileId":"230746",
	"profileURL":"//www.yellowpages.com.eg/en/profile/abk-_-al-ahli-bank-of-kuwait-_-egypt-_-atm/230746?b=49&k=19322&l=search",
	"arName":"7 طريق النصر, المنطقة السادسة, مدينة نصر, القاهرة",
	"lat":"30.071379",
	"lng":"31.353722000000001",
	"enName":"7 El Nasr Rd., 6th Zone, Nasr city, Cairo"
},
		{	"profileId":"170352",
	"profileURL":"//www.yellowpages.com.eg/en/profile/abk-_-al-ahli-bank-of-kuwait-_-egypt-_-atm/170352?b=59&k=19322&l=search",
	"arName":"طريق السلام, خليج نبق, شرم الشيخ",
	"lat":"27.980647000000001",
	"lng":"34.383445999999999",
	"enName":"El Salam Rd., Nabq bay, Sharm el sheikh"
},
		{	"profileId":"230943",
	"profileURL":"//www.yellowpages.com.eg/en/profile/abk-_-al-ahli-bank-of-kuwait-_-egypt-_-atm/230943?b=50&k=19322&l=search",
	"arName":"ش محطة الكهرباء - عرب ابو ساعد, التبين, القاهرة",
	"lat":"29.765495000000001",
	"lng":"31.351955",
	"enName":"Mahattet El Kahrabaa St., Arab Abou Saed, El tebeen, Cairo"
},
		{	"profileId":"170309",
	"profileURL":"//www.yellowpages.com.eg/en/profile/abk-_-al-ahli-bank-of-kuwait-_-egypt-_-atm/170309?b=52&k=19322&l=search",
	"arName":"ش وادى النيل, حدائق القبة, القاهرة",
	"lat":"30.099685999999998",
	"lng":"31.296023000000002",
	"enName":"Wadi El Nil St., Hadayek el kobba, Cairo"
},
		{	"profileId":"187586",
	"profileURL":"//www.yellowpages.com.eg/en/profile/abk-_-al-ahli-bank-of-kuwait-_-egypt-_-atm/187586?b=60&k=19322&l=search",
	"arName":"كم 38 - طريق القاهرة اسكندرية الصحراوى - بفرلى هيلز, الشيخ زايد, السادس من اكتوبر, الجيزة",
	"lat":"30.057694999999999",
	"lng":"30.945954",
	"enName":"Km 38, Cairo Alex Desert Rd., Beverly Hills, El Sheikh Zayed, 6th of october, Giza"
},
		{	"profileId":"230654",
	"profileURL":"//www.yellowpages.com.eg/en/profile/abk-_-al-ahli-bank-of-kuwait-_-egypt-_-atm/230654?b=57&k=19322&l=search",
	"arName":"ش مديرية امن الاسكندرية - السوق التجارى, سموحة, الاسكندرية",
	"lat":"31.212966000000002",
	"lng":"29.947621000000002",
	"enName":"Modereyat Amn El Iskandareya St., Commercial Market, Semouha, Alexandria"
},
		{	"profileId":"170305",
	"profileURL":"//www.yellowpages.com.eg/en/profile/abk-_-al-ahli-bank-of-kuwait-_-egypt-_-atm/170305?b=40&k=19322&l=search",
	"arName":"ش عمر بن الخطاب, مصر الجديدة, القاهرة",
	"lat":"30.073430999999999",
	"lng":"31.347339000000002",
	"enName":"Omar Ibn El Khattab St., Heliopolis, Cairo"
},
		{	"profileId":"170264",
	"profileURL":"//www.yellowpages.com.eg/en/profile/abk-_-al-ahli-bank-of-kuwait-_-egypt-_-atm/170264?b=47&k=19322&l=search",
	"arName":"81 ش سليم الاول, حلمية الزيتون, القاهرة",
	"lat":"30.112389",
	"lng":"31.316752999999999",
	"enName":"81 Selim El Awal St., Helmeyet el zaitoun, Cairo"
},
		{	"profileId":"170299",
	"profileURL":"//www.yellowpages.com.eg/en/profile/abk-_-al-ahli-bank-of-kuwait-_-egypt-_-atm/170299?b=45&k=19322&l=search",
	"arName":"ش سراى الجزيرة, الزمالك, القاهرة",
	"lat":"30.051752",
	"lng":"31.227464000000001",
	"enName":"Saray El Gezirah St., Zamalek, Cairo"
}
	]
}, {	"arName":"البنك الاهلى الكويتى - مصر",
	"enName":"ABK - Al Ahli Bank Of Kuwait - Egypt",
	"hotline":"19322",
	"facebook":"http://www.facebook.com/ABKEgypt",
	"web":"http://www.abkegypt.com/",
	"arCategory":[
		"ماكينات الصراف الالى",
		"بنوك"
	],
	"enCategories":[
		"ATMs",
		"Banks"
	],
	"contacts":[
		{	"profileId":"166308",
	"profileURL":"//www.yellowpages.com.eg/en/profile/abk-_-al-ahli-bank-of-kuwait-_-egypt/166308?b=11&k=19322&l=search",
	"arName":"227 ش بورسعيد, السيدة زينب, القاهرة",
	"lat":"30.032662999999999",
	"lng":"31.240926000000002",
	"enName":"227 Port Said St., El sayeda zeinab, Cairo"
},
		{	"profileId":"166306",
	"profileURL":"//www.yellowpages.com.eg/en/profile/abk-_-al-ahli-bank-of-kuwait-_-egypt/166306?b=6&k=19322&l=search",
	"arName":"49 أ ش شبرا, شبرا, القاهرة",
	"lat":"30.067149000000001",
	"lng":"31.245117",
	"enName":"49 A Shoubra St., Shoubra, Cairo"
},
		{	"profileId":"166422",
	"profileURL":"//www.yellowpages.com.eg/en/profile/abk-_-al-ahli-bank-of-kuwait-_-egypt/166422?b=29&k=19322&l=search",
	"arName":"مجمع الكرمة 1 - المبنى الادارى - مبنى 101, الشيخ زايد, السادس من اكتوبر, الجيزة",
	"lat":"30.024115999999999",
	"lng":"30.998836000000001",
	"enName":"El Karma 1 Complex, Administrative Bldg., Bldg. 101, El Sheikh Zayed, 6th of october, Giza"
},
		{	"profileId":"231007",
	"profileURL":"//www.yellowpages.com.eg/en/profile/abk-_-al-ahli-bank-of-kuwait-_-egypt/231007?b=17&k=19322&l=search",
	"arName":"ابراج احمد ضيف الله - ش 15 تقاطع ش الجمهورية, سوهاج, سوهاج",
	"lat":"26.565622999999999",
	"lng":"31.696231999999998",
	"enName":"Ahmed Daif Allah Towers, Rd. 15 Intersection Of El Gomhoureya St., Sohag, Sohag"
},
		{	"profileId":"230555",
	"profileURL":"//www.yellowpages.com.eg/en/profile/abk-_-al-ahli-bank-of-kuwait-_-egypt/230555?b=37&k=19322&l=search",
	"arName":"ابراج المدينة - بلوك 18/1أ - المحور المركزى, الحى الثانى, السادس من اكتوبر, الجيزة",
	"lat":"29.970428999999999",
	"lng":"30.940815000000001",
	"enName":"El Madina Towers, Block 1/18A, Central Spine, 2nd District, 6th of october, Giza"
},
		{	"profileId":"230793",
	"profileURL":"//www.yellowpages.com.eg/en/profile/abk-_-al-ahli-bank-of-kuwait-_-egypt/230793?b=26&k=19322&l=search",
	"arName":"128 ش السودان, المهندسين, الجيزة",
	"lat":"30.048272999999998",
	"lng":"31.192436000000001",
	"enName":"128 Sudan St., Mohandeseen, Giza"
},
		{	"profileId":"456217",
	"profileURL":"//www.yellowpages.com.eg/en/profile/abk-_-al-ahli-bank-of-kuwait-_-egypt/456217?b=4&k=19322&l=search",
	"arName":"104 ش 26 يوليو, الزمالك, القاهرة",
	"lat":"30.038761999999998",
	"lng":"31.224277000000001",
	"enName":"104 26th Of July St., Zamalek, Cairo"
},
		{	"profileId":"132627",
	"profileURL":"//www.yellowpages.com.eg/en/profile/abk-_-al-ahli-bank-of-kuwait-_-egypt/132627?b=15&k=19322&l=search",
	"arName":"ش صلاح طاهر, هضبة ام السيد, شرم الشيخ",
	"lat":"27.868010999999999",
	"lng":"34.319325999999997",
	"enName":"Salah Taher St., Umm el sid hill, Sharm el sheikh"
},
		{	"profileId":"166653",
	"profileURL":"//www.yellowpages.com.eg/en/profile/abk-_-al-ahli-bank-of-kuwait-_-egypt/166653?b=22&k=19322&l=search",
	"arName":"ش الجمهورية تقاطع ش حافظ ابراهيم, حى الشرق, بور سعيد",
	"lat":"31.261785",
	"lng":"32.309804999999997",
	"enName":"El Gomhoureya St. Intersection Of Hafez Ibrahim St., El shark district, Port said"
},
		{	"profileId":"117407",
	"profileURL":"//www.yellowpages.com.eg/en/profile/abk-_-al-ahli-bank-of-kuwait-_-egypt/117407?b=35&k=19322&l=search",
	"arName":"1 ش البرج متفرع من ش 23 يوليو, حى السويس, السويس",
	"lat":"29.969169999999998",
	"lng":"32.552334000000002",
	"enName":"1 El Borg St. Off 23rd Of July St., Suez district, Suez"
},
		{	"profileId":"141261",
	"profileURL":"//www.yellowpages.com.eg/en/profile/abk-_-al-ahli-bank-of-kuwait-_-egypt/141261?b=10&k=19322&l=search",
	"arName":"12 ميدان سراى القبة, سراى القبة, القاهرة",
	"lat":"30.099015000000001",
	"lng":"31.307556999999999",
	"enName":"12 Saray El Qobba Sq., Saray el koba, Cairo"
},
		{	"profileId":"230787",
	"profileURL":"//www.yellowpages.com.eg/en/profile/abk-_-al-ahli-bank-of-kuwait-_-egypt/230787?b=16&k=19322&l=search",
	"arName":"2 ش عبد السلام الشاذلى تقاطع ش عمر بن الخطاب, دمنهور, البحيرة",
	"lat":"31.040023999999999",
	"lng":"30.457609000000001",
	"enName":"2 Abdel Salam El Shazly St. Intersection Of Omar Ibn El Khattab St., Damanhour, El beheira"
},
		{	"profileId":"117373",
	"profileURL":"//www.yellowpages.com.eg/en/profile/abk-_-al-ahli-bank-of-kuwait-_-egypt/117373?b=7&k=19322&l=search",
	"arName":"100 أ ش منصور, حلوان, القاهرة",
	"lat":"29.850536000000002",
	"lng":"31.333701999999999",
	"enName":"100 A Mansour St., Helwan, Cairo"
},
		{	"profileId":"231038",
	"profileURL":"//www.yellowpages.com.eg/en/profile/abk-_-al-ahli-bank-of-kuwait-_-egypt/231038?b=18&k=19322&l=search",
	"arName":"30 ش الجلاء, الزقازيق, الشرقية",
	"lat":"30.585984",
	"lng":"31.503743",
	"enName":"30 El Galaa St., El zagazig, El sharkeya"
},
		{	"profileId":"151139",
	"profileURL":"//www.yellowpages.com.eg/en/profile/abk-_-al-ahli-bank-of-kuwait-_-egypt/151139?b=12&k=19322&l=search",
	"arName":"48 ش الجيش, طنطا, الغربية",
	"lat":"30.793735999999999",
	"lng":"30.998069999999998",
	"enName":"48 El Guish St., Tanta, El gharbeya"
},
		{	"profileId":"230780",
	"profileURL":"//www.yellowpages.com.eg/en/profile/abk-_-al-ahli-bank-of-kuwait-_-egypt/230780?b=28&k=19322&l=search",
	"arName":"ابراج النيل - ش صلاح سالم - ش الهلالى سابقا تقاطع ش الثورة, اسيوط, اسيوط",
	"lat":"27.184571999999999",
	"lng":"31.195087999999998",
	"enName":"El Nil Towers, Salah Salem St. - El Helaly St. Previously Intersection Of El Thawra St., Assyout, Assyout"
},
		{	"profileId":"176335",
	"profileURL":"//www.yellowpages.com.eg/en/profile/abk-_-al-ahli-bank-of-kuwait-_-egypt/176335?b=3&k=19322&l=search",
	"arName":"3 ش متحف المنيل, المنيل, القاهرة",
	"lat":"30.025344",
	"lng":"31.228967999999998",
	"enName":"3 Mathaf El Manial St., El manyal, Cairo"
},
		{	"profileId":"14025",
	"profileURL":"//www.yellowpages.com.eg/en/profile/abk-_-al-ahli-bank-of-kuwait-_-egypt/14025?b=5&k=19322&l=search",
	"arName":"10 ش طلعت حرب - عمارة ايفر جرين - الدور 4, وسط البلد, القاهرة",
	"lat":"30.046488",
	"lng":"31.237634",
	"enName":"10 Talaat Harb St., Ever Green Bldg., Floor 4, Downtown, Cairo"
},
		{	"profileId":"136031",
	"profileURL":"//www.yellowpages.com.eg/en/profile/abk-_-al-ahli-bank-of-kuwait-_-egypt/136031?b=2&k=19322&l=search",
	"arName":"1 /4 ش اللاسلكى, المعادى الجديدة, المعادى, القاهرة",
	"lat":"29.974433999999999",
	"lng":"31.280956",
	"enName":"1 /4 El Laselky St., New Maadi, Maadi, Cairo"
},
		{	"profileId":"108320",
	"profileURL":"//www.yellowpages.com.eg/en/profile/abk-_-al-ahli-bank-of-kuwait-_-egypt/108320?b=1&k=19322&l=search",
	"arName":"خدمة العملاء, وسط البلد, القاهرة",
	"lat":"",
	"lng":"",
	"enName":"Customer Service, Downtown, Cairo"
},
		{	"profileId":"75108",
	"profileURL":"//www.yellowpages.com.eg/en/profile/abk-_-al-ahli-bank-of-kuwait-_-egypt/75108?b=24&k=19322&l=search",
	"arName":"4 ش سوريا, المهندسين, الجيزة",
	"lat":"30.053052000000001",
	"lng":"31.200351999999999",
	"enName":"4 Syria St., Mohandeseen, Giza"
},
		{	"profileId":"573769",
	"profileURL":"//www.yellowpages.com.eg/en/profile/abk-_-al-ahli-bank-of-kuwait-_-egypt/573769?b=19&k=19322&l=search",
	"arName":"60 ش الجيزة, الدقى, الجيزة",
	"lat":"",
	"lng":"",
	"enName":"60 Giza St., Dokki, Giza"
},
		{	"profileId":"573846",
	"profileURL":"//www.yellowpages.com.eg/en/profile/abk-_-al-ahli-bank-of-kuwait-_-egypt/573846?b=20&k=19322&l=search",
	"arName":"25 ش طلعت حرب متفرع من ش القاضى, الزقازيق, الشرقية",
	"lat":"30.586189999999998",
	"lng":"31.502749000000001",
	"enName":"25 Talaat Harb St. Off El Qady St., El zagazig, El sharkeya"
},
		{	"profileId":"75106",
	"profileURL":"//www.yellowpages.com.eg/en/profile/abk-_-al-ahli-bank-of-kuwait-_-egypt/75106?b=36&k=19322&l=search",
	"arName":"32 ب ش مراد, الجيزة, الجيزة",
	"lat":"30.019991000000001",
	"lng":"31.215803000000001",
	"enName":"32 B Mourad St., Giza, Giza"
},
		{	"profileId":"75105",
	"profileURL":"//www.yellowpages.com.eg/en/profile/abk-_-al-ahli-bank-of-kuwait-_-egypt/75105?b=8&k=19322&l=search",
	"arName":"52 ش نزيه خليفة, الكوربة, مصر الجديدة, القاهرة",
	"lat":"30.095865",
	"lng":"31.322755000000001",
	"enName":"52 Nazih Khalifa St., El Korba, Heliopolis, Cairo"
},
		{	"profileId":"166005",
	"profileURL":"//www.yellowpages.com.eg/en/profile/abk-_-al-ahli-bank-of-kuwait-_-egypt/166005?b=32&k=19322&l=search",
	"arName":"طريق رأس البر الجديد تقسيم زاهر - السنانية, دمياط, دمياط",
	"lat":"31.426676100000002",
	"lng":"31.800879800000001",
	"enName":"Ras El Bar New Rd. Zaher Division, El Sananeya, Damietta, Damietta"
},
		{	"profileId":"165990",
	"profileURL":"//www.yellowpages.com.eg/en/profile/abk-_-al-ahli-bank-of-kuwait-_-egypt/165990?b=14&k=19322&l=search",
	"arName":"38 ش على مبارك متفرع من ش سعد زغلول, المنصورة, الدقهلية",
	"lat":"31.055325",
	"lng":"31.398389000000002",
	"enName":"38 Aly Mubarak St. Off Saad Zaghloul St., El mansoura, El dakahleya"
},
		{	"profileId":"166295",
	"profileURL":"//www.yellowpages.com.eg/en/profile/abk-_-al-ahli-bank-of-kuwait-_-egypt/166295?b=33&k=19322&l=search",
	"arName":"15 ش محمود عزمى, العطارين, الاسكندرية",
	"lat":"31.195193",
	"lng":"29.901624000000002",
	"enName":"15 Mahmoud Azmy St., El attarin, Alexandria"
},
		{	"profileId":"137094",
	"profileURL":"//www.yellowpages.com.eg/en/profile/abk-_-al-ahli-bank-of-kuwait-_-egypt/137094?b=9&k=19322&l=search",
	"arName":"80 ش الخليفة المأمون, روكسى, مصر الجديدة, القاهرة",
	"lat":"30.092174",
	"lng":"31.313704000000001",
	"enName":"80 El Khalifa El Maamoun St., Roxy, Heliopolis, Cairo"
},
		{	"profileId":"166292",
	"profileURL":"//www.yellowpages.com.eg/en/profile/abk-_-al-ahli-bank-of-kuwait-_-egypt/166292?b=21&k=19322&l=search",
	"arName":"477 طريق الجيش, لوران, الاسكندرية",
	"lat":"31.256014",
	"lng":"29.978079000000001",
	"enName":"477 El Guish Rd., Loran, Alexandria"
},
		{	"profileId":"117368",
	"profileURL":"//www.yellowpages.com.eg/en/profile/abk-_-al-ahli-bank-of-kuwait-_-egypt/117368?b=34&k=19322&l=search",
	"arName":"كم 28 - طريق القاهرة اسكندرية الصحراوى, ابو رواش, الجيزة",
	"lat":"30.065577000000001",
	"lng":"31.025396000000001",
	"enName":"Km 28, Cairo Alex Desert Rd., Abou rawash, Giza"
},
		{	"profileId":"117425",
	"profileURL":"//www.yellowpages.com.eg/en/profile/abk-_-al-ahli-bank-of-kuwait-_-egypt/117425?b=30&k=19322&l=search",
	"arName":"82 ش ابطال التحرير - عمارة مصر للتأمين, وسط البلد, اسوان",
	"lat":"24.098004",
	"lng":"32.899912",
	"enName":"82 Abtal El Tahrir St., Misr Lel Taamin Bldg., Downtown, Aswan"
},
		{	"profileId":"75111",
	"profileURL":"//www.yellowpages.com.eg/en/profile/abk-_-al-ahli-bank-of-kuwait-_-egypt/75111?b=27&k=19322&l=search",
	"arName":"7 /6 مساكن المنصورية - ش فيصل - كفر نصار, فيصل, الجيزة",
	"lat":"29.989986999999999",
	"lng":"31.135114000000002",
	"enName":"7 /6 El Mansoureya Bldgs., Faisal St., Kafr Nassar, Faisal, Giza"
},
		{	"profileId":"533044",
	"profileURL":"//www.yellowpages.com.eg/en/profile/abk-_-al-ahli-bank-of-kuwait-_-egypt/533044?b=31&k=19322&l=search",
	"arName":"طريق الهضبة, الهضبة, الغردقة",
	"lat":"27.212693999999999",
	"lng":"33.840561999999998",
	"enName":"El Hadaba Rd., El hadaba, Hurghada"
},
		{	"profileId":"75110",
	"profileURL":"//www.yellowpages.com.eg/en/profile/abk-_-al-ahli-bank-of-kuwait-_-egypt/75110?b=25&k=19322&l=search",
	"arName":"2 ش باتريس لومومبا, باب شرق, الاسكندرية",
	"lat":"31.197455000000001",
	"lng":"29.911705000000001",
	"enName":"2 Patrice Lumumba St., Bab shark, Alexandria"
},
		{	"profileId":"166277",
	"profileURL":"//www.yellowpages.com.eg/en/profile/abk-_-al-ahli-bank-of-kuwait-_-egypt/166277?b=13&k=19322&l=search",
	"arName":"191 ش كورنيش النيل - برج لؤلؤة النيل, الكورنيش, المنيا",
	"lat":"28.097301000000002",
	"lng":"30.760328999999999",
	"enName":"191 Corniche El Nil St., Loualoaat El Nil Tower, El corniche, El menia"
},
		{	"profileId":"230961",
	"profileURL":"//www.yellowpages.com.eg/en/profile/abk-_-al-ahli-bank-of-kuwait-_-egypt/230961?b=38&k=19322&l=search",
	"arName":"ش شبين الكوم تقاطع ش العشرين - برج الجوهرة, وسط البلد, الاسماعيلية",
	"lat":"30.613218",
	"lng":"32.270496000000001",
	"enName":"Shebin El Koum St. Intersection Of El Eshreen St., El Gawhara Tower, Downtown, Ismaileya"
},
		{	"profileId":"170332",
	"profileURL":"//www.yellowpages.com.eg/en/profile/abk-_-al-ahli-bank-of-kuwait-_-egypt/170332?b=23&k=19322&l=search",
	"arName":"746 طريق الجيش, المنتزة, المنتزه, الاسكندرية",
	"lat":"31.277114999999998",
	"lng":"30.003933",
	"enName":"746 El Guish Rd., EL MONTAZA, El montazah, Alexandria"
}
	]
}]}