{"items":[{	"arName":"باستاويسى",
	"enName":"Pastaweesy",
	"hotline":"19034",
	"facebook":"http://www.facebook.com/Pastaweesy",
	"web":"http://www.pastaweesy.net/",
	"arCategory":[
		"وجبات سريعة",
		"مطاعم ايطالية",
		"مطاعم",
		"مطاعم صالات طعام"
	],
	"enCategories":[
		"Fast Food",
		"Italian Food",
		"Restaurants",
		"Restaurants Eat Out"
	],
	"contacts":[
		{	"profileId":"515964",
	"profileURL":"//www.yellowpages.com.eg/en/profile/pastaweesy/515964?b=8&k=19034&l=search",
	"arName":"55 ش فؤاد, محطة الرمل, الاسكندرية",
	"lat":"31.197662999999999",
	"lng":"29.905736999999998",
	"enName":"55 Fouad St., Raml station, Alexandria"
},
		{	"profileId":"567732",
	"profileURL":"//www.yellowpages.com.eg/en/profile/pastaweesy/567732?b=1&k=19034&l=search",
	"arName":"22 ش النور متفرع من ش مصدق, الدقى, الجيزة",
	"lat":"30.039345000000001",
	"lng":"31.205594000000001",
	"enName":"22 El Nour St. Off Mossadak St., Dokki, Giza"
},
		{	"profileId":"567815",
	"profileURL":"//www.yellowpages.com.eg/en/profile/pastaweesy/567815?b=7&k=19034&l=search",
	"arName":"68 ش جامعة الدول العربية, المهندسين, الجيزة",
	"lat":"30.050152000000001",
	"lng":"31.199321999999999",
	"enName":"68 Gamaet El Dewal El Arabeya St., Mohandeseen, Giza"
},
		{	"profileId":"567818",
	"profileURL":"//www.yellowpages.com.eg/en/profile/pastaweesy/567818?b=5&k=19034&l=search",
	"arName":"ميدان الحصرى - المحور المركزى, الحى السابع, السادس من اكتوبر, الجيزة",
	"lat":"29.973018",
	"lng":"30.944527000000001",
	"enName":"El Hosary Sq., Central Spine, 7th District, 6th of october, Giza"
},
		{	"profileId":"471548",
	"profileURL":"//www.yellowpages.com.eg/en/profile/pastaweesy/471548?b=3&k=19034&l=search",
	"arName":"67 ش ابو بكر الصديق, ميدان سفير, مصر الجديدة, القاهرة",
	"lat":"30.098967999999999",
	"lng":"31.335753",
	"enName":"67 Abou Bakr El Seddik St., Safir Square, Heliopolis, Cairo"
},
		{	"profileId":"471549",
	"profileURL":"//www.yellowpages.com.eg/en/profile/pastaweesy/471549?b=6&k=19034&l=search",
	"arName":"خدمة توصيل الطلبات للمنازل, المهندسين, الجيزة",
	"lat":"",
	"lng":"",
	"enName":"Home Delivery, Mohandeseen, Giza"
},
		{	"profileId":"581685",
	"profileURL":"//www.yellowpages.com.eg/en/profile/pastaweesy/581685?b=2&k=19034&l=search",
	"arName":"20 ش النصر, المعادى الجديدة, المعادى, القاهرة",
	"lat":"29.974810999999999",
	"lng":"31.278247",
	"enName":"20 El Nasr St., New Maadi, Maadi, Cairo"
},
		{	"profileId":"511995",
	"profileURL":"//www.yellowpages.com.eg/en/profile/pastaweesy/511995?b=4&k=19034&l=search",
	"arName":"50 ش مكرم عبيد, مدينة نصر, القاهرة",
	"lat":"30.060326",
	"lng":"31.345124999999999",
	"enName":"50 Makram Ebaid St., Nasr city, Cairo"
}
	]
}, {	"arName":"بيتزا لابومبا",
	"enName":"Pizza Labomba",
	"hotline":"19034",
	"facebook":"http://www.facebook.com/Pizza-Labomba-237649833059250",
	"web":"http://www.pizzalabomba.com/",
	"arCategory":[
		"بيتزا",
		"مطاعم",
		"مطاعم صالات طعام"
	],
	"enCategories":[
		"Pizza",
		"Restaurants",
		"Restaurants Eat Out"
	],
	"contacts":[
		{	"profileId":"515970",
	"profileURL":"//www.yellowpages.com.eg/en/profile/pizza-labomba/515970?b=11&k=19034&l=search",
	"arName":"55 ش فؤاد, محطة الرمل, الاسكندرية",
	"lat":"31.197662999999999",
	"lng":"29.905736999999998",
	"enName":"55 Fouad St., Raml station, Alexandria"
},
		{	"profileId":"464999",
	"profileURL":"//www.yellowpages.com.eg/en/profile/pizza-labomba/464999?b=10&k=19034&l=search",
	"arName":"25 عمارات التعاونيات - المجاورة الاولى - الحى الاول, الشيخ زايد, السادس من اكتوبر, الجيزة",
	"lat":"29.981126",
	"lng":"30.917629999999999",
	"enName":"25 Taawoneyat Bldgs., 1St Neighbourhood, 1St District, El Sheikh Zayed, 6th of october, Giza"
},
		{	"profileId":"426783",
	"profileURL":"//www.yellowpages.com.eg/en/profile/pizza-labomba/426783?b=12&k=19034&l=search",
	"arName":"46 ش مصدق, الدقى, الجيزة",
	"lat":"30.039361",
	"lng":"31.205411999999999",
	"enName":"46 Mossadak St., Dokki, Giza"
},
		{	"profileId":"471550",
	"profileURL":"//www.yellowpages.com.eg/en/profile/pizza-labomba/471550?b=13&k=19034&l=search",
	"arName":"خدمة توصيل الطلبات للمنازل, الدقى, الجيزة",
	"lat":"",
	"lng":"",
	"enName":"Home Delivery, Dokki, Giza"
},
		{	"profileId":"526340",
	"profileURL":"//www.yellowpages.com.eg/en/profile/pizza-labomba/526340?b=9&k=19034&l=search",
	"arName":"القطعة A - ش التسعين - مركز المدينة, التجمع الخامس, القاهرة الجديدة, القاهرة",
	"lat":"30.016922000000001",
	"lng":"31.412593999999999",
	"enName":"Plot A, El Tesaeen St., City Center, 5th Compound, New cairo, Cairo"
}
	]
}]}