{"items":[{	"arName":"معامل البرج",
	"enName":"Al Borg Laboratories",
	"hotline":"19911",
	"facebook":"http://www.facebook.com/AlBorg.Egypt",
	"web":"http://www.alborglab.com/",
	"arCategory":[
		"معامل طبية"
	],
	"enCategories":[
		"Laboratories Medical"
	],
	"contacts":[
		{	"profileId":"564357",
	"profileURL":"//www.yellowpages.com.eg/en/profile/al-borg-laboratories/564357?b=7&k=19911&l=search",
	"arName":"64 أ ش جسر السويس ميدان الف مسكن, جسر السويس, القاهرة",
	"lat":"30.095483000000002",
	"lng":"31.310337000000001",
	"enName":"64 A Gesr El Suez St. Alf Maskan Sq., Gesr el suez, Cairo"
},
		{	"profileId":"564478",
	"profileURL":"//www.yellowpages.com.eg/en/profile/al-borg-laboratories/564478?b=143&k=19911&l=search",
	"arName":"ش الجيش, زفتى, الغربية",
	"lat":"",
	"lng":"",
	"enName":"El Guish St., Zefta, El gharbeya"
},
		{	"profileId":"564355",
	"profileURL":"//www.yellowpages.com.eg/en/profile/al-borg-laboratories/564355?b=20&k=19911&l=search",
	"arName":"561 ش بورسعيد, باب الشعرية, القاهرة",
	"lat":"30.059200000000001",
	"lng":"31.260000000000002",
	"enName":"561 Port Said St., Bab el shaareya, Cairo"
},
		{	"profileId":"564597",
	"profileURL":"//www.yellowpages.com.eg/en/profile/al-borg-laboratories/564597?b=57&k=19911&l=search",
	"arName":"ش النصر, الدهار, الغردقة",
	"lat":"27.249442999999999",
	"lng":"33.819603000000001",
	"enName":"El Nasr St., Dahar, Hurghada"
},
		{	"profileId":"564598",
	"profileURL":"//www.yellowpages.com.eg/en/profile/al-borg-laboratories/564598?b=151&k=19911&l=search",
	"arName":"4 ش العدل ميدان البساتين, الخارجة, الوادى الجديد",
	"lat":"25.443138999999999",
	"lng":"30.545929999999998",
	"enName":"4 El Adl St. El Basateen Sq., El kharga, El wadi el gadid"
},
		{	"profileId":"237753",
	"profileURL":"//www.yellowpages.com.eg/en/profile/al-borg-laboratories/237753?b=133&k=19911&l=search",
	"arName":"11 ش عيد مصطفى تقاطع ش فيصل, فيصل, الجيزة",
	"lat":"30.013370999999999",
	"lng":"31.199165600000001",
	"enName":"11 Eid Mostafa St. Intersection Of Faisal St., Faisal, Giza"
},
		{	"profileId":"135841",
	"profileURL":"//www.yellowpages.com.eg/en/profile/al-borg-laboratories/135841?b=29&k=19911&l=search",
	"arName":"23 ش 9 صيام - الدور 1, المقطم, القاهرة",
	"lat":"30.013943999999999",
	"lng":"31.286113",
	"enName":"23 Rd. 9 Seyam, Floor 1, Mokattam, Cairo"
},
		{	"profileId":"237993",
	"profileURL":"//www.yellowpages.com.eg/en/profile/al-borg-laboratories/237993?b=135&k=19911&l=search",
	"arName":"ش الثورة تقاطع ش رمسيس - ميدان الجامعة - الدور 2, ايتاى البارود, البحيرة",
	"lat":"30.885082000000001",
	"lng":"30.664781999999999",
	"enName":"El Thawra St. Intersection Of Ramsis St., El Gamaa Sq., Floor 2, Etay el barod, El beheira"
},
		{	"profileId":"356159",
	"profileURL":"//www.yellowpages.com.eg/en/profile/al-borg-laboratories/356159?b=136&k=19911&l=search",
	"arName":"محور خدمات الحى الثانى - الدور 1, مدينة السادات, المنوفية",
	"lat":"30.032363",
	"lng":"31.259817999999999",
	"enName":"2nd District Services Spine, Floor 1, Sadat city, El monofeya"
},
		{	"profileId":"373735",
	"profileURL":"//www.yellowpages.com.eg/en/profile/al-borg-laboratories/373735?b=139&k=19911&l=search",
	"arName":"ش الجيش تقاطع ش جواد حسنى, شربين, الدقهلية",
	"lat":"31.1944853",
	"lng":"31.520592099999998",
	"enName":"El Guish St. Intersection Of Gawad Hosny St., Sherbin, El dakahleya"
},
		{	"profileId":"205088",
	"profileURL":"//www.yellowpages.com.eg/en/profile/al-borg-laboratories/205088?b=38&k=19911&l=search",
	"arName":"97 ش التحرير, الدقى, الجيزة",
	"lat":"30.037542999999999",
	"lng":"31.20917",
	"enName":"97 El Tahrir St., Dokki, Giza"
},
		{	"profileId":"205086",
	"profileURL":"//www.yellowpages.com.eg/en/profile/al-borg-laboratories/205086?b=18&k=19911&l=search",
	"arName":"53 ش محمد الخلفاوى ميدان الخلفاوى, شبرا, القاهرة",
	"lat":"30.097518000000001",
	"lng":"31.246034999999999",
	"enName":"53 Mohamed El Khalafawy St. El Khalafawy Sq., Shoubra, Cairo"
},
		{	"profileId":"564481",
	"profileURL":"//www.yellowpages.com.eg/en/profile/al-borg-laboratories/564481?b=120&k=19911&l=search",
	"arName":"ش الجلاء - برج السلام, السنطة, الغربية",
	"lat":"30.725093000000001",
	"lng":"31.119254999999999",
	"enName":"El Galaa St., El Salam Tower, As-santah, El gharbeya"
},
		{	"profileId":"237746",
	"profileURL":"//www.yellowpages.com.eg/en/profile/al-borg-laboratories/237746?b=31&k=19911&l=search",
	"arName":"1 ش سيد زكريا, مساكن شيراتون, مصر الجديدة, القاهرة",
	"lat":"30.101085999999999",
	"lng":"31.375603000000002",
	"enName":"1 Sayed Zakareya St., Sheraton Bldgs., Heliopolis, Cairo"
},
		{	"profileId":"304166",
	"profileURL":"//www.yellowpages.com.eg/en/profile/al-borg-laboratories/304166?b=111&k=19911&l=search",
	"arName":"ش عمر مكرم - الدور 1, جرجا, سوهاج",
	"lat":"26.331441999999999",
	"lng":"31.890661000000001",
	"enName":"Omar Makram St., Floor 1, Gerga, Sohag"
},
		{	"profileId":"205084",
	"profileURL":"//www.yellowpages.com.eg/en/profile/al-borg-laboratories/205084?b=30&k=19911&l=search",
	"arName":"115 ش مصر والسودان, حدائق القبة, القاهرة",
	"lat":"30.081951",
	"lng":"31.281675",
	"enName":"115 Misr & Sudan St., Hadayek el kobba, Cairo"
},
		{	"profileId":"205083",
	"profileURL":"//www.yellowpages.com.eg/en/profile/al-borg-laboratories/205083?b=3&k=19911&l=search",
	"arName":"4 ش المروة, روكسى, مصر الجديدة, القاهرة",
	"lat":"30.093926",
	"lng":"31.316797000000001",
	"enName":"4 El Marwa St., Roxy, Heliopolis, Cairo"
},
		{	"profileId":"564369",
	"profileURL":"//www.yellowpages.com.eg/en/profile/al-borg-laboratories/564369?b=47&k=19911&l=search",
	"arName":"2 ش المهندس عبد العظيم متفرع من ش الخصوص, الخصوص, القليوبية",
	"lat":"",
	"lng":"",
	"enName":"2 El Mohandes Abdel Azim St. Off El Khosous St., El khosous, Kaliobeya"
},
		{	"profileId":"564487",
	"profileURL":"//www.yellowpages.com.eg/en/profile/al-borg-laboratories/564487?b=96&k=19911&l=search",
	"arName":"ش الحرية - ش ابو رجيلة سابقا, بلقاس, الدقهلية",
	"lat":"31.215890000000002",
	"lng":"31.356926000000001",
	"enName":"El Horreya St. - Abou Regaila St. Previously, Belqas, El dakahleya"
},
		{	"profileId":"564367",
	"profileURL":"//www.yellowpages.com.eg/en/profile/al-borg-laboratories/564367?b=92&k=19911&l=search",
	"arName":"3 ش السلام متفرع من ش العاشر من رمضان - الدور 1, قليوب, القليوبية",
	"lat":"30.181283000000001",
	"lng":"31.211742000000001",
	"enName":"3 El Salam St. Off 10th Of Ramadan St., Floor 1, Qalyub, Kaliobeya"
},
		{	"profileId":"373684",
	"profileURL":"//www.yellowpages.com.eg/en/profile/al-borg-laboratories/373684?b=137&k=19911&l=search",
	"arName":"ش صلاح سالم, كوم امبو, اسوان",
	"lat":"24.477201300000001",
	"lng":"32.947480400000003",
	"enName":"Salah Salem St., Kom ombo, Aswan"
},
		{	"profileId":"373724",
	"profileURL":"//www.yellowpages.com.eg/en/profile/al-borg-laboratories/373724?b=116&k=19911&l=search",
	"arName":"ش 23 يوليو ميدان سيدى سالم, سيدى سالم, كفر الشيخ",
	"lat":"31.271226500000001",
	"lng":"30.788605100000002",
	"enName":"23rd Of July St. Sidi Salem Sq., Sidi salem, Kafr el sheikh"
},
		{	"profileId":"176658",
	"profileURL":"//www.yellowpages.com.eg/en/profile/al-borg-laboratories/176658?b=14&k=19911&l=search",
	"arName":"خدمة العملاء, المعادى, القاهرة",
	"lat":"",
	"lng":"",
	"enName":"Customer Service, Maadi, Cairo"
},
		{	"profileId":"167425",
	"profileURL":"//www.yellowpages.com.eg/en/profile/al-borg-laboratories/167425?b=108&k=19911&l=search",
	"arName":"ش احمد عرابى - الدور 3, ميت غمر, الدقهلية",
	"lat":"30.720199099999999",
	"lng":"31.255233100000002",
	"enName":"Ahmed Orabi St., Floor 3, Mit ghamr, El dakahleya"
},
		{	"profileId":"304171",
	"profileURL":"//www.yellowpages.com.eg/en/profile/al-borg-laboratories/304171?b=6&k=19911&l=search",
	"arName":"1 ش شعبان موسى متفرع من ش عين شمس, عين شمس, القاهرة",
	"lat":"30.137788",
	"lng":"31.325652999999999",
	"enName":"1 Shaaban Mousa St. Off Ain Shams St., Ain shams, Cairo"
},
		{	"profileId":"373690",
	"profileURL":"//www.yellowpages.com.eg/en/profile/al-borg-laboratories/373690?b=44&k=19911&l=search",
	"arName":"93 ش كورنيش النيل, الكورنيش, اسوان",
	"lat":"24.090975799999999",
	"lng":"32.895775",
	"enName":"93 Corniche El Nil St., El corniche, Aswan"
},
		{	"profileId":"205097",
	"profileURL":"//www.yellowpages.com.eg/en/profile/al-borg-laboratories/205097?b=109&k=19911&l=search",
	"arName":"طريق اسكندرية مطروح - برج الهلال, العجمى, الاسكندرية",
	"lat":"31.106252000000001",
	"lng":"29.782239000000001",
	"enName":"Alex Matrouh Rd., El Helal Tower, Agami, Alexandria"
},
		{	"profileId":"564492",
	"profileURL":"//www.yellowpages.com.eg/en/profile/al-borg-laboratories/564492?b=144&k=19911&l=search",
	"arName":"ش فهمى - برج العراقى, اجا, الدقهلية",
	"lat":"30.943207000000001",
	"lng":"31.293778",
	"enName":"Fahmy St., El Iraqy Tower, Aga, El dakahleya"
},
		{	"profileId":"564493",
	"profileURL":"//www.yellowpages.com.eg/en/profile/al-borg-laboratories/564493?b=121&k=19911&l=search",
	"arName":"الاردنية - مجمع عبد المقصود - القطعة 43 - عمارة 10, العاشر من رمضان, الشرقية",
	"lat":"30.293655000000001",
	"lng":"31.745714",
	"enName":"El Ordoneya, Abdel Maqsoud Complex, Plot 43, Bldg. 10, 10th of ramadan, El sharkeya"
},
		{	"profileId":"564491",
	"profileURL":"//www.yellowpages.com.eg/en/profile/al-borg-laboratories/564491?b=50&k=19911&l=search",
	"arName":"ش التحرير, كوم حمادة, البحيرة",
	"lat":"",
	"lng":"",
	"enName":"El Tahrir St., Kom hamada, El beheira"
},
		{	"profileId":"564375",
	"profileURL":"//www.yellowpages.com.eg/en/profile/al-borg-laboratories/564375?b=12&k=19911&l=search",
	"arName":"28 ش عبد الله العربى امتداد ش الطيران, الحى السابع, مدينة نصر, القاهرة",
	"lat":"30.048052999999999",
	"lng":"31.328396999999999",
	"enName":"28 Abdullah El Araby St. Extension Of El Tayaran St., 7th District, Nasr city, Cairo"
},
		{	"profileId":"205093",
	"profileURL":"//www.yellowpages.com.eg/en/profile/al-borg-laboratories/205093?b=19&k=19911&l=search",
	"arName":"2 أ عمارات الفاروقية - ش جسر السويس - الدور 2, جسر السويس, القاهرة",
	"lat":"30.139339",
	"lng":"31.392451999999999",
	"enName":"2 A El Farouqeya Bldgs., Gesr El Suez St., Floor 2, Gesr el suez, Cairo"
},
		{	"profileId":"564496",
	"profileURL":"//www.yellowpages.com.eg/en/profile/al-borg-laboratories/564496?b=51&k=19911&l=search",
	"arName":"57 ميدان القومية - برج الصفا, الزقازيق, الشرقية",
	"lat":"30.590489000000002",
	"lng":"31.495121000000001",
	"enName":"57 El Qawmeya Sq., El Safa Tower, El zagazig, El sharkeya"
},
		{	"profileId":"456101",
	"profileURL":"//www.yellowpages.com.eg/en/profile/al-borg-laboratories/456101?b=140&k=19911&l=search",
	"arName":"ش سعد زغلول تقاطع ش المدارس - الدور 2, الوسطى, بنى سويف",
	"lat":"29.337228",
	"lng":"31.204802999999998",
	"enName":"Saad Zaghloul St. Intersection Of El Madares St., Floor 2, El wastah, Benisuef"
},
		{	"profileId":"564497",
	"profileURL":"//www.yellowpages.com.eg/en/profile/al-borg-laboratories/564497?b=145&k=19911&l=search",
	"arName":"ش بورسعيد - عمارة الحريرى, ابو حماد, الشرقية",
	"lat":"30.533308000000002",
	"lng":"31.673584000000002",
	"enName":"Port Said St., El Hariry Bldg., Abou hammad, El sharkeya"
},
		{	"profileId":"121549",
	"profileURL":"//www.yellowpages.com.eg/en/profile/al-borg-laboratories/121549?b=8&k=19911&l=search",
	"arName":"91 ش بورسعيد تقاطع ش مجلس الامة, السيدة زينب, القاهرة",
	"lat":"30.036594000000001",
	"lng":"31.247858000000001",
	"enName":"91 Port Said St. Intersection Of Magles El Ommah St., El sayeda zeinab, Cairo"
},
		{	"profileId":"205090",
	"profileURL":"//www.yellowpages.com.eg/en/profile/al-borg-laboratories/205090?b=39&k=19911&l=search",
	"arName":"83 ش ابو بكر الصديق تقاطع ش ناهيا, بولاق الدكرور, الجيزة",
	"lat":"30.042870000000001",
	"lng":"31.186413999999999",
	"enName":"83 Abou Bakr El Seddik St. Intersection Of Nahya St., Boulak el dakrour, Giza"
},
		{	"profileId":"564379",
	"profileURL":"//www.yellowpages.com.eg/en/profile/al-borg-laboratories/564379?b=93&k=19911&l=search",
	"arName":"84 ش عمر لطفى - برج اراك تاور بلازا, الابراهيمية, الاسكندرية",
	"lat":"31.214238999999999",
	"lng":"29.925407",
	"enName":"84 Omar Lotfy St., Arak Tower Plaza, El ibrahimeya, Alexandria"
},
		{	"profileId":"564498",
	"profileURL":"//www.yellowpages.com.eg/en/profile/al-borg-laboratories/564498?b=122&k=19911&l=search",
	"arName":"ش التحرير - حى النصر - برج الشوبكى, كفر صقر, الشرقية",
	"lat":"30.795176999999999",
	"lng":"31.627455000000001",
	"enName":"El Tahrir St., El Nasr District, El Shobky Tower, Kafr sakr, El sharkeya"
},
		{	"profileId":"160146",
	"profileURL":"//www.yellowpages.com.eg/en/profile/al-borg-laboratories/160146?b=129&k=19911&l=search",
	"arName":"ش الجمهورية, وسط البلد, الفيوم",
	"lat":"29.308713999999998",
	"lng":"30.842822999999999",
	"enName":"El Gomhoureya St., Downtown, El fayoum"
},
		{	"profileId":"160149",
	"profileURL":"//www.yellowpages.com.eg/en/profile/al-borg-laboratories/160149?b=84&k=19911&l=search",
	"arName":"ابراج الصفوة - ش كورنيش النيل, دمياط, دمياط",
	"lat":"31.414818",
	"lng":"31.802467",
	"enName":"El Safwa Towers, Corniche El Nil St., Damietta, Damietta"
},
		{	"profileId":"297797",
	"profileURL":"//www.yellowpages.com.eg/en/profile/al-borg-laboratories/297797?b=88&k=19911&l=search",
	"arName":"90 ابراج سما الحرية - ش فوزى معاذ - الدور 2, سموحة, الاسكندرية",
	"lat":"31.212537000000001",
	"lng":"29.939309999999999",
	"enName":"90 Sama El Horreya Towers, Fawzy Moaz St., Floor 2, Semouha, Alexandria"
},
		{	"profileId":"460125",
	"profileURL":"//www.yellowpages.com.eg/en/profile/al-borg-laboratories/460125?b=46&k=19911&l=search",
	"arName":"ش معهد الابحاث, امبابة, الجيزة",
	"lat":"30.094788999999999",
	"lng":"31.218952000000002",
	"enName":"Maahad El Abhas St., Imbaba, Giza"
},
		{	"profileId":"127362",
	"profileURL":"//www.yellowpages.com.eg/en/profile/al-borg-laboratories/127362?b=131&k=19911&l=search",
	"arName":"15 ش التحرير - السوق التجارى - الدور 2, قنطرة غرب, الاسماعيلية",
	"lat":"30.853718400000002",
	"lng":"32.307489199999999",
	"enName":"15 El Tahrir St., Commercial Market, Floor 2, EL QANTARAH GHARB, Qantarah gharb, Ismaileya"
},
		{	"profileId":"167455",
	"profileURL":"//www.yellowpages.com.eg/en/profile/al-borg-laboratories/167455?b=83&k=19911&l=search",
	"arName":"30 ش كورنيش النيل - برج عز الدولة - الدور 2, حى غرب, سوهاج",
	"lat":"26.563762000000001",
	"lng":"31.697078999999999",
	"enName":"30 Corniche El Nil St., Ezz El Dawla Tower, Floor 2, Gharb district, Sohag"
},
		{	"profileId":"217413",
	"profileURL":"//www.yellowpages.com.eg/en/profile/al-borg-laboratories/217413?b=4&k=19911&l=search",
	"arName":"المنطقة الادارية, مدينة الرحاب, القاهرة",
	"lat":"30.059887",
	"lng":"31.492045999999998",
	"enName":"Administrative Zone, Al rehab city, Cairo"
},
		{	"profileId":"72406",
	"profileURL":"//www.yellowpages.com.eg/en/profile/al-borg-laboratories/72406?b=35&k=19911&l=search",
	"arName":"22 ش الجلاء البحرى - الدور 1, شبين الكوم, المنوفية",
	"lat":"30.556677499999999",
	"lng":"31.008081399999998",
	"enName":"22 El Galaa El Bahary St., Floor 1, SHIBIN EL KAWM, Shebein el kawm, El monofeya"
},
		{	"profileId":"564545",
	"profileURL":"//www.yellowpages.com.eg/en/profile/al-borg-laboratories/564545?b=97&k=19911&l=search",
	"arName":"13 ش جمال عبد الناصر, كفر شكر, القليوبية",
	"lat":"30.549016999999999",
	"lng":"31.267637000000001",
	"enName":"13 Gamal Abdel Nasser St., Kafr shoukr, Kaliobeya"
},
		{	"profileId":"72404",
	"profileURL":"//www.yellowpages.com.eg/en/profile/al-borg-laboratories/72404?b=105&k=19911&l=search",
	"arName":"55 ش عبد المنعم رياض متفرع من ش البطل احمد عبد العزيز - برج الاطباء, المهندسين, الجيزة",
	"lat":"30.053984",
	"lng":"31.209299999999999",
	"enName":"55 Abdel Moneim Riad St. Off El Batal Ahmed Abdel Aziz St., El Atebaa Tower, Mohandeseen, Giza"
},
		{	"profileId":"72401",
	"profileURL":"//www.yellowpages.com.eg/en/profile/al-borg-laboratories/72401?b=34&k=19911&l=search",
	"arName":"24 ش احمد عرابى - عمارة مصر للتأمين - الدور 5, دمنهور, البحيرة",
	"lat":"31.039403",
	"lng":"30.470458000000001",
	"enName":"24 Ahmed Orabi St., Misr Lel Taamin Bldg., Floor 5, Damanhour, El beheira"
},
		{	"profileId":"568744",
	"profileURL":"//www.yellowpages.com.eg/en/profile/al-borg-laboratories/568744?b=102&k=19911&l=search",
	"arName":"ش 23 يوليو تقاطع ش مجلس المدينة, ادفو, اسوان",
	"lat":"24.978735",
	"lng":"32.875908000000003",
	"enName":"23rd Of July St. Intersection Of Magles El Madina St., Edfou, Aswan"
},
		{	"profileId":"564547",
	"profileURL":"//www.yellowpages.com.eg/en/profile/al-borg-laboratories/564547?b=52&k=19911&l=search",
	"arName":"1 ش المدينة المنورة - الدور 1, مشتول السوق, الشرقية",
	"lat":"30.361609999999999",
	"lng":"31.379702000000002",
	"enName":"1 El Madina El Monawara St., Floor 1, Mashtoul el souk, El sharkeya"
},
		{	"profileId":"72400",
	"profileURL":"//www.yellowpages.com.eg/en/profile/al-borg-laboratories/72400?b=125&k=19911&l=search",
	"arName":"363 ش 23 يوليو - الدور 2, حى السويس, السويس",
	"lat":"29.964869",
	"lng":"32.555489000000001",
	"enName":"363 23rd Of July St., Floor 2, Suez district, Suez"
},
		{	"profileId":"564308",
	"profileURL":"//www.yellowpages.com.eg/en/profile/al-borg-laboratories/564308?b=141&k=19911&l=search",
	"arName":"362 ش فيصل, الطالبية, فيصل, الجيزة",
	"lat":"30.005407000000002",
	"lng":"31.177741999999999",
	"enName":"362 Faisal St., El Talbeya, Faisal, Giza"
},
		{	"profileId":"160134",
	"profileURL":"//www.yellowpages.com.eg/en/profile/al-borg-laboratories/160134?b=128&k=19911&l=search",
	"arName":"102 ش الجيش تقاطع ش صفية زغلول - برج الامراء - الدور 2, حى الشرق, بور سعيد",
	"lat":"31.262372299999999",
	"lng":"32.309535699999998",
	"enName":"102 El Guish St. Intersection Of Safeya Zaghloul St., El Omaraa Tower, Floor 2, El shark district, Port said"
},
		{	"profileId":"167443",
	"profileURL":"//www.yellowpages.com.eg/en/profile/al-borg-laboratories/167443?b=82&k=19911&l=search",
	"arName":"7 عمارات الفتح - المحور المركزى, الحى الثالث, السادس من اكتوبر, الجيزة",
	"lat":"29.965935000000002",
	"lng":"30.933409000000001",
	"enName":"7 El Fath Bldgs., Central Spine, 3rd District, 6th of october, Giza"
},
		{	"profileId":"237755",
	"profileURL":"//www.yellowpages.com.eg/en/profile/al-borg-laboratories/237755?b=90&k=19911&l=search",
	"arName":"المجاورة الاولى - الحى الاول, الشيخ زايد, السادس من اكتوبر, الجيزة",
	"lat":"30.040483999999999",
	"lng":"31.008147000000001",
	"enName":"1St Neighbourhood, 1St District, El Sheikh Zayed, 6th of october, Giza"
},
		{	"profileId":"564551",
	"profileURL":"//www.yellowpages.com.eg/en/profile/al-borg-laboratories/564551?b=123&k=19911&l=search",
	"arName":"34 /10 ش حسب الله الكفراوى المجاورة الثالثة - الحى الثانى, دمياط الجديدة, دمياط",
	"lat":"",
	"lng":"",
	"enName":"34 /10 Hasab Allah El Kafrawy St. 3rd Neighbourhood, 2nd District, New damietta, Damietta"
},
		{	"profileId":"564552",
	"profileURL":"//www.yellowpages.com.eg/en/profile/al-borg-laboratories/564552?b=98&k=19911&l=search",
	"arName":"ش سعد زغلول, اشمون, المنوفية",
	"lat":"30.296438999999999",
	"lng":"30.979631999999999",
	"enName":"Saad Zaghloul St., Ashmoun, El monofeya"
},
		{	"profileId":"238000",
	"profileURL":"//www.yellowpages.com.eg/en/profile/al-borg-laboratories/238000?b=115&k=19911&l=search",
	"arName":"ش سعد زغلول, منيا القمح, الشرقية",
	"lat":"30.515611",
	"lng":"31.3449141",
	"enName":"Saad Zaghloul St., Minya el qamh, El sharkeya"
},
		{	"profileId":"564311",
	"profileURL":"//www.yellowpages.com.eg/en/profile/al-borg-laboratories/564311?b=117&k=19911&l=search",
	"arName":"عمارة 122ج, حدائق الاهرام, الهرم, الجيزة",
	"lat":"29.978227",
	"lng":"31.111315000000001",
	"enName":"Bldg. 122C, Hadayek El Ahram, El haram, Giza"
},
		{	"profileId":"72412",
	"profileURL":"//www.yellowpages.com.eg/en/profile/al-borg-laboratories/72412?b=126&k=19911&l=search",
	"arName":"7 ش بورسعيد - الدور 1, كفر الدوار, البحيرة",
	"lat":"31.134243000000001",
	"lng":"30.136935999999999",
	"enName":"7 Port Said St., Floor 1, Kafr el dawar, El beheira"
},
		{	"profileId":"72413",
	"profileURL":"//www.yellowpages.com.eg/en/profile/al-borg-laboratories/72413?b=36&k=19911&l=search",
	"arName":"ش الجيش تقاطع ش الشركات, دسوق, كفر الشيخ",
	"lat":"31.132327",
	"lng":"30.639797000000002",
	"enName":"El Guish St. Intersection Of El Sharekat St., Disuq, Kafr el sheikh"
},
		{	"profileId":"6951",
	"profileURL":"//www.yellowpages.com.eg/en/profile/al-borg-laboratories/6951?b=26&k=19911&l=search",
	"arName":"1 ش 153 ميدان الحرية, المعادى, القاهرة",
	"lat":"29.959575999999998",
	"lng":"31.254331000000001",
	"enName":"1 Rd. 153 El Horreya Sq., Maadi, Cairo"
},
		{	"profileId":"72410",
	"profileURL":"//www.yellowpages.com.eg/en/profile/al-borg-laboratories/72410?b=81&k=19911&l=search",
	"arName":"173 ش بورسعيد تقاطع ش الكومى - برج فخر الادارى - الدور 1, بلبيس, الشرقية",
	"lat":"30.419955000000002",
	"lng":"31.561081000000001",
	"enName":"173 Port Said St. Intersection Of El Koumy St., Fakhr Administrative Tower, Floor 1, Belbeis, El sharkeya"
},
		{	"profileId":"564315",
	"profileURL":"//www.yellowpages.com.eg/en/profile/al-borg-laboratories/564315?b=142&k=19911&l=search",
	"arName":"21 ش مراد, الجيزة, الجيزة",
	"lat":"30.018699999999999",
	"lng":"31.215199999999999",
	"enName":"21 Mourad St., Giza, Giza"
},
		{	"profileId":"72411",
	"profileURL":"//www.yellowpages.com.eg/en/profile/al-borg-laboratories/72411?b=107&k=19911&l=search",
	"arName":"ش التعمير - عمارة الرباط - الدور 1, حى الضواحى, بور سعيد",
	"lat":"31.250649500000002",
	"lng":"32.284146999999997",
	"enName":"El Taamir St., El Rebat Bldg., Floor 1, El dawahy district, Port said"
},
		{	"profileId":"564316",
	"profileURL":"//www.yellowpages.com.eg/en/profile/al-borg-laboratories/564316?b=118&k=19911&l=search",
	"arName":"ش مكة المكرمة المجاورة الاولى, الحى السابع, السادس من اكتوبر, الجيزة",
	"lat":"29.979263",
	"lng":"30.942523999999999",
	"enName":"Mekka El Mokarrama St. 1St Neighbourhood, 7th District, 6th of october, Giza"
},
		{	"profileId":"109472",
	"profileURL":"//www.yellowpages.com.eg/en/profile/al-borg-laboratories/109472?b=24&k=19911&l=search",
	"arName":"26 ش شريف تقاطع ش حيدر, حلوان, القاهرة",
	"lat":"29.849605",
	"lng":"31.335526999999999",
	"enName":"26 Sherif St. Intersection Of Haidar St., Helwan, Cairo"
},
		{	"profileId":"143027",
	"profileURL":"//www.yellowpages.com.eg/en/profile/al-borg-laboratories/143027?b=130&k=19911&l=search",
	"arName":"50 ش الجيش ميدان محمد نجيب, كفر الزيات, الغربية",
	"lat":"30.825499099999998",
	"lng":"30.818155099999998",
	"enName":"50 El Guish St. Mohamed Naguib Sq., Kafr el zayat, El gharbeya"
},
		{	"profileId":"72409",
	"profileURL":"//www.yellowpages.com.eg/en/profile/al-borg-laboratories/72409?b=106&k=19911&l=search",
	"arName":"2 برج الجزار - ش المركز القديم - الدور 4, فاقوس, الشرقية",
	"lat":"30.7307764",
	"lng":"31.792335900000001",
	"enName":"2 El Gazzar Tower, El Markaz El Qadim St., Floor 4, Faqus, El sharkeya"
},
		{	"profileId":"237824",
	"profileURL":"//www.yellowpages.com.eg/en/profile/al-borg-laboratories/237824?b=112&k=19911&l=search",
	"arName":"ش الجيش تقاطع ش الصباحى - الدور 1, قويسنا, المنوفية",
	"lat":"30.548020999999999",
	"lng":"31.136209000000001",
	"enName":"El Guish St. Intersection Of El Sabahy St., Floor 1, Quwasnah, El monofeya"
},
		{	"profileId":"564561",
	"profileURL":"//www.yellowpages.com.eg/en/profile/al-borg-laboratories/564561?b=53&k=19911&l=search",
	"arName":"13 ش سوق الثلاثاء - برج الاطباء, القناطر الخيرية, القليوبية",
	"lat":"30.199207000000001",
	"lng":"31.134513999999999",
	"enName":"13 Souk El Tholathaa St., El Atebaa Tower, El qanatir el khayriyah, Kaliobeya"
},
		{	"profileId":"564566",
	"profileURL":"//www.yellowpages.com.eg/en/profile/al-borg-laboratories/564566?b=54&k=19911&l=search",
	"arName":"103 ش جمال عبد الناصر ميدان المسلة - الدور 2, المسلة, الفيوم",
	"lat":"29.315252999999998",
	"lng":"30.852536000000001",
	"enName":"103 Gamal Abdel Nasser St. El Masalla Sq., Floor 2, El massalah, El fayoum"
},
		{	"profileId":"564567",
	"profileURL":"//www.yellowpages.com.eg/en/profile/al-borg-laboratories/564567?b=147&k=19911&l=search",
	"arName":"ش الجمهورية, ابشواى, الفيوم",
	"lat":"",
	"lng":"",
	"enName":"El Gomhoureya St., Ibshaway, El fayoum"
},
		{	"profileId":"564564",
	"profileURL":"//www.yellowpages.com.eg/en/profile/al-borg-laboratories/564564?b=99&k=19911&l=search",
	"arName":"مربع 237 - - عمارة الروضة, بور فؤاد, بور سعيد",
	"lat":"31.239612000000001",
	"lng":"32.320458000000002",
	"enName":"Square 237, , El Rawda Bldg., Port fouad, Port said"
},
		{	"profileId":"72389",
	"profileURL":"//www.yellowpages.com.eg/en/profile/al-borg-laboratories/72389?b=103&k=19911&l=search",
	"arName":"1 ش الجلاء, المنصورة, الدقهلية",
	"lat":"31.040794999999999",
	"lng":"31.364362799999999",
	"enName":"1 El Galaa St., El mansoura, El dakahleya"
},
		{	"profileId":"72386",
	"profileURL":"//www.yellowpages.com.eg/en/profile/al-borg-laboratories/72386?b=33&k=19911&l=search",
	"arName":"14 ش كلية الطب, محطة الرمل, الاسكندرية",
	"lat":"31.201165",
	"lng":"29.902795999999999",
	"enName":"14 Koleyet El Teb St., Raml station, Alexandria"
},
		{	"profileId":"526969",
	"profileURL":"//www.yellowpages.com.eg/en/profile/al-borg-laboratories/526969?b=10&k=19911&l=search",
	"arName":"ش الجمهورية - قرية 23 يوليو - برج الامل, المرج الجديدة, القاهرة",
	"lat":"30.169131",
	"lng":"31.343661999999998",
	"enName":"El Gomhoureya St., 23rd Of July Village, El Amal Tower, El marg el gadida, Cairo"
},
		{	"profileId":"72387",
	"profileURL":"//www.yellowpages.com.eg/en/profile/al-borg-laboratories/72387?b=58&k=19911&l=search",
	"arName":"10 ش الجلاء, فيكتوريا, الاسكندرية",
	"lat":"31.246842000000001",
	"lng":"29.979628999999999",
	"enName":"10 El Galaa St., Victoria, Alexandria"
},
		{	"profileId":"118617",
	"profileURL":"//www.yellowpages.com.eg/en/profile/al-borg-laboratories/118617?b=85&k=19911&l=search",
	"arName":"23 ش الثورة - ش السلطان حسين سابقا - الدور 1, حى الافرنج, الاسماعيلية",
	"lat":"30.592080299999999",
	"lng":"32.276215399999998",
	"enName":"23 El Thawra St. - El Sultan Hussein St. Previously, Floor 1, El afrang district, Ismaileya"
},
		{	"profileId":"167111",
	"profileURL":"//www.yellowpages.com.eg/en/profile/al-borg-laboratories/167111?b=127&k=19911&l=search",
	"arName":"85 ش سعد زغلول - برج العدالة - الدور 3, المحطة, المنيا",
	"lat":"28.097317199999999",
	"lng":"30.754444599999999",
	"enName":"85 Saad Zaghloul St., El Adala Tower, Floor 3, El mahatta, El menia"
},
		{	"profileId":"205059",
	"profileURL":"//www.yellowpages.com.eg/en/profile/al-borg-laboratories/205059?b=25&k=19911&l=search",
	"arName":"15 ش المرعشلى تقاطع ش احمد حشمت, الزمالك, القاهرة",
	"lat":"30.065199",
	"lng":"31.221677",
	"enName":"15 El Maraashly St. Intersection Of Ahmed Heshmat St., Zamalek, Cairo"
},
		{	"profileId":"273115",
	"profileURL":"//www.yellowpages.com.eg/en/profile/al-borg-laboratories/273115?b=87&k=19911&l=search",
	"arName":"32 ش صلاح سالم, الجيزة, الجيزة",
	"lat":"30.008918000000001",
	"lng":"31.208912000000002",
	"enName":"32 Salah Salem St., Giza, Giza"
},
		{	"profileId":"273117",
	"profileURL":"//www.yellowpages.com.eg/en/profile/al-borg-laboratories/273117?b=43&k=19911&l=search",
	"arName":"2 ش كامل عودة متفرع من ش عثمان محرم - الدور 2, الطالبية, الهرم, الجيزة",
	"lat":"29.993069999999999",
	"lng":"31.186256",
	"enName":"2 Kamel Aoda St. Off Othman Moharram St., Floor 2, El Talbeya, El haram, Giza"
},
		{	"profileId":"205052",
	"profileURL":"//www.yellowpages.com.eg/en/profile/al-borg-laboratories/205052?b=37&k=19911&l=search",
	"arName":"92 ش احمد عرابى, المهندسين, الجيزة",
	"lat":"30.063797999999998",
	"lng":"31.204034",
	"enName":"92 Ahmed Orabi St., Mohandeseen, Giza"
},
		{	"profileId":"564573",
	"profileURL":"//www.yellowpages.com.eg/en/profile/al-borg-laboratories/564573?b=55&k=19911&l=search",
	"arName":"ش بورسعيد, ببا, بنى سويف",
	"lat":"28.921621999999999",
	"lng":"30.981703",
	"enName":"Port Said St., Biba, Benisuef"
},
		{	"profileId":"564574",
	"profileURL":"//www.yellowpages.com.eg/en/profile/al-borg-laboratories/564574?b=148&k=19911&l=search",
	"arName":"ش الابراهيمية - برج الاطباء, الفشن, بنى سويف",
	"lat":"",
	"lng":"",
	"enName":"El Ibrahimeya St., El Atebaa Tower, El fashn, Benisuef"
},
		{	"profileId":"154042",
	"profileURL":"//www.yellowpages.com.eg/en/profile/al-borg-laboratories/154042?b=22&k=19911&l=search",
	"arName":"9 ش سعيد ذو الفقار ميدان الباشا, المنيل, القاهرة",
	"lat":"30.020882",
	"lng":"31.225883",
	"enName":"9 Said Zou El Foqqar St. El Pasha Sq., El manyal, Cairo"
},
		{	"profileId":"72399",
	"profileURL":"//www.yellowpages.com.eg/en/profile/al-borg-laboratories/72399?b=60&k=19911&l=search",
	"arName":"1 ش الحرية - ش عمر طوسون سابقا - الدور 4, بنها, القليوبية",
	"lat":"30.46218",
	"lng":"31.179856300000001",
	"enName":"1 El Horreya St. - Omar Toson St. Previously, Floor 4, Banha, Kaliobeya"
},
		{	"profileId":"237850",
	"profileURL":"//www.yellowpages.com.eg/en/profile/al-borg-laboratories/237850?b=114&k=19911&l=search",
	"arName":"1 ميدان المحطة, وسط البلد, قنا",
	"lat":"26.162044000000002",
	"lng":"32.726936000000002",
	"enName":"1 El Mahatta Sq., Downtown, Qena"
},
		{	"profileId":"72397",
	"profileURL":"//www.yellowpages.com.eg/en/profile/al-borg-laboratories/72397?b=28&k=19911&l=search",
	"arName":"15 ش سمير عبد الرؤوف امتداد ش مكرم عبيد - الدور 2, الحى الثامن, مدينة نصر, القاهرة",
	"lat":"30.052620999999998",
	"lng":"31.346170999999998",
	"enName":"15 Samir Abdel Raouf St. Extension Of Makram Ebaid St., Floor 2, 8th District, Nasr city, Cairo"
},
		{	"profileId":"72398",
	"profileURL":"//www.yellowpages.com.eg/en/profile/al-borg-laboratories/72398?b=2&k=19911&l=search",
	"arName":"91 ش العباسية, عباسية, القاهرة",
	"lat":"30.066734",
	"lng":"31.278438000000001",
	"enName":"91 El Abbaseya St., Abbasseya, Cairo"
},
		{	"profileId":"303929",
	"profileURL":"//www.yellowpages.com.eg/en/profile/al-borg-laboratories/303929?b=15&k=19911&l=search",
	"arName":"9 ش حسن المأمون, مدينة نصر, القاهرة",
	"lat":"30.067613999999999",
	"lng":"31.357521999999999",
	"enName":"9 Hassan El Maamoun St., Nasr city, Cairo"
},
		{	"profileId":"373715",
	"profileURL":"//www.yellowpages.com.eg/en/profile/al-borg-laboratories/373715?b=5&k=19911&l=search",
	"arName":"43 ميدان الجزائر, المعادى الجديدة, المعادى, القاهرة",
	"lat":"29.974834999999999",
	"lng":"31.276018000000001",
	"enName":"43 El Gazaer Sq., New Maadi, Maadi, Cairo"
},
		{	"profileId":"72395",
	"profileURL":"//www.yellowpages.com.eg/en/profile/al-borg-laboratories/72395?b=13&k=19911&l=search",
	"arName":"49 ش نوبار, باب اللوق, القاهرة",
	"lat":"30.042508999999999",
	"lng":"31.241416999999998",
	"enName":"49 Noubar St., Bab el louk, Cairo"
},
		{	"profileId":"72396",
	"profileURL":"//www.yellowpages.com.eg/en/profile/al-borg-laboratories/72396?b=104&k=19911&l=search",
	"arName":"426 ش الهرم - البرج الادارى, نصر الدين, الهرم, الجيزة",
	"lat":"30.010088",
	"lng":"31.202573999999998",
	"enName":"426 Haram St., Administrative Tower, Nasr El Din, El haram, Giza"
},
		{	"profileId":"72393",
	"profileURL":"//www.yellowpages.com.eg/en/profile/al-borg-laboratories/72393?b=1&k=19911&l=search",
	"arName":"115 ش سليم الاول, الزيتون, القاهرة",
	"lat":"30.118649000000001",
	"lng":"31.320651000000002",
	"enName":"115 Selim El Awal St., El zaytoun, Cairo"
},
		{	"profileId":"72394",
	"profileURL":"//www.yellowpages.com.eg/en/profile/al-borg-laboratories/72394?b=59&k=19911&l=search",
	"arName":"250 ش فيصل, التعاون, فيصل, الجيزة",
	"lat":"30.000373",
	"lng":"31.164525000000001",
	"enName":"250 Faisal St., El Taawon, Faisal, Giza"
},
		{	"profileId":"72391",
	"profileURL":"//www.yellowpages.com.eg/en/profile/al-borg-laboratories/72391?b=21&k=19911&l=search",
	"arName":"59 ش شبرا, شبرا, القاهرة",
	"lat":"30.068428999999998",
	"lng":"31.245363000000001",
	"enName":"59 Shoubra St., Shoubra, Cairo"
},
		{	"profileId":"373711",
	"profileURL":"//www.yellowpages.com.eg/en/profile/al-borg-laboratories/373711?b=138&k=19911&l=search",
	"arName":"محلية 5 - محور السادات - الحى الاول, مدينة العبور, القليوبية",
	"lat":"30.235809",
	"lng":"31.471122000000001",
	"enName":"Mahaleya 5, El Sadat Spine, 1St District, Obour city, Kaliobeya"
},
		{	"profileId":"72392",
	"profileURL":"//www.yellowpages.com.eg/en/profile/al-borg-laboratories/72392?b=27&k=19911&l=search",
	"arName":"31 ش الامام على, ميدان الاسماعيلية, مصر الجديدة, القاهرة",
	"lat":"30.095752000000001",
	"lng":"31.333523",
	"enName":"31 El Emam Aly St., Ismaileya Square, Heliopolis, Cairo"
},
		{	"profileId":"205104",
	"profileURL":"//www.yellowpages.com.eg/en/profile/al-borg-laboratories/205104?b=132&k=19911&l=search",
	"arName":"80 ش المديرية, طنطا, الغربية",
	"lat":"30.785803900000001",
	"lng":"30.9971174",
	"enName":"80 El Modereya St., Tanta, El gharbeya"
},
		{	"profileId":"205067",
	"profileURL":"//www.yellowpages.com.eg/en/profile/al-borg-laboratories/205067?b=16&k=19911&l=search",
	"arName":"8 ش الصواف تقاطع ش متولى الشعراوى, الحى العاشر, مدينة نصر, القاهرة",
	"lat":"30.048563999999999",
	"lng":"31.376963",
	"enName":"8 El Sawwaf St. Intersection Of Metwally El Shaarawy St., 10th District, Nasr city, Cairo"
},
		{	"profileId":"167658",
	"profileURL":"//www.yellowpages.com.eg/en/profile/al-borg-laboratories/167658?b=23&k=19911&l=search",
	"arName":"45 ش احمد زكى امتداد ش الفيوم - الدور 2, دار السلام, القاهرة",
	"lat":"29.982178999999999",
	"lng":"31.255865",
	"enName":"45 Ahmed Zaky St. Extension Of El Fayoum St., Floor 2, Dar el salam, Cairo"
},
		{	"profileId":"304189",
	"profileURL":"//www.yellowpages.com.eg/en/profile/al-borg-laboratories/304189?b=32&k=19911&l=search",
	"arName":"القطعة 82 - ش اخناتون - الحى الاول, التجمع الخامس, القاهرة الجديدة, القاهرة",
	"lat":"30.003406999999999",
	"lng":"31.421278000000001",
	"enName":"Plot 82, Ekhnatoun St., 1St District, 5th Compound, New cairo, Cairo"
},
		{	"profileId":"205063",
	"profileURL":"//www.yellowpages.com.eg/en/profile/al-borg-laboratories/205063?b=9&k=19911&l=search",
	"arName":"2 ش احمد سنان تقاطع ش النزهة - الدور 1, سانت فاتيما, مصر الجديدة, القاهرة",
	"lat":"30.106574999999999",
	"lng":"31.343761000000001",
	"enName":"2 Ahmed Sannan St. Intersection Of El Nozha St., Floor 1, Saint Fatima, Heliopolis, Cairo"
},
		{	"profileId":"564460",
	"profileURL":"//www.yellowpages.com.eg/en/profile/al-borg-laboratories/564460?b=48&k=19911&l=search",
	"arName":"., العامرية, الاسكندرية",
	"lat":"31.016490000000001",
	"lng":"29.796067000000001",
	"enName":"., Amreya, Alexandria"
},
		{	"profileId":"564581",
	"profileURL":"//www.yellowpages.com.eg/en/profile/al-borg-laboratories/564581?b=149&k=19911&l=search",
	"arName":"66 ش سكة تلا, وسط البلد, المنيا",
	"lat":"",
	"lng":"",
	"enName":"66 Sekket Tala St., Downtown, El menia"
},
		{	"profileId":"304066",
	"profileURL":"//www.yellowpages.com.eg/en/profile/al-borg-laboratories/304066?b=89&k=19911&l=search",
	"arName":"ميدان المحطة - ابراج خالد بن الوليد - برج ب - الدور 2, اسيوط, اسيوط",
	"lat":"27.179967000000001",
	"lng":"31.187557000000002",
	"enName":"El Mahatta Sq., Khaled Ibn El Walid Towers, Tower B, Floor 2, Assyout, Assyout"
},
		{	"profileId":"237842",
	"profileURL":"//www.yellowpages.com.eg/en/profile/al-borg-laboratories/237842?b=134&k=19911&l=search",
	"arName":"ش المحطة - ش حسنى مبارك سابقا - عمارة النائب احمد فخرى قنديل - الدور 3, نجع حمادى, قنا",
	"lat":"26.047096",
	"lng":"32.241954999999997",
	"enName":"El Mahatta St. - Hosny Mubarak St. Previously, El Naeb Ahmed Fakhry Qandil Bldg., Floor 3, Nagaa hamady, Qena"
},
		{	"profileId":"564583",
	"profileURL":"//www.yellowpages.com.eg/en/profile/al-borg-laboratories/564583?b=100&k=19911&l=search",
	"arName":"10 ش العرفانى, ملوى, المنيا",
	"lat":"",
	"lng":"",
	"enName":"10 El Arfany St., Mallawi, El menia"
},
		{	"profileId":"564588",
	"profileURL":"//www.yellowpages.com.eg/en/profile/al-borg-laboratories/564588?b=101&k=19911&l=search",
	"arName":"ش سعد زغلول, سمالوط, المنيا",
	"lat":"",
	"lng":"",
	"enName":"Saad Zaghloul St., Samalut, El menia"
},
		{	"profileId":"564467",
	"profileURL":"//www.yellowpages.com.eg/en/profile/al-borg-laboratories/564467?b=119&k=19911&l=search",
	"arName":"ش الجمهورية متفرع من ش الجلاء - برج النجار, الدلنجات, البحيرة",
	"lat":"",
	"lng":"",
	"enName":"El Gomhoureya St. Off El Galaa St., El Naggar Tower, Ad dilinjat, El beheira"
},
		{	"profileId":"564500",
	"profileURL":"//www.yellowpages.com.eg/en/profile/al-borg-laboratories/564500?b=146&k=19911&l=search",
	"arName":"برج الكفراوى, ديرب نجم, الشرقية",
	"lat":"30.753257999999999",
	"lng":"31.457798",
	"enName":"El Kafrawy Tower, Deyerb negm, El sharkeya"
},
		{	"profileId":"564468",
	"profileURL":"//www.yellowpages.com.eg/en/profile/al-borg-laboratories/564468?b=94&k=19911&l=search",
	"arName":"ش الشعراوى - برج الاطباء, ابو المطامير, البحيرة",
	"lat":"",
	"lng":"",
	"enName":"El Shaarawy St., El Atebaa Tower, Aboul matamir, El beheira"
},
		{	"profileId":"564465",
	"profileURL":"//www.yellowpages.com.eg/en/profile/al-borg-laboratories/564465?b=49&k=19911&l=search",
	"arName":"ش خفاجى - برج السلامة, الورديان, الاسكندرية",
	"lat":"",
	"lng":"",
	"enName":"Khafagy St., El Salama Tower, Wardeyan, Alexandria"
},
		{	"profileId":"564586",
	"profileURL":"//www.yellowpages.com.eg/en/profile/al-borg-laboratories/564586?b=150&k=19911&l=search",
	"arName":"ش بورسعيد تقسيم بنى مزار, بنى مزار, المنيا",
	"lat":"",
	"lng":"",
	"enName":"Port Said St. Bani Mazar Division, Bani mazar, El menia"
},
		{	"profileId":"564348",
	"profileURL":"//www.yellowpages.com.eg/en/profile/al-borg-laboratories/564348?b=91&k=19911&l=search",
	"arName":"54 ش بشتيل - برج مكة, امبابة, الجيزة",
	"lat":"30.076885999999998",
	"lng":"31.199117000000001",
	"enName":"54 Bashteel St., Mekka Tower, Imbaba, Giza"
},
		{	"profileId":"303938",
	"profileURL":"//www.yellowpages.com.eg/en/profile/al-borg-laboratories/303938?b=45&k=19911&l=search",
	"arName":"مساكن تعاونيات الزهور - ميدان بنزرت - الدور 2, حى الزهور, بور سعيد",
	"lat":"31.261718999999999",
	"lng":"32.277954999999999",
	"enName":"Taawoneyat El Zohour Bldgs., Banzart Sq., Floor 2, El zohour district, Port said"
},
		{	"profileId":"127276",
	"profileURL":"//www.yellowpages.com.eg/en/profile/al-borg-laboratories/127276?b=86&k=19911&l=search",
	"arName":"33 ش 15 مايو - ارض نوبار - الدور 1, شبرا الخيمة, القليوبية",
	"lat":"30.121932000000001",
	"lng":"31.249694999999999",
	"enName":"33 15th Of May St., Ard Noubar, Floor 1, Shoubra el khaymah, Kaliobeya"
},
		{	"profileId":"205108",
	"profileURL":"//www.yellowpages.com.eg/en/profile/al-borg-laboratories/205108?b=40&k=19911&l=search",
	"arName":"ميدان المحطة, المنزلة, الدقهلية",
	"lat":"31.1625838",
	"lng":"31.9342893",
	"enName":"El Mahatta Sq., El manzalah, El dakahleya"
},
		{	"profileId":"205115",
	"profileURL":"//www.yellowpages.com.eg/en/profile/al-borg-laboratories/205115?b=41&k=19911&l=search",
	"arName":"70 ش بورسعيد - الدور 2, منوف, المنوفية",
	"lat":"30.467054999999998",
	"lng":"30.933626",
	"enName":"70 Port Said St., Floor 2, Minuf, El monofeya"
},
		{	"profileId":"205079",
	"profileURL":"//www.yellowpages.com.eg/en/profile/al-borg-laboratories/205079?b=17&k=19911&l=search",
	"arName":"7 ب عمارات شباب المهندسين - طريق النصر, مدينة نصر, القاهرة",
	"lat":"30.069775",
	"lng":"31.342037999999999",
	"enName":"7 B Shabab El Mohandeseen Bldgs., El Nasr Rd., Nasr city, Cairo"
},
		{	"profileId":"205112",
	"profileURL":"//www.yellowpages.com.eg/en/profile/al-borg-laboratories/205112?b=110&k=19911&l=search",
	"arName":"ش النقراشى - برج السمراء, دكرنس, الدقهلية",
	"lat":"31.085431",
	"lng":"31.598278000000001",
	"enName":"El Noqrashy St., El Samraa Tower, Dikirnis, El dakahleya"
},
		{	"profileId":"564592",
	"profileURL":"//www.yellowpages.com.eg/en/profile/al-borg-laboratories/564592?b=56&k=19911&l=search",
	"arName":"ش الجلاء, القوصية, اسيوط",
	"lat":"27.439643",
	"lng":"30.825917",
	"enName":"El Galaa St., El quseyah, Assyout"
},
		{	"profileId":"238008",
	"profileURL":"//www.yellowpages.com.eg/en/profile/al-borg-laboratories/238008?b=42&k=19911&l=search",
	"arName":"ش احمد عرابى ميدان صلاح الدين - الدور 2, الاقصر, الاقصر",
	"lat":"25.694932000000001",
	"lng":"32.639659000000002",
	"enName":"Ahmed Orabi St. Salah El Din Sq., Floor 2, LUXOR, Luxor, Luxor"
},
		{	"profileId":"237831",
	"profileURL":"//www.yellowpages.com.eg/en/profile/al-borg-laboratories/237831?b=113&k=19911&l=search",
	"arName":"8 ش الجمهورية - الدور 2, مغاغة, المنيا",
	"lat":"28.648499999999999",
	"lng":"30.841505999999999",
	"enName":"8 El Gomhoureya St., Floor 2, Magaghah, El menia"
},
		{	"profileId":"564475",
	"profileURL":"//www.yellowpages.com.eg/en/profile/al-borg-laboratories/564475?b=95&k=19911&l=search",
	"arName":"ش الممر العلوى, سمنود, الغربية",
	"lat":"30.966661999999999",
	"lng":"31.240627",
	"enName":"El Mamar El Elwey St., Samannoud, El gharbeya"
},
		{	"profileId":"564351",
	"profileURL":"//www.yellowpages.com.eg/en/profile/al-borg-laboratories/564351?b=11&k=19911&l=search",
	"arName":"18 ش خالد بن الوليد تقسيم فريد زكى - القطعة 217, حدائق حلوان, القاهرة",
	"lat":"29.891506",
	"lng":"31.302948000000001",
	"enName":"18 Khaled Ibn El Walid St. Farid Zaky Division, Plot 217, Hadayek helwan, Cairo"
},
		{	"profileId":"564594",
	"profileURL":"//www.yellowpages.com.eg/en/profile/al-borg-laboratories/564594?b=124&k=19911&l=search",
	"arName":"15 ش النصر, سوهاج, سوهاج",
	"lat":"26.554424000000001",
	"lng":"31.696836000000001",
	"enName":"15 El Nasr St., Sohag, Sohag"
}
	]
}, {	"arName":"معامل البرج",
	"enName":"",
	"hotline":"19911",
	"facebook":"http://www.facebook.com/AlBorg.Egypt",
	"web":"http://www.alborglab.com/",
	"arCategory":[
		"معامل طبية"
	],
	"enCategories":
	],
	"contacts":[
		{	"profileId":"205087",
	"profileURL":"//www.yellowpages.com.eg/ar/profile/%D9%85%D8%B9%D8%A7%D9%85%D9%84-%D8%A7%D9%84%D8%A8%D8%B1%D8%AC/205087?b=65&k=19911&l=search",
	"arName":"402 ش الهرم, الهرم, الجيزة",
	"lat":"",
	"lng":"",
	"enName":""
},
		{	"profileId":"237749",
	"profileURL":"//www.yellowpages.com.eg/ar/profile/%D9%85%D8%B9%D8%A7%D9%85%D9%84-%D8%A7%D9%84%D8%A8%D8%B1%D8%AC/237749?b=69&k=19911&l=search",
	"arName":"160 أ عمارات ميراك - ش الهرم تقاطع ش العريش, سباتس, الهرم, الجيزة",
	"lat":"",
	"lng":"",
	"enName":""
},
		{	"profileId":"564483",
	"profileURL":"//www.yellowpages.com.eg/ar/profile/%D9%85%D8%B9%D8%A7%D9%85%D9%84-%D8%A7%D9%84%D8%A8%D8%B1%D8%AC/564483?b=73&k=19911&l=search",
	"arName":"ش مصطفى كامل ميدان المحطة, ابو كبير, الشرقية",
	"lat":"",
	"lng":"",
	"enName":""
},
		{	"profileId":"564363",
	"profileURL":"//www.yellowpages.com.eg/ar/profile/%D9%85%D8%B9%D8%A7%D9%85%D9%84-%D8%A7%D9%84%D8%A8%D8%B1%D8%AC/564363?b=72&k=19911&l=search",
	"arName":"ش 15 مايو - ارض الزجاج والبلور - برج ال مكى, شبرا الخيمة, القليوبية",
	"lat":"",
	"lng":"",
	"enName":""
},
		{	"profileId":"564490",
	"profileURL":"//www.yellowpages.com.eg/ar/profile/%D9%85%D8%B9%D8%A7%D9%85%D9%84-%D8%A7%D9%84%D8%A8%D8%B1%D8%AC/564490?b=74&k=19911&l=search",
	"arName":"103 ش المعلمين متفرع من الطريق السريع - الدور 2, كفر سعد, دمياط",
	"lat":"",
	"lng":"",
	"enName":""
},
		{	"profileId":"205094",
	"profileURL":"//www.yellowpages.com.eg/ar/profile/%D9%85%D8%B9%D8%A7%D9%85%D9%84-%D8%A7%D9%84%D8%A8%D8%B1%D8%AC/205094?b=66&k=19911&l=search",
	"arName":"68 ش الاسكندرانى, محرم بك, الاسكندرية",
	"lat":"",
	"lng":"",
	"enName":""
},
		{	"profileId":"160143",
	"profileURL":"//www.yellowpages.com.eg/ar/profile/%D9%85%D8%B9%D8%A7%D9%85%D9%84-%D8%A7%D9%84%D8%A8%D8%B1%D8%AC/160143?b=63&k=19911&l=search",
	"arName":"6 عمارات الاوقاف - ش محمد عبده - الدور 2, وسط البلد, كفر الشيخ",
	"lat":"",
	"lng":"",
	"enName":""
},
		{	"profileId":"72403",
	"profileURL":"//www.yellowpages.com.eg/ar/profile/%D9%85%D8%B9%D8%A7%D9%85%D9%84-%D8%A7%D9%84%D8%A8%D8%B1%D8%AC/72403?b=79&k=19911&l=search",
	"arName":"13 ش وابور النور - السبع بنات - برج الامل - الدور 1, المحلة الكبرى, الغربية",
	"lat":"",
	"lng":"",
	"enName":""
},
		{	"profileId":"72402",
	"profileURL":"//www.yellowpages.com.eg/ar/profile/%D9%85%D8%B9%D8%A7%D9%85%D9%84-%D8%A7%D9%84%D8%A8%D8%B1%D8%AC/72402?b=61&k=19911&l=search",
	"arName":"13 ش النحاس ميدان الاسكندرية, طنطا, الغربية",
	"lat":"",
	"lng":"",
	"enName":""
},
		{	"profileId":"564558",
	"profileURL":"//www.yellowpages.com.eg/ar/profile/%D9%85%D8%B9%D8%A7%D9%85%D9%84-%D8%A7%D9%84%D8%A8%D8%B1%D8%AC/564558?b=75&k=19911&l=search",
	"arName":"ش عبد المنعم رياض, بركة السبع, المنوفية",
	"lat":"",
	"lng":"",
	"enName":""
},
		{	"profileId":"72407",
	"profileURL":"//www.yellowpages.com.eg/ar/profile/%D9%85%D8%B9%D8%A7%D9%85%D9%84-%D8%A7%D9%84%D8%A8%D8%B1%D8%AC/72407?b=62&k=19911&l=search",
	"arName":"ميدان الاردنية - مجمع عبد المقصود السكنى, العاشر من رمضان, الشرقية",
	"lat":"",
	"lng":"",
	"enName":""
},
		{	"profileId":"72408",
	"profileURL":"//www.yellowpages.com.eg/ar/profile/%D9%85%D8%B9%D8%A7%D9%85%D9%84-%D8%A7%D9%84%D8%A8%D8%B1%D8%AC/72408?b=80&k=19911&l=search",
	"arName":"2 ش طلعت حرب - برج النيل - الدور 1, الزقازيق, الشرقية",
	"lat":"",
	"lng":"",
	"enName":""
},
		{	"profileId":"72388",
	"profileURL":"//www.yellowpages.com.eg/ar/profile/%D9%85%D8%B9%D8%A7%D9%85%D9%84-%D8%A7%D9%84%D8%A8%D8%B1%D8%AC/72388?b=77&k=19911&l=search",
	"arName":"514 طريق الحرية, الوزارة, الاسكندرية",
	"lat":"",
	"lng":"",
	"enName":""
},
		{	"profileId":"460198",
	"profileURL":"//www.yellowpages.com.eg/ar/profile/%D9%85%D8%B9%D8%A7%D9%85%D9%84-%D8%A7%D9%84%D8%A8%D8%B1%D8%AC/460198?b=71&k=19911&l=search",
	"arName":"1 ش على بن ابى طالب تقاطع ش الجيش, المنصورة, الدقهلية",
	"lat":"",
	"lng":"",
	"enName":""
},
		{	"profileId":"160150",
	"profileURL":"//www.yellowpages.com.eg/ar/profile/%D9%85%D8%B9%D8%A7%D9%85%D9%84-%D8%A7%D9%84%D8%A8%D8%B1%D8%AC/160150?b=64&k=19911&l=search",
	"arName":"19 ش الجمهورية - برج الراعى - الدور 3, حى شرق, اسيوط",
	"lat":"",
	"lng":"",
	"enName":""
},
		{	"profileId":"259161",
	"profileURL":"//www.yellowpages.com.eg/ar/profile/%D9%85%D8%B9%D8%A7%D9%85%D9%84-%D8%A7%D9%84%D8%A8%D8%B1%D8%AC/259161?b=68&k=19911&l=search",
	"arName":"427 ش جمال عبد الناصر - برج القدس - الدور 1, المندرة البحرية, الاسكندرية",
	"lat":"",
	"lng":"",
	"enName":""
},
		{	"profileId":"72390",
	"profileURL":"//www.yellowpages.com.eg/ar/profile/%D9%85%D8%B9%D8%A7%D9%85%D9%84-%D8%A7%D9%84%D8%A8%D8%B1%D8%AC/72390?b=78&k=19911&l=search",
	"arName":"3 ش على شافعى المتعافى, حى المديرية, بنى سويف",
	"lat":"",
	"lng":"",
	"enName":""
},
		{	"profileId":"205102",
	"profileURL":"//www.yellowpages.com.eg/ar/profile/%D9%85%D8%B9%D8%A7%D9%85%D9%84-%D8%A7%D9%84%D8%A8%D8%B1%D8%AC/205102?b=67&k=19911&l=search",
	"arName":"20 ش اسكندرية - برج زهرة المدينة - الدور 1, وسط البلد, مرسى مطروح",
	"lat":"",
	"lng":"",
	"enName":""
},
		{	"profileId":"373719",
	"profileURL":"//www.yellowpages.com.eg/ar/profile/%D9%85%D8%B9%D8%A7%D9%85%D9%84-%D8%A7%D9%84%D8%A8%D8%B1%D8%AC/373719?b=70&k=19911&l=search",
	"arName":"ميدان مجلس المدينة, السنبلاوين, الدقهلية",
	"lat":"",
	"lng":"",
	"enName":""
},
		{	"profileId":"564596",
	"profileURL":"//www.yellowpages.com.eg/ar/profile/%D9%85%D8%B9%D8%A7%D9%85%D9%84-%D8%A7%D9%84%D8%A8%D8%B1%D8%AC/564596?b=76&k=19911&l=search",
	"arName":"ش احمد عنبر, طهطا, سوهاج",
	"lat":"",
	"lng":"",
	"enName":""
}
	]
}]}