{"items":[{	"arName":"بنك ايه بى سى",
	"enName":"Bank ABC",
	"hotline":"19123",
	"facebook":"",
	"web":"http://www.bank-abc.com/",
	"arCategory":[
		"ماكينات الصراف الالى",
		"بنوك"
	],
	"enCategories":[
		"ATMs",
		"Banks"
	],
	"contacts":[
		{	"profileId":"271909",
	"profileURL":"//www.yellowpages.com.eg/en/profile/bank-abc/271909?b=22&k=19123&l=search",
	"arName":"طريق السادات, وسط البلد, اسوان",
	"lat":"24.082666",
	"lng":"32.892572999999999",
	"enName":"El Sadat Rd., Downtown, Aswan"
},
		{	"profileId":"120189",
	"profileURL":"//www.yellowpages.com.eg/en/profile/bank-abc/120189?b=1&k=19123&l=search",
	"arName":"2 ش خالد بن الوليد, مساكن شيراتون, مصر الجديدة, القاهرة",
	"lat":"30.099457000000001",
	"lng":"31.372921999999999",
	"enName":"2 Khaled Ibn El Walid St., Sheraton Bldgs., Heliopolis, Cairo"
},
		{	"profileId":"271784",
	"profileURL":"//www.yellowpages.com.eg/en/profile/bank-abc/271784?b=15&k=19123&l=search",
	"arName":"96 ش البحر الاعظم, الجيزة, الجيزة",
	"lat":"30.002533",
	"lng":"31.215468999999999",
	"enName":"96 El Bahr El Aazam St., Giza, Giza"
},
		{	"profileId":"271936",
	"profileURL":"//www.yellowpages.com.eg/en/profile/bank-abc/271936?b=7&k=19123&l=search",
	"arName":"القطعة 324 - ش التسعين - مركز المدينة, التجمع الخامس, القاهرة الجديدة, القاهرة",
	"lat":"30.019389",
	"lng":"31.421313000000001",
	"enName":"Plot 324, El Tesaeen St., City Center, 5th Compound, New cairo, Cairo"
},
		{	"profileId":"108156",
	"profileURL":"//www.yellowpages.com.eg/en/profile/bank-abc/108156?b=6&k=19123&l=search",
	"arName":"18 ش يوسف الجندى تقاطع ش البستان, باب اللوق, القاهرة",
	"lat":"30.045097999999999",
	"lng":"31.238759000000002",
	"enName":"18 Youssef El Gendy St. Intersection Of El Bostan St., Bab el louk, Cairo"
},
		{	"profileId":"129153",
	"profileURL":"//www.yellowpages.com.eg/en/profile/bank-abc/129153?b=19&k=19123&l=search",
	"arName":"400 ش الهرم, نصر الدين, الهرم, الجيزة",
	"lat":"30.008353",
	"lng":"31.197972",
	"enName":"400 Haram St., Nasr El Din, El haram, Giza"
},
		{	"profileId":"487931",
	"profileURL":"//www.yellowpages.com.eg/en/profile/bank-abc/487931?b=23&k=19123&l=search",
	"arName":"المحور المركزى - مجمع ماجدة, الحى السابع, السادس من اكتوبر, الجيزة",
	"lat":"29.974844999999998",
	"lng":"30.943152000000001",
	"enName":"Central Spine, Magda Complex, 7th District, 6th of october, Giza"
},
		{	"profileId":"54046",
	"profileURL":"//www.yellowpages.com.eg/en/profile/bank-abc/54046?b=8&k=19123&l=search",
	"arName":"1 ش الصالح ايوب, الزمالك, القاهرة",
	"lat":"30.058153999999998",
	"lng":"31.217952",
	"enName":"1 El Saleh Aioub St., Zamalek, Cairo"
},
		{	"profileId":"82534",
	"profileURL":"//www.yellowpages.com.eg/en/profile/bank-abc/82534?b=14&k=19123&l=search",
	"arName":"طريق السلام, خليج نعمة, شرم الشيخ",
	"lat":"27.916416000000002",
	"lng":"34.332470999999998",
	"enName":"El Salam Rd., Naama bay, Sharm el sheikh"
},
		{	"profileId":"82537",
	"profileURL":"//www.yellowpages.com.eg/en/profile/bank-abc/82537?b=4&k=19123&l=search",
	"arName":"8 ش 257, المعادى الجديدة, المعادى, القاهرة",
	"lat":"29.966881999999998",
	"lng":"31.271021000000001",
	"enName":"8 Rd. 257, New Maadi, Maadi, Cairo"
},
		{	"profileId":"82530",
	"profileURL":"//www.yellowpages.com.eg/en/profile/bank-abc/82530?b=9&k=19123&l=search",
	"arName":"خدمة العملاء, الزمالك, القاهرة",
	"lat":"",
	"lng":"",
	"enName":"Customer Service, Zamalek, Cairo"
},
		{	"profileId":"82532",
	"profileURL":"//www.yellowpages.com.eg/en/profile/bank-abc/82532?b=3&k=19123&l=search",
	"arName":"3 عمارات العبور - طريق صلاح سالم, مدينة نصر, القاهرة",
	"lat":"30.080190000000002",
	"lng":"31.315300000000001",
	"enName":"3 El Obour Bldgs., Salah Salem Rd., Nasr city, Cairo"
},
		{	"profileId":"271899",
	"profileURL":"//www.yellowpages.com.eg/en/profile/bank-abc/271899?b=12&k=19123&l=search",
	"arName":"سور اورينتال ريزورت - طريق السلام, خليج نبق, شرم الشيخ",
	"lat":"28.045044000000001",
	"lng":"34.430019000000001",
	"enName":"Oriental Resort Wall, El Salam Rd., Nabq bay, Sharm el sheikh"
},
		{	"profileId":"107991",
	"profileURL":"//www.yellowpages.com.eg/en/profile/bank-abc/107991?b=10&k=19123&l=search",
	"arName":"62 ش مكرم عبيد, المنطقة السادسة, مدينة نصر, القاهرة",
	"lat":"30.061608",
	"lng":"31.344936000000001",
	"enName":"62 Makram Ebaid St., 6th Zone, Nasr city, Cairo"
},
		{	"profileId":"163776",
	"profileURL":"//www.yellowpages.com.eg/en/profile/bank-abc/163776?b=21&k=19123&l=search",
	"arName":"111 ش الجمهورية, المنصورة, الدقهلية",
	"lat":"31.047187000000001",
	"lng":"31.373923999999999",
	"enName":"111 El Gomhoureya St., El mansoura, El dakahleya"
},
		{	"profileId":"163775",
	"profileURL":"//www.yellowpages.com.eg/en/profile/bank-abc/163775?b=13&k=19123&l=search",
	"arName":"ابراج النيل - ش صلاح سالم - ش الهلالى سابقا, حى شرق, اسيوط",
	"lat":"27.184396",
	"lng":"31.194941",
	"enName":"El Nil Towers, Salah Salem St. - El Helaly St. Previously, Shark district, Assyout"
},
		{	"profileId":"163771",
	"profileURL":"//www.yellowpages.com.eg/en/profile/bank-abc/163771?b=20&k=19123&l=search",
	"arName":"ش خالد بن الوليد - العوامية, الاقصر, الاقصر",
	"lat":"25.664186999999998",
	"lng":"32.634327999999996",
	"enName":"Khaled Ibn El Walid St., El Awameya, LUXOR, Luxor, Luxor"
},
		{	"profileId":"82518",
	"profileURL":"//www.yellowpages.com.eg/en/profile/bank-abc/82518?b=11&k=19123&l=search",
	"arName":"32 ش سوريا تقاطع ش شهاب, المهندسين, الجيزة",
	"lat":"30.052579999999999",
	"lng":"31.195982999999998",
	"enName":"32 Syria St. Intersection Of Shehab St., Mohandeseen, Giza"
},
		{	"profileId":"82520",
	"profileURL":"//www.yellowpages.com.eg/en/profile/bank-abc/82520?b=2&k=19123&l=search",
	"arName":"105 ش الميرغنى, مصر الجديدة, القاهرة",
	"lat":"30.088442000000001",
	"lng":"31.338104999999999",
	"enName":"105 El Merghany St., Heliopolis, Cairo"
},
		{	"profileId":"271885",
	"profileURL":"//www.yellowpages.com.eg/en/profile/bank-abc/271885?b=16&k=19123&l=search",
	"arName":"سور سندباد بيتش ريزورت - ش الشيراتون - الممشى السياحى, طريق القرى, الغردقة",
	"lat":"27.188455999999999",
	"lng":"33.831569999999999",
	"enName":"Sindbad Beach Resort Wall, Sheraton Rd., Touristic Passage, Villages rd., Hurghada"
},
		{	"profileId":"271924",
	"profileURL":"//www.yellowpages.com.eg/en/profile/bank-abc/271924?b=18&k=19123&l=search",
	"arName":"90 ش فوزى معاذ, سموحة, الاسكندرية",
	"lat":"31.212531999999999",
	"lng":"29.939304",
	"enName":"90 Fawzy Moaz St., Semouha, Alexandria"
},
		{	"profileId":"271915",
	"profileURL":"//www.yellowpages.com.eg/en/profile/bank-abc/271915?b=24&k=19123&l=search",
	"arName":"23 ش البحر - ش الجيش سابقا - برج القصراوى, طنطا, الغربية",
	"lat":"30.791442",
	"lng":"30.999110999999999",
	"enName":"23 El Bahr St. - El Guish St. Previously, El Qasrawy Tower, Tanta, El gharbeya"
},
		{	"profileId":"271917",
	"profileURL":"//www.yellowpages.com.eg/en/profile/bank-abc/271917?b=17&k=19123&l=search",
	"arName":"6 ش نوال, العجوزة, الجيزة",
	"lat":"30.045742000000001",
	"lng":"31.213146999999999",
	"enName":"6 Nawal St., Agouza, Giza"
},
		{	"profileId":"271797",
	"profileURL":"//www.yellowpages.com.eg/en/profile/bank-abc/271797?b=5&k=19123&l=search",
	"arName":"21 ش دولتيان, شبرا, القاهرة",
	"lat":"30.100186999999998",
	"lng":"31.242197999999998",
	"enName":"21 Dawletian St., Shoubra, Cairo"
}
	]
}, {	"arName":"بنك ايه بى سى - ماكينة الصراف الالى",
	"enName":"Bank ABC - ATM",
	"hotline":"19123",
	"facebook":"",
	"web":"http://www.bank-abc.com/world/Egypt/en/Pages/default.aspx",
	"arCategory":[
		"ماكينات الصراف الالى"
	],
	"enCategories":[
		"ATMs"
	],
	"contacts":[
		{	"profileId":"465513",
	"profileURL":"//www.yellowpages.com.eg/en/profile/bank-abc-_-atm/465513?b=51&k=19123&l=search",
	"arName":"ش التليفزيون, الاقصر, الاقصر",
	"lat":"",
	"lng":"",
	"enName":"Television St., LUXOR, Luxor, Luxor"
},
		{	"profileId":"579379",
	"profileURL":"//www.yellowpages.com.eg/en/profile/bank-abc-_-atm/579379?b=28&k=19123&l=search",
	"arName":"ش دويدار, حدائق القبة, القاهرة",
	"lat":"30.082695999999999",
	"lng":"31.283553000000001",
	"enName":"Dowidar St., Hadayek el kobba, Cairo"
},
		{	"profileId":"465510",
	"profileURL":"//www.yellowpages.com.eg/en/profile/bank-abc-_-atm/465510?b=40&k=19123&l=search",
	"arName":"مجمع الكليات - سبرباى, طنطا, الغربية",
	"lat":"30.824923999999999",
	"lng":"30.996307000000002",
	"enName":"Colleges Complex, Sabarbay, Tanta, El gharbeya"
},
		{	"profileId":"465512",
	"profileURL":"//www.yellowpages.com.eg/en/profile/bank-abc-_-atm/465512?b=27&k=19123&l=search",
	"arName":"23 أ ميدان سراى القبة, سراى القبة, القاهرة",
	"lat":"30.096831000000002",
	"lng":"31.30688",
	"enName":"23 A Saray El Qobba Sq., Saray el koba, Cairo"
},
		{	"profileId":"272235",
	"profileURL":"//www.yellowpages.com.eg/en/profile/bank-abc-_-atm/272235?b=48&k=19123&l=search",
	"arName":"طريق السلام, خليج نعمة, شرم الشيخ",
	"lat":"27.916416000000002",
	"lng":"34.332470999999998",
	"enName":"El Salam Rd., Naama bay, Sharm el sheikh"
},
		{	"profileId":"272237",
	"profileURL":"//www.yellowpages.com.eg/en/profile/bank-abc-_-atm/272237?b=38&k=19123&l=search",
	"arName":"ش شرم ليزيه, هضبة ام السيد, شرم الشيخ",
	"lat":"27.863348999999999",
	"lng":"34.312835",
	"enName":"Sharm Elysees St., Umm el sid hill, Sharm el sheikh"
},
		{	"profileId":"184069",
	"profileURL":"//www.yellowpages.com.eg/en/profile/bank-abc-_-atm/184069?b=34&k=19123&l=search",
	"arName":"ش عمر بن الخطاب, مصر الجديدة, القاهرة",
	"lat":"30.073430999999999",
	"lng":"31.347339000000002",
	"enName":"Omar Ibn El Khattab St., Heliopolis, Cairo"
},
		{	"profileId":"396709",
	"profileURL":"//www.yellowpages.com.eg/en/profile/bank-abc-_-atm/396709?b=37&k=19123&l=search",
	"arName":"كم 28 -, طريق الاسكندرية القاهرة الصحرا, طريق الاسكندرية القاهرة الصحراوى, الاسكندرية",
	"lat":"31.051545999999998",
	"lng":"29.794021000000001",
	"enName":"Km 28,, Alex. cairo desert rd., Alexandria"
},
		{	"profileId":"543694",
	"profileURL":"//www.yellowpages.com.eg/en/profile/bank-abc-_-atm/543694?b=45&k=19123&l=search",
	"arName":"طريق الواحات, السادس من اكتوبر, الجيزة",
	"lat":"29.971907000000002",
	"lng":"31.01773",
	"enName":"El Wahat Rd., 6th of october, Giza"
},
		{	"profileId":"272228",
	"profileURL":"//www.yellowpages.com.eg/en/profile/bank-abc-_-atm/272228?b=47&k=19123&l=search",
	"arName":"198 ش الهرم, التعاون, الهرم, الجيزة",
	"lat":"29.995968999999999",
	"lng":"31.164797",
	"enName":"198 Haram St., El Taawon, El haram, Giza"
},
		{	"profileId":"465418",
	"profileURL":"//www.yellowpages.com.eg/en/profile/bank-abc-_-atm/465418?b=42&k=19123&l=search",
	"arName":"طريق القاهرة اسكندرية الزراعى, شبرا الخيمة, القليوبية",
	"lat":"30.114820999999999",
	"lng":"31.246254",
	"enName":"Cairo Alex Agricultural Rd., Shoubra el khaymah, Kaliobeya"
},
		{	"profileId":"465459",
	"profileURL":"//www.yellowpages.com.eg/en/profile/bank-abc-_-atm/465459?b=36&k=19123&l=search",
	"arName":"طريق رأس البر, دمياط, دمياط",
	"lat":"31.462091000000001",
	"lng":"31.778168999999998",
	"enName":"Ras El Bar Rd., Damietta, Damietta"
},
		{	"profileId":"169041",
	"profileURL":"//www.yellowpages.com.eg/en/profile/bank-abc-_-atm/169041?b=41&k=19123&l=search",
	"arName":"كم 6 -, طريق الاسكندرية القاهرة الصحرا, طريق الاسكندرية القاهرة الصحراوى, الاسكندرية",
	"lat":"31.167404000000001",
	"lng":"29.933047999999999",
	"enName":"Km 6,, Alex. cairo desert rd., Alexandria"
},
		{	"profileId":"396714",
	"profileURL":"//www.yellowpages.com.eg/en/profile/bank-abc-_-atm/396714?b=33&k=19123&l=search",
	"arName":"6 ش مكة, حدائق القبة, القاهرة",
	"lat":"30.085597",
	"lng":"31.282519000000001",
	"enName":"6 Mekka St., Hadayek el kobba, Cairo"
},
		{	"profileId":"396637",
	"profileURL":"//www.yellowpages.com.eg/en/profile/bank-abc-_-atm/396637?b=44&k=19123&l=search",
	"arName":"ش كوبرى الملك فيصل, اسيوط, اسيوط",
	"lat":"27.195499000000002",
	"lng":"31.176742000000001",
	"enName":"Kobry El Malek Faisal St., Assyout, Assyout"
},
		{	"profileId":"396636",
	"profileURL":"//www.yellowpages.com.eg/en/profile/bank-abc-_-atm/396636?b=49&k=19123&l=search",
	"arName":"طريق اسكندرية مطروح الصحراوى, العجمى, الاسكندرية",
	"lat":"31.110503000000001",
	"lng":"29.787454",
	"enName":"Alex Matrouh Desert Rd., Agami, Alexandria"
},
		{	"profileId":"396713",
	"profileURL":"//www.yellowpages.com.eg/en/profile/bank-abc-_-atm/396713?b=50&k=19123&l=search",
	"arName":"ميدان جهينة, السادس من اكتوبر, الجيزة",
	"lat":"30.005434000000001",
	"lng":"30.974428",
	"enName":"Juhaina Sq., 6th of october, Giza"
},
		{	"profileId":"465339",
	"profileURL":"//www.yellowpages.com.eg/en/profile/bank-abc-_-atm/465339?b=26&k=19123&l=search",
	"arName":"الطريق الدائرى, كايرو فيستيفال, القاهرة الجديدة, القاهرة",
	"lat":"30.028863000000001",
	"lng":"31.407785000000001",
	"enName":"Ring Rd., Cairo Festival City, New cairo, Cairo"
},
		{	"profileId":"396712",
	"profileURL":"//www.yellowpages.com.eg/en/profile/bank-abc-_-atm/396712?b=35&k=19123&l=search",
	"arName":"ش كورنيش النيل, الاقصر, الاقصر",
	"lat":"25.700187",
	"lng":"32.640301999999998",
	"enName":"Corniche El Nil St., LUXOR, Luxor, Luxor"
},
		{	"profileId":"169047",
	"profileURL":"//www.yellowpages.com.eg/en/profile/bank-abc-_-atm/169047?b=46&k=19123&l=search",
	"arName":"الغرقانة, خليج نبق, شرم الشيخ",
	"lat":"28.025756999999999",
	"lng":"34.436647000000001",
	"enName":"El Gharqana, Nabq bay, Sharm el sheikh"
},
		{	"profileId":"169038",
	"profileURL":"//www.yellowpages.com.eg/en/profile/bank-abc-_-atm/169038?b=29&k=19123&l=search",
	"arName":"3 ش مكرم عبيد, المنطقة السادسة, مدينة نصر, القاهرة",
	"lat":"30.068242999999999",
	"lng":"31.344439000000001",
	"enName":"3 Makram Ebaid St., 6th Zone, Nasr city, Cairo"
},
		{	"profileId":"466157",
	"profileURL":"//www.yellowpages.com.eg/en/profile/bank-abc-_-atm/466157?b=31&k=19123&l=search",
	"arName":"6 ش سيد البربرى, حدائق القبة, القاهرة",
	"lat":"30.089305",
	"lng":"31.288328",
	"enName":"6 Sayed El Barbary St., Hadayek el kobba, Cairo"
},
		{	"profileId":"465464",
	"profileURL":"//www.yellowpages.com.eg/en/profile/bank-abc-_-atm/465464?b=39&k=19123&l=search",
	"arName":"طريق السد العالى, وسط البلد, اسوان",
	"lat":"24.061512",
	"lng":"32.916176",
	"enName":"El Sad El Aaly Rd., Downtown, Aswan"
},
		{	"profileId":"465463",
	"profileURL":"//www.yellowpages.com.eg/en/profile/bank-abc-_-atm/465463?b=43&k=19123&l=search",
	"arName":"المنطقة الصناعية, دمياط الجديدة, دمياط",
	"lat":"31.423500000000001",
	"lng":"31.701350000000001",
	"enName":"Industrial Zone, New damietta, Damietta"
},
		{	"profileId":"396642",
	"profileURL":"//www.yellowpages.com.eg/en/profile/bank-abc-_-atm/396642?b=25&k=19123&l=search",
	"arName":"مربع 1258ف - طريق الاوتوستراد, مساكن شيراتون, مصر الجديدة, القاهرة",
	"lat":"30.102709000000001",
	"lng":"31.386952000000001",
	"enName":"Square 1258f, Autostrad Rd., Sheraton Bldgs., Heliopolis, Cairo"
},
		{	"profileId":"316775",
	"profileURL":"//www.yellowpages.com.eg/en/profile/bank-abc-_-atm/316775?b=30&k=19123&l=search",
	"arName":"42 ش نجاتى سراج, الحى الثامن, مدينة نصر, القاهرة",
	"lat":"30.047253000000001",
	"lng":"31.351696",
	"enName":"42 Nagaty Serag St., 8th District, Nasr city, Cairo"
},
		{	"profileId":"169027",
	"profileURL":"//www.yellowpages.com.eg/en/profile/bank-abc-_-atm/169027?b=32&k=19123&l=search",
	"arName":"9 ش البطراوى متفرع من ش عباس العقاد, المنطقة الاولى, مدينة نصر, القاهرة",
	"lat":"30.061188000000001",
	"lng":"31.332156000000001",
	"enName":"9 El Batrawy St. Off Abbas El Akkad St., 1st Zone, Nasr city, Cairo"
}
	]
}]}