{"items":[{	"arName":"ترافيل تشويس",
	"enName":"Travel Choice",
	"hotline":"16119",
	"facebook":"http://www.facebook.com/pages/Travel-Choice-Egypt/163958496964633",
	"web":"http://www.travelchoiceegypt.com/",
	"arCategory":[
		"سياحة وكالات"
	],
	"enCategories":[
		"Travel Agents"
	],
	"contacts":[
		{	"profileId":"10080",
	"profileURL":"//www.yellowpages.com.eg/en/profile/travel-choice/10080?b=1&k=16119&l=search",
	"arName":"1229 برج فلوريدا - ش الشيخ على جاد الحق - الدور 2, 3, مساكن شيراتون, مصر الجديدة, القاهرة",
	"lat":"30.100764999999999",
	"lng":"31.370621",
	"enName":"1229 Florida Tower, El Sheikh Aly Gad El Haq St., Floor 2, 3, Sheraton Bldgs., Heliopolis, Cairo"
},
		{	"profileId":"102370",
	"profileURL":"//www.yellowpages.com.eg/en/profile/travel-choice/102370?b=5&k=16119&l=search",
	"arName":"17 ش محمود بسيونى ميدان طلعت حرب, وسط البلد, القاهرة",
	"lat":"30.047892000000001",
	"lng":"31.237338999999999",
	"enName":"17 Mahmoud Basiony St. Talaat Harb Sq., Downtown, Cairo"
},
		{	"profileId":"73902",
	"profileURL":"//www.yellowpages.com.eg/en/profile/travel-choice/73902?b=15&k=16119&l=search",
	"arName":"ش كورنيش النيل, الاقصر, الاقصر",
	"lat":"25.696672",
	"lng":"32.636592999999998",
	"enName":"Corniche El Nil St., LUXOR, Luxor, Luxor"
},
		{	"profileId":"73901",
	"profileURL":"//www.yellowpages.com.eg/en/profile/travel-choice/73901?b=13&k=16119&l=search",
	"arName":"8 ش الشيراتون, سقالة, الغردقة",
	"lat":"27.227484",
	"lng":"33.838383999999998",
	"enName":"8 Sheraton Rd., Sekala, Hurghada"
},
		{	"profileId":"73900",
	"profileURL":"//www.yellowpages.com.eg/en/profile/travel-choice/73900?b=11&k=16119&l=search",
	"arName":"59 ش ابطال التحرير متفرع من ش كورنيش النيل, الكورنيش, اسوان",
	"lat":"24.087700999999999",
	"lng":"32.893397999999998",
	"enName":"59 Abtal El Tahrir St. Off Corniche El Nil St., El corniche, Aswan"
},
		{	"profileId":"132941",
	"profileURL":"//www.yellowpages.com.eg/en/profile/travel-choice/132941?b=14&k=16119&l=search",
	"arName":"3 ش النصر, الدهار, الغردقة",
	"lat":"27.250543",
	"lng":"33.817312000000001",
	"enName":"3 El Nasr St., Dahar, Hurghada"
},
		{	"profileId":"73895",
	"profileURL":"//www.yellowpages.com.eg/en/profile/travel-choice/73895?b=6&k=16119&l=search",
	"arName":"7 ش بغداد, الكوربة, مصر الجديدة, القاهرة",
	"lat":"30.089479999999998",
	"lng":"31.322552000000002",
	"enName":"7 Baghdad St., El Korba, Heliopolis, Cairo"
},
		{	"profileId":"388068",
	"profileURL":"//www.yellowpages.com.eg/en/profile/travel-choice/388068?b=17&k=16119&l=search",
	"arName":"كورنيش النيل - جزيرة الافانتين, الكورنيش, اسوان",
	"lat":"24.092789",
	"lng":"32.891598000000002",
	"enName":"Corniche El Nil, Elephantine Island, El corniche, Aswan"
},
		{	"profileId":"34141",
	"profileURL":"//www.yellowpages.com.eg/en/profile/travel-choice/34141?b=10&k=16119&l=search",
	"arName":"15 ميدان سعد زغلول, محطة الرمل, الاسكندرية",
	"lat":"31.202703",
	"lng":"29.902452",
	"enName":"15 Saad Zaghloul Sq., Raml station, Alexandria"
},
		{	"profileId":"149797",
	"profileURL":"//www.yellowpages.com.eg/en/profile/travel-choice/149797?b=3&k=16119&l=search",
	"arName":"خدمة العملاء, مساكن شيراتون, مصر الجديدة, القاهرة",
	"lat":"",
	"lng":"",
	"enName":"Customer Service, Sheraton Bldgs., Heliopolis, Cairo"
},
		{	"profileId":"110648",
	"profileURL":"//www.yellowpages.com.eg/en/profile/travel-choice/110648?b=4&k=16119&l=search",
	"arName":"88 ش 9 ميدان المحطة, المعادى, القاهرة",
	"lat":"29.958852",
	"lng":"31.259163000000001",
	"enName":"88 Rd. 9 El Mahatta Sq., Maadi, Cairo"
},
		{	"profileId":"466369",
	"profileURL":"//www.yellowpages.com.eg/en/profile/travel-choice/466369?b=8&k=16119&l=search",
	"arName":"3 أ ش اسماعيل محمد, الزمالك, القاهرة",
	"lat":"30.065452000000001",
	"lng":"31.216165",
	"enName":"3 A Ismail Mohamed St., Zamalek, Cairo"
},
		{	"profileId":"285957",
	"profileURL":"//www.yellowpages.com.eg/en/profile/travel-choice/285957?b=12&k=16119&l=search",
	"arName":"., السوق القديم, شرم الشيخ",
	"lat":"27.911332000000002",
	"lng":"34.322602000000003",
	"enName":"., El souk el kadim, Sharm el sheikh"
},
		{	"profileId":"285928",
	"profileURL":"//www.yellowpages.com.eg/en/profile/travel-choice/285928?b=7&k=16119&l=search",
	"arName":"طريق المطار, منطقة المطار, مصر الجديدة, القاهرة",
	"lat":"30.126996999999999",
	"lng":"31.402411000000001",
	"enName":"Airport Rd., Airport Area, Heliopolis, Cairo"
},
		{	"profileId":"388038",
	"profileURL":"//www.yellowpages.com.eg/en/profile/travel-choice/388038?b=16&k=16119&l=search",
	"arName":"83 ش 23 يوليو تقاطع ش صلاح سالم, حى الشرق, بور سعيد",
	"lat":"31.267766999999999",
	"lng":"32.308791999999997",
	"enName":"83 23rd Of July St. Intersection Of Salah Salem St., El shark district, Port said"
},
		{	"profileId":"73904",
	"profileURL":"//www.yellowpages.com.eg/en/profile/travel-choice/73904?b=9&k=16119&l=search",
	"arName":"طريق السلام, خليج نعمة, شرم الشيخ",
	"lat":"27.917435000000001",
	"lng":"34.335140000000003",
	"enName":"El Salam Rd., Naama bay, Sharm el sheikh"
}
	]
}, {	"arName":"شطا لاقمشة الستائر والمفروشات",
	"enName":"Shatta Fabrics & Curtains",
	"hotline":"16119",
	"facebook":"http://www.facebook.com/pages/Vantex-Mohamed-shatta/159941707351621",
	"web":"",
	"arCategory":[
		"منسوجات"
	],
	"enCategories":[
		"Textiles"
	],
	"contacts":[
		{	"profileId":"568728",
	"profileURL":"//www.yellowpages.com.eg/en/profile/shatta-fabrics-&-curtains/568728?b=2&k=16119&l=search",
	"arName":"28 ش النصر, المعادى الجديدة, المعادى, القاهرة",
	"lat":"29.975209",
	"lng":"31.279039000000001",
	"enName":"28 El Nasr St., New Maadi, Maadi, Cairo"
}
	]
}]}