{"items":[{	"arName":"ميراكو توتالاين - مصر للتبريد والتكييف",
	"enName":"Miraco Totaline - Misr Refrigeration & Air Condition",
	"hotline":"19111",
	"facebook":"http://www.facebook.com/CarrierEgyptOfficial/timeline",
	"web":"http://www.miraco.com.eg/",
	"arCategory":[
		"تكييف هواء",
		"ثلاجات ومجمدات ومخازن تبريد"
	],
	"enCategories":[
		"Air Conditioning",
		"Refrigerators, Freezers & Cold Storage"
	],
	"contacts":[
		{	"profileId":"132267",
	"profileURL":"//www.yellowpages.com.eg/en/profile/miraco-totaline-_-misr-refrigeration-&-air-condition/132267?b=18&k=19111&l=search",
	"arName":"كم 28 - طريق القاهرة اسكندرية الصحراوى, ابو رواش, الجيزة",
	"lat":"",
	"lng":"",
	"enName":"Km 28, Cairo Alex Desert Rd., Abou rawash, Giza"
},
		{	"profileId":"167475",
	"profileURL":"//www.yellowpages.com.eg/en/profile/miraco-totaline-_-misr-refrigeration-&-air-condition/167475?b=20&k=19111&l=search",
	"arName":"خدمة العملاء, ابو رواش, الجيزة",
	"lat":"",
	"lng":"",
	"enName":"Customer Service, Abou rawash, Giza"
},
		{	"profileId":"140581",
	"profileURL":"//www.yellowpages.com.eg/en/profile/miraco-totaline-_-misr-refrigeration-&-air-condition/140581?b=15&k=19111&l=search",
	"arName":"الاردنية, العاشر من رمضان, الشرقية",
	"lat":"30.298926000000002",
	"lng":"31.743487999999999",
	"enName":"El Ordoneya, 10th of ramadan, El sharkeya"
},
		{	"profileId":"140584",
	"profileURL":"//www.yellowpages.com.eg/en/profile/miraco-totaline-_-misr-refrigeration-&-air-condition/140584?b=21&k=19111&l=search",
	"arName":"طريق السلام, هضبة ام السيد, شرم الشيخ",
	"lat":"27.885467999999999",
	"lng":"34.303508000000001",
	"enName":"El Salam Rd., Umm el sid hill, Sharm el sheikh"
},
		{	"profileId":"140575",
	"profileURL":"//www.yellowpages.com.eg/en/profile/miraco-totaline-_-misr-refrigeration-&-air-condition/140575?b=16&k=19111&l=search",
	"arName":"98 أ ش فيصل, المريوطية, فيصل, الجيزة",
	"lat":"29.994184000000001",
	"lng":"31.147857999999999",
	"enName":"98 A Faisal St., El Mariouteya, Faisal, Giza"
},
		{	"profileId":"115388",
	"profileURL":"//www.yellowpages.com.eg/en/profile/miraco-totaline-_-misr-refrigeration-&-air-condition/115388?b=17&k=19111&l=search",
	"arName":"5 ش البرت الاول, سموحة, الاسكندرية",
	"lat":"31.213922",
	"lng":"29.939357999999999",
	"enName":"5 Albert El Awal St., Semouha, Alexandria"
},
		{	"profileId":"140576",
	"profileURL":"//www.yellowpages.com.eg/en/profile/miraco-totaline-_-misr-refrigeration-&-air-condition/140576?b=13&k=19111&l=search",
	"arName":"7 ميدان رمسيس, وسط البلد, القاهرة",
	"lat":"30.060157",
	"lng":"31.246994999999998",
	"enName":"7 Ramsis Sq., Downtown, Cairo"
},
		{	"profileId":"69090",
	"profileURL":"//www.yellowpages.com.eg/en/profile/miraco-totaline-_-misr-refrigeration-&-air-condition/69090?b=19&k=19111&l=search",
	"arName":"15 ش مكة, المهندسين, الجيزة",
	"lat":"30.048262000000001",
	"lng":"31.200772000000001",
	"enName":"15 Mekka St., Mohandeseen, Giza"
},
		{	"profileId":"140577",
	"profileURL":"//www.yellowpages.com.eg/en/profile/miraco-totaline-_-misr-refrigeration-&-air-condition/140577?b=14&k=19111&l=search",
	"arName":"18 ش عبد الله العربى امتداد ش الطيران, الحى السابع, مدينة نصر, القاهرة",
	"lat":"30.049233999999998",
	"lng":"31.328085999999999",
	"enName":"18 Abdullah El Araby St. Extension Of El Tayaran St., 7th District, Nasr city, Cairo"
}
	]
}, {	"arName":"ميراكو كاريير - مصر للتبريد والتكييف",
	"enName":"Miraco Carrier - Misr Refrigeration & Air Condition",
	"hotline":"19111",
	"facebook":"http://www.facebook.com/CarrierEgypt",
	"web":"http://www.miraco.com.eg/",
	"arCategory":[
		"تكييف هواء"
	],
	"enCategories":[
		"Air Conditioning"
	],
	"contacts":[
		{	"profileId":"63121",
	"profileURL":"//www.yellowpages.com.eg/en/profile/miraco-carrier-_-misr-refrigeration-&-air-condition/63121?b=6&k=19111&l=search",
	"arName":"كم 28 - طريق القاهرة اسكندرية الصحراوى, ابو رواش, الجيزة",
	"lat":"30.0639383",
	"lng":"31.0311573",
	"enName":"km 28, Cairo Alex Desert Rd., Abou rawash, Giza"
},
		{	"profileId":"140691",
	"profileURL":"//www.yellowpages.com.eg/en/profile/miraco-carrier-_-misr-refrigeration-&-air-condition/140691?b=2&k=19111&l=search",
	"arName":"70 ش شبرا, شبرا, القاهرة",
	"lat":"30.075973999999999",
	"lng":"31.244852999999999",
	"enName":"70 Shoubra St., Shoubra, Cairo"
},
		{	"profileId":"118135",
	"profileURL":"//www.yellowpages.com.eg/en/profile/miraco-carrier-_-misr-refrigeration-&-air-condition/118135?b=7&k=19111&l=search",
	"arName":"ش المحكمة, الدهار, الغردقة",
	"lat":"27.255101700000001",
	"lng":"33.813029299999997",
	"enName":"El Mahkama St., Dahar, Hurghada"
},
		{	"profileId":"140770",
	"profileURL":"//www.yellowpages.com.eg/en/profile/miraco-carrier-_-misr-refrigeration-&-air-condition/140770?b=5&k=19111&l=search",
	"arName":"7 ميدان رمسيس, وسط البلد, القاهرة",
	"lat":"30.060157",
	"lng":"31.246994999999998",
	"enName":"7 Ramsis Sq., Downtown, Cairo"
},
		{	"profileId":"121089",
	"profileURL":"//www.yellowpages.com.eg/en/profile/miraco-carrier-_-misr-refrigeration-&-air-condition/121089?b=11&k=19111&l=search",
	"arName":"15 ش مكة المكرمة متفرع من ش محيى الدين ابو العز, الدقى, الجيزة",
	"lat":"30.048262000000001",
	"lng":"31.200772000000001",
	"enName":"15 Mekka El Mokarama St. Off Mohy El Din Abou Al Ezz St., Dokki, Giza"
},
		{	"profileId":"140685",
	"profileURL":"//www.yellowpages.com.eg/en/profile/miraco-carrier-_-misr-refrigeration-&-air-condition/140685?b=3&k=19111&l=search",
	"arName":"18 ش عبد الله العربى امتداد ش الطيران, الحى السابع, مدينة نصر, القاهرة",
	"lat":"30.049233999999998",
	"lng":"31.328085999999999",
	"enName":"18 Abdullah El Araby St. Extension Of Tayaran St., 7th District, Nasr city, Cairo"
},
		{	"profileId":"140686",
	"profileURL":"//www.yellowpages.com.eg/en/profile/miraco-carrier-_-misr-refrigeration-&-air-condition/140686?b=4&k=19111&l=search",
	"arName":"204 ش الحجاز, مصر الجديدة, القاهرة",
	"lat":"30.116675000000001",
	"lng":"31.353088",
	"enName":"204 El Hegaz St., Heliopolis, Cairo"
},
		{	"profileId":"178616",
	"profileURL":"//www.yellowpages.com.eg/en/profile/miraco-carrier-_-misr-refrigeration-&-air-condition/178616?b=8&k=19111&l=search",
	"arName":"خدمة العملاء, ابو رواش, الجيزة",
	"lat":"",
	"lng":"",
	"enName":"Customer Service, Abou rawash, Giza"
},
		{	"profileId":"140774",
	"profileURL":"//www.yellowpages.com.eg/en/profile/miraco-carrier-_-misr-refrigeration-&-air-condition/140774?b=12&k=19111&l=search",
	"arName":"الاردنية, العاشر من رمضان, الشرقية",
	"lat":"30.298926000000002",
	"lng":"31.743487999999999",
	"enName":"El Ordoneya, 10th of ramadan, El sharkeya"
},
		{	"profileId":"140688",
	"profileURL":"//www.yellowpages.com.eg/en/profile/miraco-carrier-_-misr-refrigeration-&-air-condition/140688?b=1&k=19111&l=search",
	"arName":"11 /2 ش النصر - الدور 2, المعادى الجديدة, المعادى, القاهرة",
	"lat":"29.975930999999999",
	"lng":"31.283141000000001",
	"enName":"11 /2 El Nasr St., Floor 2, New Maadi, Maadi, Cairo"
},
		{	"profileId":"140689",
	"profileURL":"//www.yellowpages.com.eg/en/profile/miraco-carrier-_-misr-refrigeration-&-air-condition/140689?b=9&k=19111&l=search",
	"arName":"98 أ ش فيصل, المريوطية, فيصل, الجيزة",
	"lat":"29.994184000000001",
	"lng":"31.147857999999999",
	"enName":"98 A Faisal St., El Mariouteya, Faisal, Giza"
},
		{	"profileId":"26171",
	"profileURL":"//www.yellowpages.com.eg/en/profile/miraco-carrier-_-misr-refrigeration-&-air-condition/26171?b=10&k=19111&l=search",
	"arName":"5 ش البرت الاول, سموحة, الاسكندرية",
	"lat":"31.213922",
	"lng":"29.939357999999999",
	"enName":"5 Albert El Awal St., Semouha, Alexandria"
}
	]
}]}