{"items":[{	"arName":"لابوار",
	"enName":"La Poire",
	"hotline":"19515",
	"facebook":"http://www.facebook.com/LaPoireEgypt",
	"web":"",
	"arCategory":[
		"مخابز ومعجنات وحلوى محلات",
		"مطاعم",
		"مطاعم صالات طعام"
	],
	"enCategories":[
		"Bakery & Pastry Shops",
		"Restaurants",
		"Restaurants Eat Out"
	],
	"contacts":[
		{	"profileId":"559560",
	"profileURL":"//www.yellowpages.com.eg/en/profile/la-poire/559560?b=20&k=19515&l=search",
	"arName":"., جنوب الاكاديمية, القاهرة الجديدة, القاهرة",
	"lat":"30.008313999999999",
	"lng":"31.440159000000001",
	"enName":"., South Academy, New cairo, Cairo"
},
		{	"profileId":"269947",
	"profileURL":"//www.yellowpages.com.eg/en/profile/la-poire/269947?b=23&k=19515&l=search",
	"arName":"118 ش 26 يوليو, الزمالك, القاهرة",
	"lat":"30.060155999999999",
	"lng":"31.221439",
	"enName":"118 26th Of July St., Zamalek, Cairo"
},
		{	"profileId":"60190",
	"profileURL":"//www.yellowpages.com.eg/en/profile/la-poire/60190?b=30&k=19515&l=search",
	"arName":"2 ش المصانع, البساتين, القاهرة",
	"lat":"29.992146000000002",
	"lng":"31.265447000000002",
	"enName":"2 El Masanea St., El bassateen, Cairo"
},
		{	"profileId":"135568",
	"profileURL":"//www.yellowpages.com.eg/en/profile/la-poire/135568?b=34&k=19515&l=search",
	"arName":"14 ش محب, طنطا, الغربية",
	"lat":"30.796801500000001",
	"lng":"31.0001137",
	"enName":"14 Moheb St., Tanta, El gharbeya"
},
		{	"profileId":"218511",
	"profileURL":"//www.yellowpages.com.eg/en/profile/la-poire/218511?b=39&k=19515&l=search",
	"arName":"طريق مصر اسماعيلية الصحراوى - جولف سيتى, مدينة العبور, القليوبية",
	"lat":"30.174412",
	"lng":"31.474615",
	"enName":"Misr Ismaileya Desert Rd., Golf City, Obour city, Kaliobeya"
},
		{	"profileId":"447292",
	"profileURL":"//www.yellowpages.com.eg/en/profile/la-poire/447292?b=40&k=19515&l=search",
	"arName":"36 طريق الجيش, كامب شيزار, الاسكندرية",
	"lat":"31.215209999999999",
	"lng":"29.922194999999999",
	"enName":"36 El Guish Rd., Camp shizar, Alexandria"
},
		{	"profileId":"401496",
	"profileURL":"//www.yellowpages.com.eg/en/profile/la-poire/401496?b=7&k=19515&l=search",
	"arName":"ش التسعين, التجمع الخامس, القاهرة الجديدة, القاهرة",
	"lat":"30.0258875",
	"lng":"31.487770999999999",
	"enName":"El Tesaeen St., 5th Compound, New cairo, Cairo"
},
		{	"profileId":"393028",
	"profileURL":"//www.yellowpages.com.eg/en/profile/la-poire/393028?b=8&k=19515&l=search",
	"arName":"114 ش عمار بن ياسر, مصر الجديدة, القاهرة",
	"lat":"30.116515",
	"lng":"31.361948999999999",
	"enName":"114 Ammar Ibn Yasser St., Heliopolis, Cairo"
},
		{	"profileId":"145373",
	"profileURL":"//www.yellowpages.com.eg/en/profile/la-poire/145373?b=37&k=19515&l=search",
	"arName":"كم 67 -, طريق اسكندرية مطروح الصحراوى, الساحل الشمالى",
	"lat":"30.870532999999998",
	"lng":"29.338708",
	"enName":"Km 67,, Alex. matrouh desert rd., North coast"
},
		{	"profileId":"145372",
	"profileURL":"//www.yellowpages.com.eg/en/profile/la-poire/145372?b=33&k=19515&l=search",
	"arName":"كم 34 - طريق اسكندرية مطروح الصحراوى, سيدى كرير, الساحل الشمالى",
	"lat":"31.018922",
	"lng":"29.633465000000001",
	"enName":"Km 34, Alex Matrouh Desert Rd., Sidi kreir, North coast"
},
		{	"profileId":"193841",
	"profileURL":"//www.yellowpages.com.eg/en/profile/la-poire/193841?b=12&k=19515&l=search",
	"arName":"36 ش ابو بكر الصديق, ميدان سفير, مصر الجديدة, القاهرة",
	"lat":"30.100206",
	"lng":"31.334916",
	"enName":"36 Abou Bakr El Seddik St., Safir Square, Heliopolis, Cairo"
},
		{	"profileId":"145365",
	"profileURL":"//www.yellowpages.com.eg/en/profile/la-poire/145365?b=1&k=19515&l=search",
	"arName":"ش صلاح سالم, مدينة نصر, القاهرة",
	"lat":"30.076879999999999",
	"lng":"31.311629",
	"enName":"Salah Salem St., Nasr city, Cairo"
},
		{	"profileId":"145369",
	"profileURL":"//www.yellowpages.com.eg/en/profile/la-poire/145369?b=51&k=19515&l=search",
	"arName":"كم 51 - , طريق اسكندرية مطروح الصحراوى, الساحل الشمالى",
	"lat":"30.932780999999999",
	"lng":"29.481311999999999",
	"enName":"Km 51, , Alex. matrouh desert rd., North coast"
},
		{	"profileId":"195781",
	"profileURL":"//www.yellowpages.com.eg/en/profile/la-poire/195781?b=46&k=19515&l=search",
	"arName":"271 طريق الجيش, ستانلى, الاسكندرية",
	"lat":"31.235151999999999",
	"lng":"29.950581",
	"enName":"271 El Guish Rd., Stanly, Alexandria"
},
		{	"profileId":"213595",
	"profileURL":"//www.yellowpages.com.eg/en/profile/la-poire/213595?b=50&k=19515&l=search",
	"arName":"المحور المركزى, السادس من اكتوبر, الجيزة",
	"lat":"29.973347",
	"lng":"30.944596000000001",
	"enName":"Central Spine, 6th of october, Giza"
},
		{	"profileId":"427170",
	"profileURL":"//www.yellowpages.com.eg/en/profile/la-poire/427170?b=6&k=19515&l=search",
	"arName":"24 ش 233, دجلة, المعادى, القاهرة",
	"lat":"29.962114",
	"lng":"31.278375",
	"enName":"24 Rd. 233, Degla, Maadi, Cairo"
},
		{	"profileId":"390322",
	"profileURL":"//www.yellowpages.com.eg/en/profile/la-poire/390322?b=9&k=19515&l=search",
	"arName":"حى النادى, مدينة الشروق, القاهرة",
	"lat":"30.135788999999999",
	"lng":"31.612897",
	"enName":"El Nady District, El sherouk city, Cairo"
},
		{	"profileId":"280727",
	"profileURL":"//www.yellowpages.com.eg/en/profile/la-poire/280727?b=24&k=19515&l=search",
	"arName":"الطريق الدائرى - مدينة المعراج, زهراء المعادى, المعادى, القاهرة",
	"lat":"29.982492000000001",
	"lng":"31.316680999999999",
	"enName":"Ring Rd., El Mearag City, Zahraa El Maadi, Maadi, Cairo"
},
		{	"profileId":"269937",
	"profileURL":"//www.yellowpages.com.eg/en/profile/la-poire/269937?b=17&k=19515&l=search",
	"arName":"88 ش الميرغنى, كلية البنات, مصر الجديدة, القاهرة",
	"lat":"30.084944",
	"lng":"31.328496000000001",
	"enName":"88 El Merghany St., koleyet El Banat, Heliopolis, Cairo"
},
		{	"profileId":"447289",
	"profileURL":"//www.yellowpages.com.eg/en/profile/la-poire/447289?b=44&k=19515&l=search",
	"arName":"74 ش البرت الاول, سموحة, الاسكندرية",
	"lat":"31.212824999999999",
	"lng":"29.939518",
	"enName":"74 Albert El Awal St., Semouha, Alexandria"
},
		{	"profileId":"129670",
	"profileURL":"//www.yellowpages.com.eg/en/profile/la-poire/129670?b=14&k=19515&l=search",
	"arName":"5 ش 9, المقطم, القاهرة",
	"lat":"30.0147838",
	"lng":"31.282212900000001",
	"enName":"5 Rd. 9, Mokattam, Cairo"
},
		{	"profileId":"459092",
	"profileURL":"//www.yellowpages.com.eg/en/profile/la-poire/459092?b=32&k=19515&l=search",
	"arName":"طريق الزهراء الرئيسى, زهراء المعادى, المعادى, القاهرة",
	"lat":"29.960316599999999",
	"lng":"31.289966400000001",
	"enName":"El Zahraa Main Rd., Zahraa El Maadi, Maadi, Cairo"
},
		{	"profileId":"490065",
	"profileURL":"//www.yellowpages.com.eg/en/profile/la-poire/490065?b=53&k=19515&l=search",
	"arName":"36 ش البطل احمد عبد العزيز متفرع من ش جامعة الدول العربية, المهندسين, الجيزة",
	"lat":"30.053422999999999",
	"lng":"31.205732000000001",
	"enName":"36 El Batal Ahmed Abdel Aziz St. Off Gamaet El Dewal El Arabeya St., Mohandeseen, Giza"
},
		{	"profileId":"528674",
	"profileURL":"//www.yellowpages.com.eg/en/profile/la-poire/528674?b=18&k=19515&l=search",
	"arName":"3 ابراج بدر - الطريق الدائرى, زهراء المعادى, المعادى, القاهرة",
	"lat":"29.983608",
	"lng":"31.320658999999999",
	"enName":"3 Badr Towers, Ring Rd., Zahraa El Maadi, Maadi, Cairo"
},
		{	"profileId":"85444",
	"profileURL":"//www.yellowpages.com.eg/en/profile/la-poire/85444?b=42&k=19515&l=search",
	"arName":"37 ميدان فيكتور عمانويل, سموحة, الاسكندرية",
	"lat":"31.214611999999999",
	"lng":"29.944633",
	"enName":"37 Victor Emanuel Sq., Semouha, Alexandria"
},
		{	"profileId":"85441",
	"profileURL":"//www.yellowpages.com.eg/en/profile/la-poire/85441?b=52&k=19515&l=search",
	"arName":"مارينا 2 - السوق التجارى, مارينا, الساحل الشمالى",
	"lat":"30.817671000000001",
	"lng":"29.030981000000001",
	"enName":"Marina 2, Commercial Market, Marina, North coast"
},
		{	"profileId":"85440",
	"profileURL":"//www.yellowpages.com.eg/en/profile/la-poire/85440?b=49&k=19515&l=search",
	"arName":"52 ش الاقبال, لوران, الاسكندرية",
	"lat":"31.252763999999999",
	"lng":"29.973244999999999",
	"enName":"52 El Eqbal St., Loran, Alexandria"
},
		{	"profileId":"405155",
	"profileURL":"//www.yellowpages.com.eg/en/profile/la-poire/405155?b=43&k=19515&l=search",
	"arName":"2 ش طه حسين, وسط البلد, المنيا",
	"lat":"28.105695000000001",
	"lng":"30.752492",
	"enName":"2 Taha Hussein St., Downtown, El menia"
},
		{	"profileId":"234222",
	"profileURL":"//www.yellowpages.com.eg/en/profile/la-poire/234222?b=5&k=19515&l=search",
	"arName":"73 ش مصطفى النحاس, الحى الثامن, مدينة نصر, القاهرة",
	"lat":"30.054665",
	"lng":"31.348413999999998",
	"enName":"73 Mostafa El Nahhas St., 8th District, Nasr city, Cairo"
},
		{	"profileId":"162843",
	"profileURL":"//www.yellowpages.com.eg/en/profile/la-poire/162843?b=48&k=19515&l=search",
	"arName":"37 ش سوريا, المهندسين, الجيزة",
	"lat":"30.052889",
	"lng":"31.196386",
	"enName":"37 Syria St., Mohandeseen, Giza"
},
		{	"profileId":"127124",
	"profileURL":"//www.yellowpages.com.eg/en/profile/la-poire/127124?b=38&k=19515&l=search",
	"arName":"كم 126 - , طريق اسكندرية مطروح الصحراوى, الساحل الشمالى",
	"lat":"30.954644999999999",
	"lng":"28.778766000000001",
	"enName":"Km 126, , Alex. matrouh desert rd., North coast"
},
		{	"profileId":"85438",
	"profileURL":"//www.yellowpages.com.eg/en/profile/la-poire/85438?b=22&k=19515&l=search",
	"arName":"5 عمارات الميريلاند - ش جسر السويس, جسر السويس, القاهرة",
	"lat":"30.100653000000001",
	"lng":"31.317692000000001",
	"enName":"5 El Merryland Bldgs., Gesr El Suez St., Gesr el suez, Cairo"
},
		{	"profileId":"85439",
	"profileURL":"//www.yellowpages.com.eg/en/profile/la-poire/85439?b=29&k=19515&l=search",
	"arName":"ش عمر بن الخطاب, مصر الجديدة, القاهرة",
	"lat":"30.076162",
	"lng":"31.347636999999999",
	"enName":"Omar Ibn El Khattab St., Heliopolis, Cairo"
},
		{	"profileId":"85436",
	"profileURL":"//www.yellowpages.com.eg/en/profile/la-poire/85436?b=16&k=19515&l=search",
	"arName":"1 طريق المطار, مساكن شيراتون, مصر الجديدة, القاهرة",
	"lat":"30.109807",
	"lng":"31.371615599999998",
	"enName":"1 Airport Rd., Sheraton Bldgs., Heliopolis, Cairo"
},
		{	"profileId":"559539",
	"profileURL":"//www.yellowpages.com.eg/en/profile/la-poire/559539?b=45&k=19515&l=search",
	"arName":"مارينا 4, مارينا, الساحل الشمالى",
	"lat":"30.827223",
	"lng":"28.983478999999999",
	"enName":"Marina 4, Marina, North coast"
},
		{	"profileId":"85437",
	"profileURL":"//www.yellowpages.com.eg/en/profile/la-poire/85437?b=19&k=19515&l=search",
	"arName":"92 ش الحجاز, ميدان هليوبوليس, مصر الجديدة, القاهرة",
	"lat":"30.109231999999999",
	"lng":"31.340174000000001",
	"enName":"92 El Hegaz St., Heliopolis Square, Heliopolis, Cairo"
},
		{	"profileId":"85434",
	"profileURL":"//www.yellowpages.com.eg/en/profile/la-poire/85434?b=28&k=19515&l=search",
	"arName":"3 ش الفريق على عامر متفرع من ش محمد حسنين هيكل, المنطقة السادسة, مدينة نصر, القاهرة",
	"lat":"30.061128",
	"lng":"31.338953",
	"enName":"3 El Fariq Aly Amer St. Off Mohamed Hassanein Heikal St., 6th Zone, Nasr city, Cairo"
},
		{	"profileId":"559537",
	"profileURL":"//www.yellowpages.com.eg/en/profile/la-poire/559537?b=54&k=19515&l=search",
	"arName":"كم 124 - طريق اسكندرية مطروح الصحراوى, سيدى عبد الرحمن, الساحل الشمالى",
	"lat":"30.946079000000001",
	"lng":"28.791772999999999",
	"enName":"Km 124, Alex Matrouh Desert Rd., Sidi abdel rahman, North coast"
},
		{	"profileId":"85435",
	"profileURL":"//www.yellowpages.com.eg/en/profile/la-poire/85435?b=3&k=19515&l=search",
	"arName":"42 ش على امين امتداد ش مصطفى النحاس, المنطقة الاولى, مدينة نصر, القاهرة",
	"lat":"30.053556",
	"lng":"31.335011000000002",
	"enName":"42 Aly Amin St. Extension Of Mostafa El Nahhas St., 1st Zone, Nasr city, Cairo"
},
		{	"profileId":"85430",
	"profileURL":"//www.yellowpages.com.eg/en/profile/la-poire/85430?b=2&k=19515&l=search",
	"arName":"1 ابراج عثمان احمد عثمان - ش دولتيان متفرع من ش شبرا, اغاخان, القاهرة",
	"lat":"30.100587999999998",
	"lng":"31.240594999999999",
	"enName":"1 Othman Ahmed Othman Towers, Dawletian St. Off Shoubra St., Aghakhan, Cairo"
},
		{	"profileId":"85431",
	"profileURL":"//www.yellowpages.com.eg/en/profile/la-poire/85431?b=15&k=19515&l=search",
	"arName":"1 ش امريكا اللاتينية, جاردن سيتى, القاهرة",
	"lat":"30.039991000000001",
	"lng":"31.232538000000002",
	"enName":"1 Latin America St., Garden city, Cairo"
},
		{	"profileId":"121416",
	"profileURL":"//www.yellowpages.com.eg/en/profile/la-poire/121416?b=4&k=19515&l=search",
	"arName":"خدمة توصيل الطلبات للمنازل, البساتين, القاهرة",
	"lat":"",
	"lng":"",
	"enName":"Home Delivery, El bassateen, Cairo"
},
		{	"profileId":"234216",
	"profileURL":"//www.yellowpages.com.eg/en/profile/la-poire/234216?b=31&k=19515&l=search",
	"arName":"70 ش شبرا, شبرا, القاهرة",
	"lat":"30.075973999999999",
	"lng":"31.244852999999999",
	"enName":"70 Shoubra St., Shoubra, Cairo"
},
		{	"profileId":"145364",
	"profileURL":"//www.yellowpages.com.eg/en/profile/la-poire/145364?b=26&k=19515&l=search",
	"arName":"السوق التجارى, مدينة الرحاب, القاهرة",
	"lat":"30.056539999999998",
	"lng":"31.491816",
	"enName":"Commercial Market, Al rehab city, Cairo"
},
		{	"profileId":"443145",
	"profileURL":"//www.yellowpages.com.eg/en/profile/la-poire/443145?b=36&k=19515&l=search",
	"arName":"168 ش النيل, العجوزة, الجيزة",
	"lat":"30.051005",
	"lng":"31.216792000000002",
	"enName":"168 El Nil St., Agouza, Giza"
},
		{	"profileId":"246260",
	"profileURL":"//www.yellowpages.com.eg/en/profile/la-poire/246260?b=10&k=19515&l=search",
	"arName":"94 ش مكرم عبيد, المنطقة السادسة, مدينة نصر, القاهرة",
	"lat":"30.066064000000001",
	"lng":"31.34432",
	"enName":"94 Makram Ebaid St., 6th Zone, Nasr city, Cairo"
},
		{	"profileId":"85427",
	"profileURL":"//www.yellowpages.com.eg/en/profile/la-poire/85427?b=27&k=19515&l=search",
	"arName":"24 ش وادى النيل تقاطع ش 7, المعادى الجديدة, المعادى, القاهرة",
	"lat":"29.959368999999999",
	"lng":"31.256762999999999",
	"enName":"24 Wadi El Nil St. Intersection Of Rd. 7, New Maadi, Maadi, Cairo"
},
		{	"profileId":"85428",
	"profileURL":"//www.yellowpages.com.eg/en/profile/la-poire/85428?b=35&k=19515&l=search",
	"arName":"6 ش ابن ارحب, الجيزة, الجيزة",
	"lat":"30.027092",
	"lng":"31.217915999999999",
	"enName":"6 Ibn Arhab St., Giza, Giza"
},
		{	"profileId":"85425",
	"profileURL":"//www.yellowpages.com.eg/en/profile/la-poire/85425?b=41&k=19515&l=search",
	"arName":"50 ش مصدق, الدقى, الجيزة",
	"lat":"30.039311000000001",
	"lng":"31.204892999999998",
	"enName":"50 Mossadak St., Dokki, Giza"
},
		{	"profileId":"124435",
	"profileURL":"//www.yellowpages.com.eg/en/profile/la-poire/124435?b=13&k=19515&l=search",
	"arName":"45 ش النصر ميدان الجزائر, المعادى الجديدة, المعادى, القاهرة",
	"lat":"29.974043999999999",
	"lng":"31.275537",
	"enName":"45 El Nasr St. El Gazaer Sq., New Maadi, Maadi, Cairo"
},
		{	"profileId":"145359",
	"profileURL":"//www.yellowpages.com.eg/en/profile/la-poire/145359?b=11&k=19515&l=search",
	"arName":"70 ش 9, المعادى, القاهرة",
	"lat":"29.956797000000002",
	"lng":"31.260607",
	"enName":"70 Rd. 9, Maadi, Cairo"
},
		{	"profileId":"528778",
	"profileURL":"//www.yellowpages.com.eg/en/profile/la-poire/528778?b=25&k=19515&l=search",
	"arName":"منطقة المطاعم, مدينتى, القاهرة",
	"lat":"30.105391999999998",
	"lng":"31.629487999999998",
	"enName":"Food Court, Madinty, Cairo"
},
		{	"profileId":"124432",
	"profileURL":"//www.yellowpages.com.eg/en/profile/la-poire/124432?b=47&k=19515&l=search",
	"arName":"70 ش المشاية السفلية, المنصورة, الدقهلية",
	"lat":"31.045904",
	"lng":"31.356238999999999",
	"enName":"70 El Mashaya El Sofleya St., El mansoura, El dakahleya"
},
		{	"profileId":"474179",
	"profileURL":"//www.yellowpages.com.eg/en/profile/la-poire/474179?b=21&k=19515&l=search",
	"arName":"18 ش انور المفتى, مدينة نصر, القاهرة",
	"lat":"30.066500000000001",
	"lng":"31.329000000000001",
	"enName":"18 Anwar El Mofty St., Nasr city, Cairo"
}
	]
}, {	"arName":"لابوار كافيه",
	"enName":"La Poire Cafe",
	"hotline":"19515",
	"facebook":"http://www.facebook.com/LaPoireEgypt",
	"web":"",
	"arCategory":[
		"مخابز ومعجنات وحلوى محلات",
		"مقاهى",
		"مطاعم",
		"مطاعم صالات طعام"
	],
	"enCategories":[
		"Bakery & Pastry Shops",
		"Cafes and Coffee Shops",
		"Restaurants",
		"Restaurants Eat Out"
	],
	"contacts":[
		{	"profileId":"394023",
	"profileURL":"//www.yellowpages.com.eg/en/profile/la-poire-cafe/394023?b=55&k=19515&l=search",
	"arName":"6 ش ابن ارحب, الجيزة, الجيزة",
	"lat":"30.027135999999999",
	"lng":"31.217841",
	"enName":"6 Ibn Arhab St., Giza, Giza"
}
	]
}]}