{"items":[{	"arName":"صيدليات الوكيل",
	"enName":"El Wakeel Pharmacies",
	"hotline":"19967",
	"facebook":"http://www.facebook.com/pg/elwakelpharmacy",
	"web":"http://www.elwakelpharmacy.com/",
	"arCategory":[
		"صيدليات"
	],
	"enCategories":[
		"Pharmacies"
	],
	"contacts":[
		{	"profileId":"7890",
	"profileURL":"//www.yellowpages.com.eg/en/profile/el-wakeel-pharmacies/7890?b=3&k=19967&l=search",
	"arName":"45 ش الجمهورية, وسط البلد, القاهرة",
	"lat":"30.049593000000002",
	"lng":"31.246673000000001",
	"enName":"45 El Gomhoureya St., Downtown, Cairo"
},
		{	"profileId":"546945",
	"profileURL":"//www.yellowpages.com.eg/en/profile/el-wakeel-pharmacies/546945?b=6&k=19967&l=search",
	"arName":"29 ش دجلة متفرع من ش شهاب, المهندسين, الجيزة",
	"lat":"30.049233000000001",
	"lng":"31.196487000000001",
	"enName":"29 Degla St. Off Shehab St., Mohandeseen, Giza"
},
		{	"profileId":"546940",
	"profileURL":"//www.yellowpages.com.eg/en/profile/el-wakeel-pharmacies/546940?b=4&k=19967&l=search",
	"arName":"60 ش احمد حلمى, شبرا, القاهرة",
	"lat":"30.065984",
	"lng":"31.249744",
	"enName":"60 Ahmed Helmy St., Shoubra, Cairo"
},
		{	"profileId":"547004",
	"profileURL":"//www.yellowpages.com.eg/en/profile/el-wakeel-pharmacies/547004?b=2&k=19967&l=search",
	"arName":"خدمة توصيل الطلبات للمنازل, وسط البلد, القاهرة",
	"lat":"",
	"lng":"",
	"enName":"Home Delivery, Downtown, Cairo"
},
		{	"profileId":"546971",
	"profileURL":"//www.yellowpages.com.eg/en/profile/el-wakeel-pharmacies/546971?b=5&k=19967&l=search",
	"arName":"ش طه قنديل, المطرية, القاهرة",
	"lat":"30.116315",
	"lng":"31.301964000000002",
	"enName":"Taha Qandil St., El matareya, Cairo"
}
	]
}, {	"arName":"صيدلية اللواء الوكيل",
	"enName":"El Lewaa El Wakil Pharmacy",
	"hotline":"19967",
	"facebook":"http://www.facebook.com/elwakelpharmacy",
	"web":"http://www.elwakelpharmacy.com/",
	"arCategory":[
		"صيدليات"
	],
	"enCategories":[
		"Pharmacies"
	],
	"contacts":[
		{	"profileId":"288473",
	"profileURL":"//www.yellowpages.com.eg/en/profile/el-lewaa-el-wakil-pharmacy/288473?b=1&k=19967&l=search",
	"arName":"23 ش المعهد الاشتراكى, المريلاند, مصر الجديدة, القاهرة",
	"lat":"30.096923",
	"lng":"31.320342",
	"enName":"23 El Maahad El Eshteraky St., El Merryland, Heliopolis, Cairo"
}
	]
}]}