{"items":[{	"arName":"البنك العربى الافريقى الدولى - ايه ايه اى بى",
	"enName":"Arab African International Bank - AAIB",
	"hotline":"19555",
	"facebook":"http://www.facebook.com/aaibofficial",
	"web":"http://www.aaib.com/",
	"arCategory":[
		"ماكينات الصراف الالى",
		"بنوك"
	],
	"enCategories":[
		"ATMs",
		"Banks"
	],
	"contacts":[
		{	"profileId":"464748",
	"profileURL":"//www.yellowpages.com.eg/en/profile/arab-african-international-bank-_-aaib/464748?b=83&k=19555&l=search",
	"arName":"19 ش المساحة, الدقى, الجيزة",
	"lat":"30.034032",
	"lng":"31.214110999999999",
	"enName":"19 El Messaha St., Dokki, Giza"
},
		{	"profileId":"123462",
	"profileURL":"//www.yellowpages.com.eg/en/profile/arab-african-international-bank-_-aaib/123462?b=38&k=19555&l=search",
	"arName":"12 ش نادى الصيد ميدان علاء الدين, الدقى, الجيزة",
	"lat":"30.043047999999999",
	"lng":"31.203607000000002",
	"enName":"12 Nady El Seid St. Alaa El Din Sq., Dokki, Giza"
},
		{	"profileId":"428411",
	"profileURL":"//www.yellowpages.com.eg/en/profile/arab-african-international-bank-_-aaib/428411?b=73&k=19555&l=search",
	"arName":"101 ش الهلالى - برج قصر الهلالى, اسيوط, اسيوط",
	"lat":"27.183679999999999",
	"lng":"31.193988999999998",
	"enName":"101 El Helaly St., Kasr El Helaly Tower, Assyout, Assyout"
},
		{	"profileId":"129316",
	"profileURL":"//www.yellowpages.com.eg/en/profile/arab-african-international-bank-_-aaib/129316?b=12&k=19555&l=search",
	"arName":"13 ش تاج الدين السبكى متفرع من ش النزهة, ارض الجولف, مصر الجديدة, القاهرة",
	"lat":"30.079974",
	"lng":"31.341805000000001",
	"enName":"13 Tag El Din El Sobky St. Off El Nozha St., Ard El Golf, Heliopolis, Cairo"
},
		{	"profileId":"129317",
	"profileURL":"//www.yellowpages.com.eg/en/profile/arab-african-international-bank-_-aaib/129317?b=19&k=19555&l=search",
	"arName":"140 ش الميرغنى, الماظة, مصر الجديدة, القاهرة",
	"lat":"30.089741",
	"lng":"31.339144000000001",
	"enName":"140 El Merghany St., Almaza, Heliopolis, Cairo"
},
		{	"profileId":"129318",
	"profileURL":"//www.yellowpages.com.eg/en/profile/arab-african-international-bank-_-aaib/129318?b=82&k=19555&l=search",
	"arName":"95 ش الجيش, طنطا, الغربية",
	"lat":"30.803363999999998",
	"lng":"30.996151000000001",
	"enName":"95 El Guish St., Tanta, El gharbeya"
},
		{	"profileId":"366511",
	"profileURL":"//www.yellowpages.com.eg/en/profile/arab-african-international-bank-_-aaib/366511?b=63&k=19555&l=search",
	"arName":"كم 105 - طريق اسكندرية مطروح الصحراوى - مارينا 3, مارينا, الساحل الشمالى",
	"lat":"30.825776000000001",
	"lng":"29.001836999999998",
	"enName":"Km 105, Alex Matrouh Desert Rd., Marina 3, Marina, North coast"
},
		{	"profileId":"129314",
	"profileURL":"//www.yellowpages.com.eg/en/profile/arab-african-international-bank-_-aaib/129314?b=3&k=19555&l=search",
	"arName":"القطعة 354 - ميدان النافورة - المنطقة د, المقطم, القاهرة",
	"lat":"30.015318000000001",
	"lng":"31.281447",
	"enName":"Plot 354, El Nafoura Sq., Zone D, Mokattam, Cairo"
},
		{	"profileId":"229280",
	"profileURL":"//www.yellowpages.com.eg/en/profile/arab-african-international-bank-_-aaib/229280?b=40&k=19555&l=search",
	"arName":"كم 8 - طريق نبق السياحى, خليج نبق, شرم الشيخ",
	"lat":"28.020354999999999",
	"lng":"34.435792999999997",
	"enName":"Km 8, Nabq Touristic Rd., Nabq bay, Sharm el sheikh"
},
		{	"profileId":"558691",
	"profileURL":"//www.yellowpages.com.eg/en/profile/arab-african-international-bank-_-aaib/558691?b=47&k=19555&l=search",
	"arName":"ش فيصل, المطبعة, فيصل, الجيزة",
	"lat":"",
	"lng":"",
	"enName":"Faisal St., El Matbaa, Faisal, Giza"
},
		{	"profileId":"229199",
	"profileURL":"//www.yellowpages.com.eg/en/profile/arab-african-international-bank-_-aaib/229199?b=60&k=19555&l=search",
	"arName":"ش شرم ليزيه, هضبة ام السيد, شرم الشيخ",
	"lat":"27.863344000000001",
	"lng":"34.311943999999997",
	"enName":"Sharm Elysees St., Umm el sid hill, Sharm el sheikh"
},
		{	"profileId":"229196",
	"profileURL":"//www.yellowpages.com.eg/en/profile/arab-african-international-bank-_-aaib/229196?b=39&k=19555&l=search",
	"arName":"ش محمد سعيد - مجمع لوتس الجوهرة, الكوثر, الغردقة",
	"lat":"27.191652999999999",
	"lng":"33.830927000000003",
	"enName":"Mohamed Said St., Lotus El Gawhara Compound, El kawther, Hurghada"
},
		{	"profileId":"495223",
	"profileURL":"//www.yellowpages.com.eg/en/profile/arab-african-international-bank-_-aaib/495223?b=42&k=19555&l=search",
	"arName":"27 ش عرفات - طرح البحر - برج الحفنى, حى الشرق, بور سعيد",
	"lat":"31.269224999999999",
	"lng":"32.306823999999999",
	"enName":"27 Arafat St., Tarh El Bahr, El Hefny Tower, El shark district, Port said"
},
		{	"profileId":"163800",
	"profileURL":"//www.yellowpages.com.eg/en/profile/arab-african-international-bank-_-aaib/163800?b=36&k=19555&l=search",
	"arName":"431 طريق الحرية, رشدى, الاسكندرية",
	"lat":"31.226776000000001",
	"lng":"29.950347000000001",
	"enName":"431 El Horreya Rd., Roushdy, Alexandria"
},
		{	"profileId":"542411",
	"profileURL":"//www.yellowpages.com.eg/en/profile/arab-african-international-bank-_-aaib/542411?b=46&k=19555&l=search",
	"arName":"طريق الواحات, السادس من اكتوبر, الجيزة",
	"lat":"29.971907000000002",
	"lng":"31.01773",
	"enName":"El Wahat Rd., 6th of october, Giza"
},
		{	"profileId":"505707",
	"profileURL":"//www.yellowpages.com.eg/en/profile/arab-african-international-bank-_-aaib/505707?b=78&k=19555&l=search",
	"arName":"13 ش جمال عبد الناصر - برج العشرى, قنطرة غرب, الاسماعيلية",
	"lat":"30.850981000000001",
	"lng":"32.307079000000002",
	"enName":"13 Gamal Abdel Nasser St., El Ashry Tower, EL QANTARAH GHARB, Qantarah gharb, Ismaileya"
},
		{	"profileId":"169592",
	"profileURL":"//www.yellowpages.com.eg/en/profile/arab-african-international-bank-_-aaib/169592?b=81&k=19555&l=search",
	"arName":"طريق الجيش, سان استيفانو, الاسكندرية",
	"lat":"31.245228000000001",
	"lng":"29.967646999999999",
	"enName":"El Guish Rd., San stefano, Alexandria"
},
		{	"profileId":"495218",
	"profileURL":"//www.yellowpages.com.eg/en/profile/arab-african-international-bank-_-aaib/495218?b=76&k=19555&l=search",
	"arName":"طريق رأس البر, دمياط الجديدة, دمياط",
	"lat":"31.454768999999999",
	"lng":"31.759972999999999",
	"enName":"Ras El Bar Rd., New damietta, Damietta"
},
		{	"profileId":"169229",
	"profileURL":"//www.yellowpages.com.eg/en/profile/arab-african-international-bank-_-aaib/169229?b=20&k=19555&l=search",
	"arName":"1089 كورنيش النيل, جاردن سيتى, القاهرة",
	"lat":"30.036297000000001",
	"lng":"31.229399000000001",
	"enName":"1089 Corniche El Nil, Garden city, Cairo"
},
		{	"profileId":"495210",
	"profileURL":"//www.yellowpages.com.eg/en/profile/arab-african-international-bank-_-aaib/495210?b=10&k=19555&l=search",
	"arName":"17 ابراج اغاخان - ش دوليتان, شبرا, القاهرة",
	"lat":"30.099872999999999",
	"lng":"31.242740000000001",
	"enName":"17 Aghakhan Towers, Dawletian St., Shoubra, Cairo"
},
		{	"profileId":"495215",
	"profileURL":"//www.yellowpages.com.eg/en/profile/arab-african-international-bank-_-aaib/495215?b=11&k=19555&l=search",
	"arName":"6 ش بغداد, الكوربة, مصر الجديدة, القاهرة",
	"lat":"30.089632000000002",
	"lng":"31.322241000000002",
	"enName":"6 Baghdad St., El Korba, Heliopolis, Cairo"
},
		{	"profileId":"163797",
	"profileURL":"//www.yellowpages.com.eg/en/profile/arab-african-international-bank-_-aaib/163797?b=35&k=19555&l=search",
	"arName":"طريق دمياط رأس البر تقسيم زاهر - السنانية, دمياط, دمياط",
	"lat":"31.426676100000002",
	"lng":"31.800879800000001",
	"enName":"Damietta Ras El Bar Rd. Zaher Division, El Sananeya, Damietta, Damietta"
},
		{	"profileId":"470269",
	"profileURL":"//www.yellowpages.com.eg/en/profile/arab-african-international-bank-_-aaib/470269?b=84&k=19555&l=search",
	"arName":"302 ش الجيش - برج الماسة, حى السويس, السويس",
	"lat":"29.964715000000002",
	"lng":"32.555708000000003",
	"enName":"302 El Guish St., El Masa Tower, Suez district, Suez"
},
		{	"profileId":"119205",
	"profileURL":"//www.yellowpages.com.eg/en/profile/arab-african-international-bank-_-aaib/119205?b=70&k=19555&l=search",
	"arName":"ش البولينج, خليج نعمة, شرم الشيخ",
	"lat":"27.909867999999999",
	"lng":"34.322068000000002",
	"enName":"El Bowling St., Naama bay, Sharm el sheikh"
},
		{	"profileId":"487817",
	"profileURL":"//www.yellowpages.com.eg/en/profile/arab-african-international-bank-_-aaib/487817?b=18&k=19555&l=search",
	"arName":"2005 ب ابراج نايل سيتى - كورنيش النيل, رملة بولاق, القاهرة",
	"lat":"30.071975999999999",
	"lng":"31.227623000000001",
	"enName":"2005 B Nile City Towers, Corniche El Nil, Ramlet boulak, Cairo"
},
		{	"profileId":"128025",
	"profileURL":"//www.yellowpages.com.eg/en/profile/arab-african-international-bank-_-aaib/128025?b=2&k=19555&l=search",
	"arName":"54 د ش الجمهورية, وسط البلد, القاهرة",
	"lat":"30.055168999999999",
	"lng":"31.246600000000001",
	"enName":"54 D El Gomhoureya St., Downtown, Cairo"
},
		{	"profileId":"163789",
	"profileURL":"//www.yellowpages.com.eg/en/profile/arab-african-international-bank-_-aaib/163789?b=28&k=19555&l=search",
	"arName":"مجمع البنوك - مبنى 4, مدينة الرحاب, القاهرة",
	"lat":"30.059152999999998",
	"lng":"31.492394999999998",
	"enName":"Banks Complex, Bldg. 4, Al rehab city, Cairo"
},
		{	"profileId":"389550",
	"profileURL":"//www.yellowpages.com.eg/en/profile/arab-african-international-bank-_-aaib/389550?b=24&k=19555&l=search",
	"arName":"116 ش الستين - المركز التجارى, التجمع الخامس, القاهرة الجديدة, القاهرة",
	"lat":"30.005828999999999",
	"lng":"31.425080000000001",
	"enName":"116 El Seteen St., Commercial Center, 5th Compound, New cairo, Cairo"
},
		{	"profileId":"467667",
	"profileURL":"//www.yellowpages.com.eg/en/profile/arab-african-international-bank-_-aaib/467667?b=65&k=19555&l=search",
	"arName":"60 ش كورنيش النيل - برج كليوباترا, بنها, القليوبية",
	"lat":"30.473486000000001",
	"lng":"31.176839000000001",
	"enName":"60 Corniche El Nil St., Cleopatra Tower, Banha, Kaliobeya"
},
		{	"profileId":"229525",
	"profileURL":"//www.yellowpages.com.eg/en/profile/arab-african-international-bank-_-aaib/229525?b=54&k=19555&l=search",
	"arName":"10 ش شكرى القواتلى, المحلة الكبرى, الغربية",
	"lat":"30.976769000000001",
	"lng":"31.170757699999999",
	"enName":"10 Shokry El Qawatly St., El mahalla el kobra, El gharbeya"
},
		{	"profileId":"546289",
	"profileURL":"//www.yellowpages.com.eg/en/profile/arab-african-international-bank-_-aaib/546289?b=57&k=19555&l=search",
	"arName":"ش كورنيش النيل, وسط البلد, اسوان",
	"lat":"24.096537999999999",
	"lng":"32.897956000000001",
	"enName":"Corniche El Nil St., Downtown, Aswan"
},
		{	"profileId":"111016",
	"profileURL":"//www.yellowpages.com.eg/en/profile/arab-african-international-bank-_-aaib/111016?b=69&k=19555&l=search",
	"arName":"73 ش المهندس احمد محمد اسماعيل - ش منشا سابقا, وابور المياه, الاسكندرية",
	"lat":"31.196301999999999",
	"lng":"29.916477",
	"enName":"73 El Mohandes Ahmed Mohamed Ismail St. - Mansha St. Previously, Wabour el mayah, Alexandria"
},
		{	"profileId":"494336",
	"profileURL":"//www.yellowpages.com.eg/en/profile/arab-african-international-bank-_-aaib/494336?b=66&k=19555&l=search",
	"arName":"كم 48 - طريق السويس الغردقة - الزعفرانة, العين السخنة, العين السخنة",
	"lat":"29.445827000000001",
	"lng":"32.479039",
	"enName":"Km 48, Suez Hurghada Rd., El Zaafarana, El ain el sokhna, El ain el sokhna"
},
		{	"profileId":"111022",
	"profileURL":"//www.yellowpages.com.eg/en/profile/arab-african-international-bank-_-aaib/111022?b=58&k=19555&l=search",
	"arName":"منطقة البنوك, برج العرب الجديدة, الاسكندرية",
	"lat":"30.882441",
	"lng":"29.576969999999999",
	"enName":"Banks Zone, New borg el arab, Alexandria"
},
		{	"profileId":"111020",
	"profileURL":"//www.yellowpages.com.eg/en/profile/arab-african-international-bank-_-aaib/111020?b=34&k=19555&l=search",
	"arName":"كم 19 - طريق اسكندرية القاهرة الصحراوى - مبنى مجمع البترول, العامرية, الاسكندرية",
	"lat":"31.103477000000002",
	"lng":"29.864664999999999",
	"enName":"Km 19, Alex Cairo Desert Rd., Petroleum Complex Bldg., Amreya, Alexandria"
},
		{	"profileId":"363756",
	"profileURL":"//www.yellowpages.com.eg/en/profile/arab-african-international-bank-_-aaib/363756?b=23&k=19555&l=search",
	"arName":"3 ش حسن صبرى, الزمالك, القاهرة",
	"lat":"30.056387000000001",
	"lng":"31.220113000000001",
	"enName":"3 Hassan Sabry St., Zamalek, Cairo"
},
		{	"profileId":"494326",
	"profileURL":"//www.yellowpages.com.eg/en/profile/arab-african-international-bank-_-aaib/494326?b=45&k=19555&l=search",
	"arName":"القطعة السابعة - بلوك 12001 - - المنطقة الصناعية الاولى - الامتداد الشمالى, مدينة العبور, القليوبية",
	"lat":"30.203319",
	"lng":"31.452719999999999",
	"enName":"7th Plot, Block 12001, , 1St Industrial Zone, Northern Extension, Obour city, Kaliobeya"
},
		{	"profileId":"428137",
	"profileURL":"//www.yellowpages.com.eg/en/profile/arab-african-international-bank-_-aaib/428137?b=25&k=19555&l=search",
	"arName":"مجمع البنوك - مجموعة 25, مدينتى, القاهرة",
	"lat":"30.107348999999999",
	"lng":"31.646737000000002",
	"enName":"Banks Complex, Group 25, Madinty, Cairo"
},
		{	"profileId":"76781",
	"profileURL":"//www.yellowpages.com.eg/en/profile/arab-african-international-bank-_-aaib/76781?b=29&k=19555&l=search",
	"arName":"44 ش عبد الخالق ثروت, وسط البلد, القاهرة",
	"lat":"30.050408999999998",
	"lng":"31.244814000000002",
	"enName":"44 Abdel Khaleq Tharwat St., Downtown, Cairo"
},
		{	"profileId":"76782",
	"profileURL":"//www.yellowpages.com.eg/en/profile/arab-african-international-bank-_-aaib/76782?b=5&k=19555&l=search",
	"arName":"1 ش 9 ميدان المحطة - عمارة معادى بالاس, المعادى, القاهرة",
	"lat":"29.959987999999999",
	"lng":"31.259482999999999",
	"enName":"1 Rd. 9 El Mahatta Sq., Maadi Palace Bldg., Maadi, Cairo"
},
		{	"profileId":"76783",
	"profileURL":"//www.yellowpages.com.eg/en/profile/arab-african-international-bank-_-aaib/76783?b=50&k=19555&l=search",
	"arName":"48 ش جزيرة العرب متفرع من ش وادى النيل, المهندسين, الجيزة",
	"lat":"30.055872000000001",
	"lng":"31.201201999999999",
	"enName":"48 Geziret El Arab St. Off Wadi El Nil St., Mohandeseen, Giza"
},
		{	"profileId":"76784",
	"profileURL":"//www.yellowpages.com.eg/en/profile/arab-african-international-bank-_-aaib/76784?b=13&k=19555&l=search",
	"arName":"24 ش كليوباترا, الكوربة, مصر الجديدة, القاهرة",
	"lat":"30.091546999999998",
	"lng":"31.328620000000001",
	"enName":"24 Cleopatra St., El Korba, Heliopolis, Cairo"
},
		{	"profileId":"76785",
	"profileURL":"//www.yellowpages.com.eg/en/profile/arab-african-international-bank-_-aaib/76785?b=67&k=19555&l=search",
	"arName":"33 ش البحوث - ش التحرير سابقا, الدقى, الجيزة",
	"lat":"30.036656000000001",
	"lng":"31.205161",
	"enName":"33 El Bohouth St. - El Tahrir St. Previously, Dokki, Giza"
},
		{	"profileId":"366477",
	"profileURL":"//www.yellowpages.com.eg/en/profile/arab-african-international-bank-_-aaib/366477?b=62&k=19555&l=search",
	"arName":"طريق مصر اسماعيلية الصحراوى - جولف سيتى, مدينة العبور, القليوبية",
	"lat":"30.174412",
	"lng":"31.474615",
	"enName":"Misr Ismaileya Desert Rd., Golf City, Obour city, Kaliobeya"
},
		{	"profileId":"76789",
	"profileURL":"//www.yellowpages.com.eg/en/profile/arab-african-international-bank-_-aaib/76789?b=14&k=19555&l=search",
	"arName":"خدمة العملاء, جاردن سيتى, القاهرة",
	"lat":"",
	"lng":"",
	"enName":"Customer Service, Garden city, Cairo"
},
		{	"profileId":"470462",
	"profileURL":"//www.yellowpages.com.eg/en/profile/arab-african-international-bank-_-aaib/470462?b=77&k=19555&l=search",
	"arName":"359 ش السودان, المهندسين, الجيزة",
	"lat":"30.070402999999999",
	"lng":"31.198409000000002",
	"enName":"359 Sudan St., Mohandeseen, Giza"
},
		{	"profileId":"366478",
	"profileURL":"//www.yellowpages.com.eg/en/profile/arab-african-international-bank-_-aaib/366478?b=52&k=19555&l=search",
	"arName":"مبنى H2H1, وسط البلد, الجونة",
	"lat":"27.395955000000001",
	"lng":"33.677264000000001",
	"enName":"Bldg. H2H1, Downtown, El gouna"
},
		{	"profileId":"568449",
	"profileURL":"//www.yellowpages.com.eg/en/profile/arab-african-international-bank-_-aaib/568449?b=33&k=19555&l=search",
	"arName":"., المستثمرين الشمالية, القاهرة الجديدة, القاهرة",
	"lat":"",
	"lng":"",
	"enName":"., North Investors, New cairo, Cairo"
},
		{	"profileId":"444052",
	"profileURL":"//www.yellowpages.com.eg/en/profile/arab-african-international-bank-_-aaib/444052?b=16&k=19555&l=search",
	"arName":"1 /4 ش اللاسلكى, المعادى الجديدة, المعادى, القاهرة",
	"lat":"29.970341000000001",
	"lng":"31.279043000000001",
	"enName":"1 /4 El Laselky St., New Maadi, Maadi, Cairo"
},
		{	"profileId":"402098",
	"profileURL":"//www.yellowpages.com.eg/en/profile/arab-african-international-bank-_-aaib/402098?b=61&k=19555&l=search",
	"arName":"القطعة 31 -, الشيخ زايد, السادس من اكتوبر, الجيزة",
	"lat":"30.0207306",
	"lng":"31.0032785",
	"enName":"Plot 31,, El Sheikh Zayed, 6th of october, Giza"
},
		{	"profileId":"229565",
	"profileURL":"//www.yellowpages.com.eg/en/profile/arab-african-international-bank-_-aaib/229565?b=30&k=19555&l=search",
	"arName":"13 ش خالد بن الوليد, مساكن شيراتون, مصر الجديدة, القاهرة",
	"lat":"30.103083000000002",
	"lng":"31.377593999999998",
	"enName":"13 Khaled Ibn El Walid St., Sheraton Bldgs., Heliopolis, Cairo"
},
		{	"profileId":"169728",
	"profileURL":"//www.yellowpages.com.eg/en/profile/arab-african-international-bank-_-aaib/169728?b=59&k=19555&l=search",
	"arName":"حى الزهور, الطور, جنوب سيناء",
	"lat":"28.237338999999999",
	"lng":"33.621146000000003",
	"enName":"El Zohour District, EL TUR, El tur, South sinai"
},
		{	"profileId":"436791",
	"profileURL":"//www.yellowpages.com.eg/en/profile/arab-african-international-bank-_-aaib/436791?b=6&k=19555&l=search",
	"arName":"طريق مصر اسماعيلية الصحراوى - منطقة الدرة, مدينة الشروق, القاهرة",
	"lat":"30.114530999999999",
	"lng":"31.606544",
	"enName":"Misr Ismaileya Desert Rd., El Dorra Zone, El sherouk city, Cairo"
},
		{	"profileId":"567808",
	"profileURL":"//www.yellowpages.com.eg/en/profile/arab-african-international-bank-_-aaib/567808?b=79&k=19555&l=search",
	"arName":"15 ش نوال, العجوزة, الجيزة",
	"lat":"30.045978999999999",
	"lng":"31.215398",
	"enName":"15 Nawal St., Agouza, Giza"
},
		{	"profileId":"469347",
	"profileURL":"//www.yellowpages.com.eg/en/profile/arab-african-international-bank-_-aaib/469347?b=56&k=19555&l=search",
	"arName":"ش عبد السلام الشاذلى - برج المدينة المنورة, دمنهور, البحيرة",
	"lat":"31.044041",
	"lng":"30.462674",
	"enName":"Abdel Salam El Shazly St., El Madina El Monawara Tower, Damanhour, El beheira"
},
		{	"profileId":"553953",
	"profileURL":"//www.yellowpages.com.eg/en/profile/arab-african-international-bank-_-aaib/553953?b=27&k=19555&l=search",
	"arName":"القطعة 10056 - الشطر العاشر - مدينة المعراج, زهراء المعادى, المعادى, القاهرة",
	"lat":"29.974028000000001",
	"lng":"31.315314000000001",
	"enName":"Plot 10056, 10th Sector, Mearag City, Zahraa El Maadi, Maadi, Cairo"
},
		{	"profileId":"123032",
	"profileURL":"//www.yellowpages.com.eg/en/profile/arab-african-international-bank-_-aaib/123032?b=37&k=19555&l=search",
	"arName":"73 طريق الحرية, محطة الرمل, الاسكندرية",
	"lat":"31.198737999999999",
	"lng":"29.908518999999998",
	"enName":"73 El Horreya Rd., Raml station, Alexandria"
},
		{	"profileId":"553393",
	"profileURL":"//www.yellowpages.com.eg/en/profile/arab-african-international-bank-_-aaib/553393?b=8&k=19555&l=search",
	"arName":"ش العبور متفرع من ش التسعين, التجمع الخامس, القاهرة الجديدة, القاهرة",
	"lat":"30.020237000000002",
	"lng":"31.494927000000001",
	"enName":"El Obour St. Off El Tesaeen St., 5th Compound, New cairo, Cairo"
},
		{	"profileId":"469349",
	"profileURL":"//www.yellowpages.com.eg/en/profile/arab-african-international-bank-_-aaib/469349?b=31&k=19555&l=search",
	"arName":"7 /2 ش النصر, المعادى الجديدة, المعادى, القاهرة",
	"lat":"29.976148999999999",
	"lng":"31.284834",
	"enName":"7 /2 El Nasr St., New Maadi, Maadi, Cairo"
},
		{	"profileId":"76790",
	"profileURL":"//www.yellowpages.com.eg/en/profile/arab-african-international-bank-_-aaib/76790?b=51&k=19555&l=search",
	"arName":"القطعة 2/3 - - مجمع البنوك - المنطقة الصناعية الرابعة, المنطقة الصناعية, السادس من اكتوبر, الجيزة",
	"lat":"29.944005000000001",
	"lng":"30.895520999999999",
	"enName":"Plot 2/3, , Banks Complex, 4th Industrial Zone, Industrial Zone, 6th of october, Giza"
},
		{	"profileId":"229467",
	"profileURL":"//www.yellowpages.com.eg/en/profile/arab-african-international-bank-_-aaib/229467?b=53&k=19555&l=search",
	"arName":"74 ش البرت الاول - برج البارون, سموحة, الاسكندرية",
	"lat":"31.208251000000001",
	"lng":"29.941071999999998",
	"enName":"74 Albert El Awal St., El Baroun Tower, Semouha, Alexandria"
},
		{	"profileId":"76792",
	"profileURL":"//www.yellowpages.com.eg/en/profile/arab-african-international-bank-_-aaib/76792?b=68&k=19555&l=search",
	"arName":"طريق السلام, جاردن باى, شرم الشيخ",
	"lat":"27.916407",
	"lng":"34.348771999999997",
	"enName":"El Salam Rd., Garden bay, Sharm el sheikh"
},
		{	"profileId":"459793",
	"profileURL":"//www.yellowpages.com.eg/en/profile/arab-african-international-bank-_-aaib/459793?b=43&k=19555&l=search",
	"arName":"كم 28 - طريق القاهرة اسكندرية الصحراوى, ابو رواش, الجيزة",
	"lat":"30.067858999999999",
	"lng":"31.020213999999999",
	"enName":"Km 28, Cairo Alex Desert Rd., Abou rawash, Giza"
},
		{	"profileId":"19737",
	"profileURL":"//www.yellowpages.com.eg/en/profile/arab-african-international-bank-_-aaib/19737?b=1&k=19555&l=search",
	"arName":"5 ميدان السرايا الكبرى, جاردن سيتى, القاهرة",
	"lat":"30.035513000000002",
	"lng":"31.232413999999999",
	"enName":"5 El Saraya El Kobra Sq., Garden city, Cairo"
},
		{	"profileId":"466608",
	"profileURL":"//www.yellowpages.com.eg/en/profile/arab-african-international-bank-_-aaib/466608?b=55&k=19555&l=search",
	"arName":"1 ش صلاح سالم - برج فينيسيا 2, وسط البلد, كفر الشيخ",
	"lat":"31.113627999999999",
	"lng":"30.938278",
	"enName":"1 Salah Salem St., Venicia Tower 2, Downtown, Kafr el sheikh"
},
		{	"profileId":"137423",
	"profileURL":"//www.yellowpages.com.eg/en/profile/arab-african-international-bank-_-aaib/137423?b=71&k=19555&l=search",
	"arName":"85 ش الهرم, المريوطية, الهرم, الجيزة",
	"lat":"29.989325000000001",
	"lng":"31.148669999999999",
	"enName":"85 Haram St., El Mariouteya, El haram, Giza"
},
		{	"profileId":"466606",
	"profileURL":"//www.yellowpages.com.eg/en/profile/arab-african-international-bank-_-aaib/466606?b=74&k=19555&l=search",
	"arName":"3 ش ابن ارحب متفرع من ش النيل, الجيزة, الجيزة",
	"lat":"30.026896000000001",
	"lng":"31.217390999999999",
	"enName":"3 Ibn Arhab St. Off El Nil St., Giza, Giza"
},
		{	"profileId":"169383",
	"profileURL":"//www.yellowpages.com.eg/en/profile/arab-african-international-bank-_-aaib/169383?b=80&k=19555&l=search",
	"arName":"35 ش الجيزة - ش مراد سابقا, الجيزة, الجيزة",
	"lat":"30.024249000000001",
	"lng":"31.217213000000001",
	"enName":"35 Giza St. - Mourad St. Previously, Giza, Giza"
},
		{	"profileId":"454294",
	"profileURL":"//www.yellowpages.com.eg/en/profile/arab-african-international-bank-_-aaib/454294?b=85&k=19555&l=search",
	"arName":"10 ش سميح مبارك - برج الصفا بلازا, شبين الكوم, المنوفية",
	"lat":"30.563277200000002",
	"lng":"31.009308000000001",
	"enName":"10 Samih Mubarak St., El Safa Plaza Tower, SHIBIN EL KAWM, Shebein el kawm, El monofeya"
},
		{	"profileId":"93227",
	"profileURL":"//www.yellowpages.com.eg/en/profile/arab-african-international-bank-_-aaib/93227?b=72&k=19555&l=search",
	"arName":"الاردنية, العاشر من رمضان, الشرقية",
	"lat":"30.302066",
	"lng":"31.746229",
	"enName":"El Ordoneya, 10th of ramadan, El sharkeya"
},
		{	"profileId":"454290",
	"profileURL":"//www.yellowpages.com.eg/en/profile/arab-african-international-bank-_-aaib/454290?b=75&k=19555&l=search",
	"arName":"17 ش الحرية, وسط البلد, الفيوم",
	"lat":"29.307867000000002",
	"lng":"30.840703999999999",
	"enName":"17 El Horreya St., Downtown, El fayoum"
},
		{	"profileId":"465651",
	"profileURL":"//www.yellowpages.com.eg/en/profile/arab-african-international-bank-_-aaib/465651?b=41&k=19555&l=search",
	"arName":"232 ش الهرم - برج رويال رمسيس, حسن محمد, الهرم, الجيزة",
	"lat":"29.998531",
	"lng":"31.171716",
	"enName":"232 Haram St., Royal Ramsis Tower, Hassan Mohamed, El haram, Giza"
},
		{	"profileId":"494747",
	"profileURL":"//www.yellowpages.com.eg/en/profile/arab-african-international-bank-_-aaib/494747?b=17&k=19555&l=search",
	"arName":"10 أ ميدان ابن سندر, الزيتون, القاهرة",
	"lat":"30.089207999999999",
	"lng":"31.301846000000001",
	"enName":"10 A Ibn Sendar Sq., El zaytoun, Cairo"
},
		{	"profileId":"307003",
	"profileURL":"//www.yellowpages.com.eg/en/profile/arab-african-international-bank-_-aaib/307003?b=64&k=19555&l=search",
	"arName":"195 ش الجمهورية - برج قصر النيل, المنصورة, الدقهلية",
	"lat":"31.047272",
	"lng":"31.384183",
	"enName":"195 El Gomhoureya St., Kasr El Nil Tower, El mansoura, El dakahleya"
},
		{	"profileId":"494745",
	"profileURL":"//www.yellowpages.com.eg/en/profile/arab-african-international-bank-_-aaib/494745?b=32&k=19555&l=search",
	"arName":"160 ش جوهر القائد, الازهر, القاهرة",
	"lat":"30.048728000000001",
	"lng":"31.256862000000002",
	"enName":"160 Gawhar El Qaed St., Azhar, Cairo"
},
		{	"profileId":"454289",
	"profileURL":"//www.yellowpages.com.eg/en/profile/arab-african-international-bank-_-aaib/454289?b=15&k=19555&l=search",
	"arName":"ش عمر بن الخطاب, مصر الجديدة, القاهرة",
	"lat":"30.073430999999999",
	"lng":"31.347339000000002",
	"enName":"Omar Ibn El Khattab St., Heliopolis, Cairo"
},
		{	"profileId":"140739",
	"profileURL":"//www.yellowpages.com.eg/en/profile/arab-african-international-bank-_-aaib/140739?b=49&k=19555&l=search",
	"arName":"106 طريق الحرية, الورديان, الاسكندرية",
	"lat":"31.179888999999999",
	"lng":"29.876541",
	"enName":"106 El Horreya Rd., Wardeyan, Alexandria"
},
		{	"profileId":"134734",
	"profileURL":"//www.yellowpages.com.eg/en/profile/arab-african-international-bank-_-aaib/134734?b=21&k=19555&l=search",
	"arName":"8 ش ابراهيم نجيب متفرع من ش قصر العينى, جاردن سيتى, القاهرة",
	"lat":"30.0382",
	"lng":"31.233000000000001",
	"enName":"8 Ibrahim Naguib St. Off Kasr El Ainy St., Garden city, Cairo"
},
		{	"profileId":"559500",
	"profileURL":"//www.yellowpages.com.eg/en/profile/arab-african-international-bank-_-aaib/559500?b=9&k=19555&l=search",
	"arName":"16 18/ ش الكريم تقاطع ش سليم الاول, الزيتون, القاهرة",
	"lat":"30.099869000000002",
	"lng":"31.308631999999999",
	"enName":"16 /18 El Karim St. Intersection Of Selim El Awal St., El zaytoun, Cairo"
},
		{	"profileId":"532265",
	"profileURL":"//www.yellowpages.com.eg/en/profile/arab-african-international-bank-_-aaib/532265?b=44&k=19555&l=search",
	"arName":"6 ش كورنيش النيل, الكورنيش, المنيا",
	"lat":"28.114118000000001",
	"lng":"30.750287",
	"enName":"6 Corniche El Nil St., El corniche, El menia"
},
		{	"profileId":"134736",
	"profileURL":"//www.yellowpages.com.eg/en/profile/arab-african-international-bank-_-aaib/134736?b=4&k=19555&l=search",
	"arName":"33 ش ابو داوود الظاهرى متفرع من ش مكرم عبيد, المنطقة السادسة, مدينة نصر, القاهرة",
	"lat":"30.060570999999999",
	"lng":"31.350168",
	"enName":"33 Abou Dawoud El Zahery St. Off Makram ebaid st., 6th Zone, Nasr city, Cairo"
},
		{	"profileId":"360630",
	"profileURL":"//www.yellowpages.com.eg/en/profile/arab-african-international-bank-_-aaib/360630?b=7&k=19555&l=search",
	"arName":"33 ش الحجاز - الدور 1, المريلاند, مصر الجديدة, القاهرة",
	"lat":"30.099239000000001",
	"lng":"31.323501",
	"enName":"33 El Hegaz St., Floor 1, El Merryland, Heliopolis, Cairo"
},
		{	"profileId":"169710",
	"profileURL":"//www.yellowpages.com.eg/en/profile/arab-african-international-bank-_-aaib/169710?b=48&k=19555&l=search",
	"arName":"ش خالد بن الوليد - العوامية, الاقصر, الاقصر",
	"lat":"25.684998",
	"lng":"32.630288",
	"enName":"Khaled Ibn El Walid St., El Awameya, LUXOR, Luxor, Luxor"
},
		{	"profileId":"494055",
	"profileURL":"//www.yellowpages.com.eg/en/profile/arab-african-international-bank-_-aaib/494055?b=86&k=19555&l=search",
	"arName":"72 ش سعد زغلول, الزقازيق, الشرقية",
	"lat":"30.584113200000001",
	"lng":"31.489515000000001",
	"enName":"72 Saad Zaghloul St., El zagazig, El sharkeya"
},
		{	"profileId":"229275",
	"profileURL":"//www.yellowpages.com.eg/en/profile/arab-african-international-bank-_-aaib/229275?b=22&k=19555&l=search",
	"arName":"29 ش قصر النيل, وسط البلد, القاهرة",
	"lat":"30.048451",
	"lng":"31.241384",
	"enName":"29 Kasr El Nil St., Downtown, Cairo"
},
		{	"profileId":"456119",
	"profileURL":"//www.yellowpages.com.eg/en/profile/arab-african-international-bank-_-aaib/456119?b=26&k=19555&l=search",
	"arName":"الطريق الدائرى, كايرو فيستيفال, القاهرة الجديدة, القاهرة",
	"lat":"30.028863000000001",
	"lng":"31.407785000000001",
	"enName":"Ring Rd., Cairo Festival City, New cairo, Cairo"
}
	]
}, {	"arName":"البنك العربى الافريقى الدولى - ايه ايه اى بى - ماكينة الصراف الالى",
	"enName":"Arab African International Bank - AAIB - ATM",
	"hotline":"19555",
	"facebook":"http://www.facebook.com/aaibofficial",
	"web":"http://www.aaibank.com/",
	"arCategory":[
		"ماكينات الصراف الالى"
	],
	"enCategories":[
		"ATMs"
	],
	"contacts":[
		{	"profileId":"169582",
	"profileURL":"//www.yellowpages.com.eg/en/profile/arab-african-international-bank-_-aaib-_-atm/169582?b=194&k=19555&l=search",
	"arName":"36 ش فيكتور عمانويل, سموحة, الاسكندرية",
	"lat":"31.212361000000001",
	"lng":"29.946999000000002",
	"enName":"36 Victor Emanuel St., Semouha, Alexandria"
},
		{	"profileId":"489369",
	"profileURL":"//www.yellowpages.com.eg/en/profile/arab-african-international-bank-_-aaib-_-atm/489369?b=210&k=19555&l=search",
	"arName":"., شاركس باى, شرم الشيخ",
	"lat":"27.945637000000001",
	"lng":"34.382134999999998",
	"enName":"., Shark's bay, Sharm el sheikh"
},
		{	"profileId":"541912",
	"profileURL":"//www.yellowpages.com.eg/en/profile/arab-african-international-bank-_-aaib-_-atm/541912?b=116&k=19555&l=search",
	"arName":"288 ش شبرا, شبرا, القاهرة",
	"lat":"30.093236999999998",
	"lng":"31.245031000000001",
	"enName":"288 Shoubra St., Shoubra, Cairo"
},
		{	"profileId":"516390",
	"profileURL":"//www.yellowpages.com.eg/en/profile/arab-african-international-bank-_-aaib-_-atm/516390?b=117&k=19555&l=search",
	"arName":"ش مؤسسة الزكاة, المرج, القاهرة",
	"lat":"30.142506000000001",
	"lng":"31.336725000000001",
	"enName":"Moassaset El Zakah St., El marg, Cairo"
},
		{	"profileId":"463774",
	"profileURL":"//www.yellowpages.com.eg/en/profile/arab-african-international-bank-_-aaib-_-atm/463774?b=203&k=19555&l=search",
	"arName":"امتداد محور 26 يوليو, الشيخ زايد, السادس من اكتوبر, الجيزة",
	"lat":"30.027032999999999",
	"lng":"31.013698999999999",
	"enName":"Extension Of 26th Of July Spine, El Sheikh Zayed, 6th of october, Giza"
},
		{	"profileId":"169577",
	"profileURL":"//www.yellowpages.com.eg/en/profile/arab-african-international-bank-_-aaib-_-atm/169577?b=229&k=19555&l=search",
	"arName":"القطعة 7/243، 250 - - المنطقة الصناعية الثالثة, المنطقة الصناعية, السادس من اكتوبر, الجيزة",
	"lat":"29.907703000000001",
	"lng":"30.904672999999999",
	"enName":"Plot 243/7, 250, , 3rd Industrial Zone, Industrial Zone, 6th of october, Giza"
},
		{	"profileId":"169579",
	"profileURL":"//www.yellowpages.com.eg/en/profile/arab-african-international-bank-_-aaib-_-atm/169579?b=171&k=19555&l=search",
	"arName":"المحور المركزى, الشيخ زايد, السادس من اكتوبر, الجيزة",
	"lat":"30.013712000000002",
	"lng":"30.997174000000001",
	"enName":"Central Spine, El Sheikh Zayed, 6th of october, Giza"
},
		{	"profileId":"469884",
	"profileURL":"//www.yellowpages.com.eg/en/profile/arab-african-international-bank-_-aaib-_-atm/469884?b=219&k=19555&l=search",
	"arName":"173 ش البحر الاعظم, الجيزة, الجيزة",
	"lat":"29.997838999999999",
	"lng":"31.214538000000001",
	"enName":"173 El Bahr El Aazam St., Giza, Giza"
},
		{	"profileId":"169578",
	"profileURL":"//www.yellowpages.com.eg/en/profile/arab-african-international-bank-_-aaib-_-atm/169578?b=156&k=19555&l=search",
	"arName":"كم 8 - طريق القاهرة السويس الصحراوى - الحى الخامس, مدينة الشروق, القاهرة",
	"lat":"30.118777000000001",
	"lng":"31.608194000000001",
	"enName":"Km 8, Cairo Suez Desert Rd., 5th District, El sherouk city, Cairo"
},
		{	"profileId":"481634",
	"profileURL":"//www.yellowpages.com.eg/en/profile/arab-african-international-bank-_-aaib-_-atm/481634?b=259&k=19555&l=search",
	"arName":"ميدان الحصرى, الحى السابع, السادس من اكتوبر, الجيزة",
	"lat":"29.974383",
	"lng":"30.944109000000001",
	"enName":"El Hosary Sq., 7th District, 6th of october, Giza"
},
		{	"profileId":"425033",
	"profileURL":"//www.yellowpages.com.eg/en/profile/arab-african-international-bank-_-aaib-_-atm/425033?b=215&k=19555&l=search",
	"arName":"35 ش الجيزة - ش مراد سابقا, الجيزة, الجيزة",
	"lat":"30.024249000000001",
	"lng":"31.217213000000001",
	"enName":"35 Giza St. - Mourad St. Previously, Giza, Giza"
},
		{	"profileId":"169575",
	"profileURL":"//www.yellowpages.com.eg/en/profile/arab-african-international-bank-_-aaib-_-atm/169575?b=193&k=19555&l=search",
	"arName":"المحور المركزى, الحى السابع, السادس من اكتوبر, الجيزة",
	"lat":"29.975954000000002",
	"lng":"30.944488",
	"enName":"Central Spine, 7th District, 6th of october, Giza"
},
		{	"profileId":"169574",
	"profileURL":"//www.yellowpages.com.eg/en/profile/arab-african-international-bank-_-aaib-_-atm/169574?b=170&k=19555&l=search",
	"arName":"طريق الواحات - دريم لاند, السادس من اكتوبر, الجيزة",
	"lat":"29.962904000000002",
	"lng":"31.045446999999999",
	"enName":"Oasis Rd., Dream Land, 6th of october, Giza"
},
		{	"profileId":"489363",
	"profileURL":"//www.yellowpages.com.eg/en/profile/arab-african-international-bank-_-aaib-_-atm/489363?b=226&k=19555&l=search",
	"arName":"الغرقانة, خليج نبق, شرم الشيخ",
	"lat":"28.030010999999998",
	"lng":"34.437418000000001",
	"enName":"El Gharqana, Nabq bay, Sharm el sheikh"
},
		{	"profileId":"169565",
	"profileURL":"//www.yellowpages.com.eg/en/profile/arab-african-international-bank-_-aaib-_-atm/169565?b=143&k=19555&l=search",
	"arName":"طريق المطار, منطقة المطار, مصر الجديدة, القاهرة",
	"lat":"30.126086000000001",
	"lng":"31.404325",
	"enName":"Airport Rd., Airport Area, Heliopolis, Cairo"
},
		{	"profileId":"169569",
	"profileURL":"//www.yellowpages.com.eg/en/profile/arab-african-international-bank-_-aaib-_-atm/169569?b=129&k=19555&l=search",
	"arName":"1019 كورنيش النيل, الملك الصالح, القاهرة",
	"lat":"30.018536000000001",
	"lng":"31.229485",
	"enName":"1019 Corniche El Nil, El malek el saleh, Cairo"
},
		{	"profileId":"183985",
	"profileURL":"//www.yellowpages.com.eg/en/profile/arab-african-international-bank-_-aaib-_-atm/183985?b=178&k=19555&l=search",
	"arName":"1 ش ابطال التحرير, الكورنيش, اسوان",
	"lat":"24.108996000000001",
	"lng":"32.901226000000001",
	"enName":"1 Abtal El Tahrir St., El corniche, Aswan"
},
		{	"profileId":"458603",
	"profileURL":"//www.yellowpages.com.eg/en/profile/arab-african-international-bank-_-aaib-_-atm/458603?b=239&k=19555&l=search",
	"arName":"24 ش شهاب, المهندسين, الجيزة",
	"lat":"30.052320999999999",
	"lng":"31.195283",
	"enName":"24 Shehab St., Mohandeseen, Giza"
},
		{	"profileId":"470291",
	"profileURL":"//www.yellowpages.com.eg/en/profile/arab-african-international-bank-_-aaib-_-atm/470291?b=242&k=19555&l=search",
	"arName":"كم 129 - طريق اسكندرية مطروح الصحراوى - قرية مراسى, سيدى عبد الرحمن, الساحل الشمالى",
	"lat":"30.968999",
	"lng":"28.742401999999998",
	"enName":"Km 129, Alex Matrouh Desert Rd., Marassi Village, Sidi abdel rahman, North coast"
},
		{	"profileId":"169360",
	"profileURL":"//www.yellowpages.com.eg/en/profile/arab-african-international-bank-_-aaib-_-atm/169360?b=87&k=19555&l=search",
	"arName":"كورنيش النيل, المعادى, القاهرة",
	"lat":"29.982552999999999",
	"lng":"31.230886999999999",
	"enName":"Corniche El Nil, Maadi, Cairo"
},
		{	"profileId":"559668",
	"profileURL":"//www.yellowpages.com.eg/en/profile/arab-african-international-bank-_-aaib-_-atm/559668?b=191&k=19555&l=search",
	"arName":"ش شرم ليزيه, هضبة ام السيد, شرم الشيخ",
	"lat":"27.863344000000001",
	"lng":"34.311943999999997",
	"enName":"Sharm Elysees St., Umm el sid hill, Sharm el sheikh"
},
		{	"profileId":"313770",
	"profileURL":"//www.yellowpages.com.eg/en/profile/arab-african-international-bank-_-aaib-_-atm/313770?b=147&k=19555&l=search",
	"arName":"73 ش مصطفى النحاس, الحى الثامن, مدينة نصر, القاهرة",
	"lat":"30.054441000000001",
	"lng":"31.348390999999999",
	"enName":"73 Mostafa El Nahhas St., 8th District, Nasr city, Cairo"
},
		{	"profileId":"169366",
	"profileURL":"//www.yellowpages.com.eg/en/profile/arab-african-international-bank-_-aaib-_-atm/169366?b=107&k=19555&l=search",
	"arName":"ش عمر بن الخطاب, مصر الجديدة, القاهرة",
	"lat":"30.073430999999999",
	"lng":"31.347339000000002",
	"enName":"Omar Ibn El Khattab St., Heliopolis, Cairo"
},
		{	"profileId":"169365",
	"profileURL":"//www.yellowpages.com.eg/en/profile/arab-african-international-bank-_-aaib-_-atm/169365?b=88&k=19555&l=search",
	"arName":"30 ش مكرم عبيد, المنطقة السادسة, مدينة نصر, القاهرة",
	"lat":"30.057866000000001",
	"lng":"31.345490999999999",
	"enName":"30 Makram Ebaid St., 6th Zone, Nasr city, Cairo"
},
		{	"profileId":"559662",
	"profileURL":"//www.yellowpages.com.eg/en/profile/arab-african-international-bank-_-aaib-_-atm/559662?b=123&k=19555&l=search",
	"arName":"1089 كورنيش النيل, جاردن سيتى, القاهرة",
	"lat":"30.036297000000001",
	"lng":"31.229399000000001",
	"enName":"1089 Corniche El Nil, Garden city, Cairo"
},
		{	"profileId":"313765",
	"profileURL":"//www.yellowpages.com.eg/en/profile/arab-african-international-bank-_-aaib-_-atm/313765?b=112&k=19555&l=search",
	"arName":"ش عبد الحميد لطفى, مدينة نصر, القاهرة",
	"lat":"30.049845999999999",
	"lng":"31.350434",
	"enName":"Abdel Hamid Lotfy St., Nasr city, Cairo"
},
		{	"profileId":"229633",
	"profileURL":"//www.yellowpages.com.eg/en/profile/arab-african-international-bank-_-aaib-_-atm/229633?b=114&k=19555&l=search",
	"arName":"15 طريق مصر حلوان الزراعى, المعادى, القاهرة",
	"lat":"29.962416000000001",
	"lng":"31.249116000000001",
	"enName":"15 Misr Helwan Agricultural Rd., Maadi, Cairo"
},
		{	"profileId":"169357",
	"profileURL":"//www.yellowpages.com.eg/en/profile/arab-african-international-bank-_-aaib-_-atm/169357?b=152&k=19555&l=search",
	"arName":"كم 8 - طريق المعادى, القطامية, القاهرة",
	"lat":"",
	"lng":"",
	"enName":"Km 8, Maadi Rd., El katameya, Cairo"
},
		{	"profileId":"489352",
	"profileURL":"//www.yellowpages.com.eg/en/profile/arab-african-international-bank-_-aaib-_-atm/489352?b=209&k=19555&l=search",
	"arName":"كم 58 - طريق السويس الغردقة, العين السخنة, العين السخنة",
	"lat":"29.349102999999999",
	"lng":"32.581865999999998",
	"enName":"Km 58, Suez Hurghada Rd., El ain el sokhna, El ain el sokhna"
},
		{	"profileId":"313522",
	"profileURL":"//www.yellowpages.com.eg/en/profile/arab-african-international-bank-_-aaib-_-atm/313522?b=158&k=19555&l=search",
	"arName":"92 ش الحجاز, ميدان هليوبوليس, مصر الجديدة, القاهرة",
	"lat":"30.109279000000001",
	"lng":"31.340142",
	"enName":"92 El Hegaz St., Heliopolis Square, Heliopolis, Cairo"
},
		{	"profileId":"169598",
	"profileURL":"//www.yellowpages.com.eg/en/profile/arab-african-international-bank-_-aaib-_-atm/169598?b=172&k=19555&l=search",
	"arName":"كم 6 -, طريق الاسكندرية القاهرة الصحرا, طريق الاسكندرية القاهرة الصحراوى, الاسكندرية",
	"lat":"31.167404000000001",
	"lng":"29.933047999999999",
	"enName":"Km 6,, Alex. cairo desert rd., Alexandria"
},
		{	"profileId":"445445",
	"profileURL":"//www.yellowpages.com.eg/en/profile/arab-african-international-bank-_-aaib-_-atm/445445?b=258&k=19555&l=search",
	"arName":"كم 63 - طريق اسكندرية مطروح الصحراوى, الحمام, الساحل الشمالى",
	"lat":"30.8818454",
	"lng":"29.3731525",
	"enName":"Km 63, Alex Matrouh Desert Rd., El hammam, North coast"
},
		{	"profileId":"169359",
	"profileURL":"//www.yellowpages.com.eg/en/profile/arab-african-international-bank-_-aaib-_-atm/169359?b=106&k=19555&l=search",
	"arName":"43 ميدان الجزائر, المعادى الجديدة, المعادى, القاهرة",
	"lat":"29.974834999999999",
	"lng":"31.276018000000001",
	"enName":"43 El Gazaer Sq., New Maadi, Maadi, Cairo"
},
		{	"profileId":"313526",
	"profileURL":"//www.yellowpages.com.eg/en/profile/arab-african-international-bank-_-aaib-_-atm/313526?b=95&k=19555&l=search",
	"arName":"طريق المطار, مساكن شيراتون, مصر الجديدة, القاهرة",
	"lat":"30.109414999999998",
	"lng":"31.372395000000001",
	"enName":"Airport Rd., Sheraton Bldgs., Heliopolis, Cairo"
},
		{	"profileId":"314615",
	"profileURL":"//www.yellowpages.com.eg/en/profile/arab-african-international-bank-_-aaib-_-atm/314615?b=237&k=19555&l=search",
	"arName":"كم 105 - طريق اسكندرية مطروح الصحراوى, العلمين, الساحل الشمالى",
	"lat":"30.832547999999999",
	"lng":"28.964421000000002",
	"enName":"Km 105, Alex Matrouh Desert Rd., El alamein, North coast"
},
		{	"profileId":"489354",
	"profileURL":"//www.yellowpages.com.eg/en/profile/arab-african-international-bank-_-aaib-_-atm/489354?b=265&k=19555&l=search",
	"arName":"كم 92 - طريق السويس الغردقة - الزعفرانة, العين السخنة, العين السخنة",
	"lat":"29.363326000000001",
	"lng":"32.573990999999999",
	"enName":"Km 92, Suez Hurghada Rd., El Zaafarana, El ain el sokhna, El ain el sokhna"
},
		{	"profileId":"470289",
	"profileURL":"//www.yellowpages.com.eg/en/profile/arab-african-international-bank-_-aaib-_-atm/470289?b=241&k=19555&l=search",
	"arName":"كم 129 - طريق اسكندرية مطروح الصحراوى - قرية مراسى, سيدى عبد الرحمن, الساحل الشمالى",
	"lat":"30.968999",
	"lng":"28.742401999999998",
	"enName":"Km 129, Alex Matrouh Desert Rd., Marassi Village, Sidi abdel rahman, North coast"
},
		{	"profileId":"184846",
	"profileURL":"//www.yellowpages.com.eg/en/profile/arab-african-international-bank-_-aaib-_-atm/184846?b=124&k=19555&l=search",
	"arName":"7 ش طلعت حرب, وسط البلد, القاهرة",
	"lat":"30.045535000000001",
	"lng":"31.237227000000001",
	"enName":"7 Talaat Harb St., Downtown, Cairo"
},
		{	"profileId":"316132",
	"profileURL":"//www.yellowpages.com.eg/en/profile/arab-african-international-bank-_-aaib-_-atm/316132?b=113&k=19555&l=search",
	"arName":"70 ش شبرا, شبرا, القاهرة",
	"lat":"30.075973999999999",
	"lng":"31.244852999999999",
	"enName":"70 Shoubra St., Shoubra, Cairo"
},
		{	"profileId":"169595",
	"profileURL":"//www.yellowpages.com.eg/en/profile/arab-african-international-bank-_-aaib-_-atm/169595?b=214&k=19555&l=search",
	"arName":"ش السلطان حسين ميدان الخرطوم, الشاطبى, الاسكندرية",
	"lat":"31.201609000000001",
	"lng":"29.907205000000001",
	"enName":"El Sultan Hussein St. El Khartoum Sq., El shatby, Alexandria"
},
		{	"profileId":"169594",
	"profileURL":"//www.yellowpages.com.eg/en/profile/arab-african-international-bank-_-aaib-_-atm/169594?b=195&k=19555&l=search",
	"arName":"ش السلطان حسين, الشاطبى, الاسكندرية",
	"lat":"31.202867000000001",
	"lng":"29.904219999999999",
	"enName":"El Sultan Hussein St., El shatby, Alexandria"
},
		{	"profileId":"169355",
	"profileURL":"//www.yellowpages.com.eg/en/profile/arab-african-international-bank-_-aaib-_-atm/169355?b=127&k=19555&l=search",
	"arName":"الطريق الدائرى - مدينة المعراج, زهراء المعادى, المعادى, القاهرة",
	"lat":"29.982492000000001",
	"lng":"31.316680999999999",
	"enName":"Ring Rd., El Mearag City, Zahraa El Maadi, Maadi, Cairo"
},
		{	"profileId":"169597",
	"profileURL":"//www.yellowpages.com.eg/en/profile/arab-african-international-bank-_-aaib-_-atm/169597?b=250&k=19555&l=search",
	"arName":"ش شامبليون, الشاطبى, الاسكندرية",
	"lat":"31.203733",
	"lng":"29.906582",
	"enName":"Champillion St., El shatby, Alexandria"
},
		{	"profileId":"169354",
	"profileURL":"//www.yellowpages.com.eg/en/profile/arab-african-international-bank-_-aaib-_-atm/169354?b=105&k=19555&l=search",
	"arName":"ش صك العملة ميدان الحلبى - العباسية الشرقية, الدراسة, القاهرة",
	"lat":"30.056273999999998",
	"lng":"31.272960999999999",
	"enName":"Sakk El Ommlah St. El Halaby Sq., El Abbaseya El Sharqeya, El darrasa, Cairo"
},
		{	"profileId":"229737",
	"profileURL":"//www.yellowpages.com.eg/en/profile/arab-african-international-bank-_-aaib-_-atm/229737?b=145&k=19555&l=search",
	"arName":"ش التسعين - سيتى سنتر, التجمع الخامس, القاهرة الجديدة, القاهرة",
	"lat":"30.026278999999999",
	"lng":"31.454771000000001",
	"enName":"El Tesaeen St., City Center, 5th Compound, New cairo, Cairo"
},
		{	"profileId":"316129",
	"profileURL":"//www.yellowpages.com.eg/en/profile/arab-african-international-bank-_-aaib-_-atm/316129?b=134&k=19555&l=search",
	"arName":"1 ابراج عثمان احمد عثمان - ش دولتيان متفرع من ش شبرا, اغاخان, القاهرة",
	"lat":"30.100587999999998",
	"lng":"31.240594999999999",
	"enName":"1 Othman Ahmed Othman Towers, Dawletian St. Off Shoubra St., Aghakhan, Cairo"
},
		{	"profileId":"465392",
	"profileURL":"//www.yellowpages.com.eg/en/profile/arab-african-international-bank-_-aaib-_-atm/465392?b=161&k=19555&l=search",
	"arName":"الطريق الدائرى, كايرو فيستيفال, القاهرة الجديدة, القاهرة",
	"lat":"30.028863000000001",
	"lng":"31.407785000000001",
	"enName":"Ring Rd., Cairo Festival City, New cairo, Cairo"
},
		{	"profileId":"565361",
	"profileURL":"//www.yellowpages.com.eg/en/profile/arab-african-international-bank-_-aaib-_-atm/565361?b=211&k=19555&l=search",
	"arName":"91 ش ترعة الزمر, العمرانية الشرقية, الهرم, الجيزة",
	"lat":"30.010168",
	"lng":"31.20431",
	"enName":"91 Teraet El Zomor St., El Omraneya El Sharkeya, El haram, Giza"
},
		{	"profileId":"451554",
	"profileURL":"//www.yellowpages.com.eg/en/profile/arab-african-international-bank-_-aaib-_-atm/451554?b=182&k=19555&l=search",
	"arName":"544 طريق الجيش, سيدى بشر, الاسكندرية",
	"lat":"31.261785",
	"lng":"29.983612000000001",
	"enName":"544 El Guish Rd., Sidi beshr, Alexandria"
},
		{	"profileId":"470294",
	"profileURL":"//www.yellowpages.com.eg/en/profile/arab-african-international-bank-_-aaib-_-atm/470294?b=185&k=19555&l=search",
	"arName":"كم 136 - طريق اسكندرية مطروح الصحراوى, سيدى عبد الرحمن, الساحل الشمالى",
	"lat":"30.998083000000001",
	"lng":"28.684037",
	"enName":"Km 136, Alex Matrouh Desert Rd., Sidi abdel rahman, North coast"
},
		{	"profileId":"470297",
	"profileURL":"//www.yellowpages.com.eg/en/profile/arab-african-international-bank-_-aaib-_-atm/470297?b=221&k=19555&l=search",
	"arName":"كم 149 - - قرية تلال, طريق اسكندرية مطروح الصحراوى, الساحل الشمالى",
	"lat":"31.013228000000002",
	"lng":"28.606178",
	"enName":"Km 149, , Telal Village, Alex. matrouh desert rd., North coast"
},
		{	"profileId":"470299",
	"profileURL":"//www.yellowpages.com.eg/en/profile/arab-african-international-bank-_-aaib-_-atm/470299?b=186&k=19555&l=search",
	"arName":"كم 170 -, طريق اسكندرية مطروح الصحراوى, الساحل الشمالى",
	"lat":"31.070929",
	"lng":"28.359189000000001",
	"enName":"Km 170,, Alex. matrouh desert rd., North coast"
},
		{	"profileId":"517965",
	"profileURL":"//www.yellowpages.com.eg/en/profile/arab-african-international-bank-_-aaib-_-atm/517965?b=263&k=19555&l=search",
	"arName":"كم 23 - محور التعمير - مجمع اليكس ويست, طريق اسكندرية مطروح الصحراوى, الساحل الشمالى",
	"lat":"31.056398999999999",
	"lng":"29.719317",
	"enName":"Km 23, El Taamir Spine, Alex West Complex, Alex. matrouh desert rd., North coast"
},
		{	"profileId":"517964",
	"profileURL":"//www.yellowpages.com.eg/en/profile/arab-african-international-bank-_-aaib-_-atm/517964?b=188&k=19555&l=search",
	"arName":"كم 140 - - قرية تلال, سيدى عبد الرحمن, الساحل الشمالى",
	"lat":"31.011564",
	"lng":"28.604751",
	"enName":"Km 140, , Telal Village, Sidi abdel rahman, North coast"
},
		{	"profileId":"183846",
	"profileURL":"//www.yellowpages.com.eg/en/profile/arab-african-international-bank-_-aaib-_-atm/183846?b=177&k=19555&l=search",
	"arName":"مبنى B121 - طريق القاهرة اسكندرية الصحراوى - القرية الذكية, ابو رواش, الجيزة",
	"lat":"30.079101999999999",
	"lng":"31.018180999999998",
	"enName":"Bldg. B121, Cairo Alex Desert Rd., Smart Village, Abou rawash, Giza"
},
		{	"profileId":"517963",
	"profileURL":"//www.yellowpages.com.eg/en/profile/arab-african-international-bank-_-aaib-_-atm/517963?b=205&k=19555&l=search",
	"arName":"كم 129 - طريق اسكندرية مطروح الصحراوى - قرية مراسى, سيدى عبد الرحمن, الساحل الشمالى",
	"lat":"30.974813000000001",
	"lng":"28.745041000000001",
	"enName":"Km 129, Alex Matrouh Desert Rd., Marassi Village, Sidi abdel rahman, North coast"
},
		{	"profileId":"517962",
	"profileURL":"//www.yellowpages.com.eg/en/profile/arab-african-international-bank-_-aaib-_-atm/517962?b=222&k=19555&l=search",
	"arName":"كم 124 - طريق اسكندرية مطروح الصحراوى, سيدى عبد الرحمن, الساحل الشمالى",
	"lat":"30.946079000000001",
	"lng":"28.791772999999999",
	"enName":"Km 124, Alex Matrouh Desert Rd., Sidi abdel rahman, North coast"
},
		{	"profileId":"316101",
	"profileURL":"//www.yellowpages.com.eg/en/profile/arab-african-international-bank-_-aaib-_-atm/316101?b=199&k=19555&l=search",
	"arName":"المحور المركزى, السادس من اكتوبر, الجيزة",
	"lat":"29.973347",
	"lng":"30.944596000000001",
	"enName":"Central Spine, 6th of october, Giza"
},
		{	"profileId":"316105",
	"profileURL":"//www.yellowpages.com.eg/en/profile/arab-african-international-bank-_-aaib-_-atm/316105?b=217&k=19555&l=search",
	"arName":"ميدان جهينة, السادس من اكتوبر, الجيزة",
	"lat":"30.005434000000001",
	"lng":"30.974428",
	"enName":"Juhaina sq., 6th of october, Giza"
},
		{	"profileId":"487821",
	"profileURL":"//www.yellowpages.com.eg/en/profile/arab-african-international-bank-_-aaib-_-atm/487821?b=190&k=19555&l=search",
	"arName":"المحور المركزى, الشيخ زايد, السادس من اكتوبر, الجيزة",
	"lat":"30.0303936",
	"lng":"30.9951729",
	"enName":"Central Spine, El Sheikh Zayed, 6th of october, Giza"
},
		{	"profileId":"487822",
	"profileURL":"//www.yellowpages.com.eg/en/profile/arab-african-international-bank-_-aaib-_-atm/487822?b=264&k=19555&l=search",
	"arName":"., الحى الاول, السادس من اكتوبر, الجيزة",
	"lat":"29.966127",
	"lng":"30.951384000000001",
	"enName":"., 1st District, 6th of october, Giza"
},
		{	"profileId":"229533",
	"profileURL":"//www.yellowpages.com.eg/en/profile/arab-african-international-bank-_-aaib-_-atm/229533?b=90&k=19555&l=search",
	"arName":"43 ش قصر النيل, وسط البلد, القاهرة",
	"lat":"30.049354999999998",
	"lng":"31.244909",
	"enName":"43 Kasr El Nil St., Downtown, Cairo"
},
		{	"profileId":"229415",
	"profileURL":"//www.yellowpages.com.eg/en/profile/arab-african-international-bank-_-aaib-_-atm/229415?b=144&k=19555&l=search",
	"arName":"ميدان العباسية - برج مصر للسياحة, عباسية, القاهرة",
	"lat":"30.072538000000002",
	"lng":"31.285571999999998",
	"enName":"Abbaseya Sq., Misr Travel Tower, Abbasseya, Cairo"
},
		{	"profileId":"313744",
	"profileURL":"//www.yellowpages.com.eg/en/profile/arab-african-international-bank-_-aaib-_-atm/313744?b=146&k=19555&l=search",
	"arName":"كورنيش النيل, كورنيش المعادى, المعادى, القاهرة",
	"lat":"29.9850593",
	"lng":"31.230097600000001",
	"enName":"Corniche El Nil, Corniche El Maadi, Maadi, Cairo"
},
		{	"profileId":"313505",
	"profileURL":"//www.yellowpages.com.eg/en/profile/arab-african-international-bank-_-aaib-_-atm/313505?b=131&k=19555&l=search",
	"arName":"127 ش الميرغنى, مصر الجديدة, القاهرة",
	"lat":"30.089911000000001",
	"lng":"31.340775000000001",
	"enName":"127 El Merghany St., Heliopolis, Cairo"
},
		{	"profileId":"229772",
	"profileURL":"//www.yellowpages.com.eg/en/profile/arab-african-international-bank-_-aaib-_-atm/229772?b=202&k=19555&l=search",
	"arName":"., خليج الفارس الابيض, شرم الشيخ",
	"lat":"27.962553",
	"lng":"34.393675000000002",
	"enName":"., White knight bay, Sharm el sheikh"
},
		{	"profileId":"170086",
	"profileURL":"//www.yellowpages.com.eg/en/profile/arab-african-international-bank-_-aaib-_-atm/170086?b=140&k=19555&l=search",
	"arName":"105 ش عمر بن الخطاب, الماظة, مصر الجديدة, القاهرة",
	"lat":"30.087347000000001",
	"lng":"31.345891999999999",
	"enName":"105 Omar Ibn El Khattab St., Almaza, Heliopolis, Cairo"
},
		{	"profileId":"518927",
	"profileURL":"//www.yellowpages.com.eg/en/profile/arab-african-international-bank-_-aaib-_-atm/518927?b=223&k=19555&l=search",
	"arName":"كم 28 -, سيدى كرير, الساحل الشمالى",
	"lat":"",
	"lng":"",
	"enName":"Km 28,, Sidi kreir, North coast"
},
		{	"profileId":"470282",
	"profileURL":"//www.yellowpages.com.eg/en/profile/arab-african-international-bank-_-aaib-_-atm/470282?b=184&k=19555&l=search",
	"arName":"كم 129 - طريق اسكندرية مطروح الصحراوى - قرية مراسى, سيدى عبد الرحمن, الساحل الشمالى",
	"lat":"30.968999",
	"lng":"28.742401999999998",
	"enName":"Km 129, Alex Matrouh Desert Rd., Marassi Village, Sidi abdel rahman, North coast"
},
		{	"profileId":"487819",
	"profileURL":"//www.yellowpages.com.eg/en/profile/arab-african-international-bank-_-aaib-_-atm/487819?b=101&k=19555&l=search",
	"arName":"., مدينة الرحاب, القاهرة",
	"lat":"30.054638000000001",
	"lng":"31.492152000000001",
	"enName":"., Al rehab city, Cairo"
},
		{	"profileId":"314296",
	"profileURL":"//www.yellowpages.com.eg/en/profile/arab-african-international-bank-_-aaib-_-atm/314296?b=159&k=19555&l=search",
	"arName":"12 ش احمد راغب, جاردن سيتى, القاهرة",
	"lat":"30.038826",
	"lng":"31.230540999999999",
	"enName":"12 Ahmed Ragheb St., Garden city, Cairo"
},
		{	"profileId":"313512",
	"profileURL":"//www.yellowpages.com.eg/en/profile/arab-african-international-bank-_-aaib-_-atm/313512?b=132&k=19555&l=search",
	"arName":"5 عمارات الميريلاند - ش جسر السويس, جسر السويس, القاهرة",
	"lat":"30.100439000000001",
	"lng":"31.317681",
	"enName":"5 El Merryland Bldgs., Gesr El Suez St., Gesr el suez, Cairo"
},
		{	"profileId":"475728",
	"profileURL":"//www.yellowpages.com.eg/en/profile/arab-african-international-bank-_-aaib-_-atm/475728?b=136&k=19555&l=search",
	"arName":"ارض الاوبرا, الجزيرة, القاهرة",
	"lat":"30.042656000000001",
	"lng":"31.224024",
	"enName":"Opera Land, El gezirah, Cairo"
},
		{	"profileId":"313753",
	"profileURL":"//www.yellowpages.com.eg/en/profile/arab-african-international-bank-_-aaib-_-atm/313753?b=110&k=19555&l=search",
	"arName":"ش عمر بن الخطاب, مصر الجديدة, القاهرة",
	"lat":"30.073430999999999",
	"lng":"31.347339000000002",
	"enName":"Omar Ibn El Khattab St., Heliopolis, Cairo"
},
		{	"profileId":"169403",
	"profileURL":"//www.yellowpages.com.eg/en/profile/arab-african-international-bank-_-aaib-_-atm/169403?b=155&k=19555&l=search",
	"arName":"ارض الاوبرا, الجزيرة, القاهرة",
	"lat":"30.043265999999999",
	"lng":"31.223012000000001",
	"enName":"Opera Land, El gezirah, Cairo"
},
		{	"profileId":"313758",
	"profileURL":"//www.yellowpages.com.eg/en/profile/arab-african-international-bank-_-aaib-_-atm/313758?b=111&k=19555&l=search",
	"arName":"37 ش عباس العقاد, المنطقة الاولى, مدينة نصر, القاهرة",
	"lat":"30.060404999999999",
	"lng":"31.337147000000002",
	"enName":"37 Abbas El Akkad St., 1st Zone, Nasr city, Cairo"
},
		{	"profileId":"313517",
	"profileURL":"//www.yellowpages.com.eg/en/profile/arab-african-international-bank-_-aaib-_-atm/313517?b=133&k=19555&l=search",
	"arName":"69 ش ابو بكر الصديق, مصر الجديدة, القاهرة",
	"lat":"30.098804000000001",
	"lng":"31.336043",
	"enName":"69 Abou Bakr El Seddik St., Heliopolis, Cairo"
},
		{	"profileId":"470273",
	"profileURL":"//www.yellowpages.com.eg/en/profile/arab-african-international-bank-_-aaib-_-atm/470273?b=220&k=19555&l=search",
	"arName":"كم 63 - طريق اسكندرية مطروح الصحراوى, الحمام, الساحل الشمالى",
	"lat":"30.8818454",
	"lng":"29.3731525",
	"enName":"Km 63, Alex Matrouh Desert Rd., El hammam, North coast"
},
		{	"profileId":"470275",
	"profileURL":"//www.yellowpages.com.eg/en/profile/arab-african-international-bank-_-aaib-_-atm/470275?b=183&k=19555&l=search",
	"arName":"كم 149 - طريق اسكندرية مطروح الصحراوى, سيدى عبد الرحمن, الساحل الشمالى",
	"lat":"30.997422",
	"lng":"28.655224",
	"enName":"Km 149, Alex Matrouh Desert Rd., Sidi abdel rahman, North coast"
},
		{	"profileId":"314608",
	"profileURL":"//www.yellowpages.com.eg/en/profile/arab-african-international-bank-_-aaib-_-atm/314608?b=236&k=19555&l=search",
	"arName":"ش شانزليزيه - المنطقة الثانية - مارينا 2, مارينا, الساحل الشمالى",
	"lat":"30.815967000000001",
	"lng":"29.040845000000001",
	"enName":"Champs Elysees St., 2nd Zone, Marina 2, Marina, North coast"
},
		{	"profileId":"543675",
	"profileURL":"//www.yellowpages.com.eg/en/profile/arab-african-international-bank-_-aaib-_-atm/543675?b=243&k=19555&l=search",
	"arName":"طريق الواحات, السادس من اكتوبر, الجيزة",
	"lat":"29.971907000000002",
	"lng":"31.01773",
	"enName":"El Wahat Rd., 6th of october, Giza"
},
		{	"profileId":"489547",
	"profileURL":"//www.yellowpages.com.eg/en/profile/arab-african-international-bank-_-aaib-_-atm/489547?b=119&k=19555&l=search",
	"arName":"الطريق الدائرى, التجمع الاول, القاهرة الجديدة, القاهرة",
	"lat":"30.060590999999999",
	"lng":"31.419343000000001",
	"enName":"Ring Rd., 1st Compound, New cairo, Cairo"
},
		{	"profileId":"489546",
	"profileURL":"//www.yellowpages.com.eg/en/profile/arab-african-international-bank-_-aaib-_-atm/489546?b=138&k=19555&l=search",
	"arName":"16 ش ولى العهد, سراى القبة, القاهرة",
	"lat":"30.087634999999999",
	"lng":"31.284120000000001",
	"enName":"16 Walley El Ahd St., Saray el koba, Cairo"
},
		{	"profileId":"314265",
	"profileURL":"//www.yellowpages.com.eg/en/profile/arab-african-international-bank-_-aaib-_-atm/314265?b=255&k=19555&l=search",
	"arName":"200 ش الهرم, التعاون, الهرم, الجيزة",
	"lat":"29.995987",
	"lng":"31.165139",
	"enName":"200 Haram St., El Taawon, El haram, Giza"
},
		{	"profileId":"489545",
	"profileURL":"//www.yellowpages.com.eg/en/profile/arab-african-international-bank-_-aaib-_-atm/489545?b=248&k=19555&l=search",
	"arName":"كورنيش النيل, الكورنيش, اسوان",
	"lat":"24.066136",
	"lng":"32.884478000000001",
	"enName":"Corniche El Nil, El corniche, Aswan"
},
		{	"profileId":"169562",
	"profileURL":"//www.yellowpages.com.eg/en/profile/arab-african-international-bank-_-aaib-_-atm/169562?b=89&k=19555&l=search",
	"arName":"5 ش سكة البادستان, خان الخليلى, القاهرة",
	"lat":"30.047771000000001",
	"lng":"31.262374999999999",
	"enName":"5 Sekket El Badestan St., Khan el khalili, Cairo"
},
		{	"profileId":"489548",
	"profileURL":"//www.yellowpages.com.eg/en/profile/arab-african-international-bank-_-aaib-_-atm/489548?b=102&k=19555&l=search",
	"arName":"ش عمر بن الخطاب, مصر الجديدة, القاهرة",
	"lat":"30.073718",
	"lng":"31.343800999999999",
	"enName":"Omar Ibn El Khattab St., Heliopolis, Cairo"
},
		{	"profileId":"467883",
	"profileURL":"//www.yellowpages.com.eg/en/profile/arab-african-international-bank-_-aaib-_-atm/467883?b=135&k=19555&l=search",
	"arName":"الطريق الدائرى, كايرو فيستيفال, القاهرة الجديدة, القاهرة",
	"lat":"30.027971999999998",
	"lng":"31.408335000000001",
	"enName":"Ring Rd., Cairo Festival City, New cairo, Cairo"
},
		{	"profileId":"474966",
	"profileURL":"//www.yellowpages.com.eg/en/profile/arab-african-international-bank-_-aaib-_-atm/474966?b=115&k=19555&l=search",
	"arName":"الطريق الدائرى, التجمع الاول, القاهرة الجديدة, القاهرة",
	"lat":"30.064154200000001",
	"lng":"31.423205100000001",
	"enName":"Ring Rd., 1st Compound, New cairo, Cairo"
},
		{	"profileId":"489554",
	"profileURL":"//www.yellowpages.com.eg/en/profile/arab-african-international-bank-_-aaib-_-atm/489554?b=120&k=19555&l=search",
	"arName":"7 ش خالد بن الوليد, جنوب الاكاديمية, القاهرة الجديدة, القاهرة",
	"lat":"30.034186999999999",
	"lng":"31.43094",
	"enName":"7 Khaled Ibn El Walid St., South Academy, New cairo, Cairo"
},
		{	"profileId":"169317",
	"profileURL":"//www.yellowpages.com.eg/en/profile/arab-african-international-bank-_-aaib-_-atm/169317?b=126&k=19555&l=search",
	"arName":"48 أ ش العروبة, مصر الجديدة, القاهرة",
	"lat":"30.091529999999999",
	"lng":"31.334826",
	"enName":"48 A El Orouba St., Heliopolis, Cairo"
},
		{	"profileId":"229793",
	"profileURL":"//www.yellowpages.com.eg/en/profile/arab-african-international-bank-_-aaib-_-atm/229793?b=254&k=19555&l=search",
	"arName":"طريق الغردقة سفاجا, طريق القرى, الغردقة",
	"lat":"27.095866999999998",
	"lng":"33.821514999999998",
	"enName":"Hurghada Safaga Rd., Villages rd., Hurghada"
},
		{	"profileId":"489552",
	"profileURL":"//www.yellowpages.com.eg/en/profile/arab-african-international-bank-_-aaib-_-atm/489552?b=150&k=19555&l=search",
	"arName":"ميدان رمسيس, وسط البلد, القاهرة",
	"lat":"30.063040000000001",
	"lng":"31.246919999999999",
	"enName":"Ramsis Sq., Downtown, Cairo"
},
		{	"profileId":"169319",
	"profileURL":"//www.yellowpages.com.eg/en/profile/arab-african-international-bank-_-aaib-_-atm/169319?b=151&k=19555&l=search",
	"arName":"22 ش البادية, مصر الجديدة, القاهرة",
	"lat":"30.088605999999999",
	"lng":"31.335823999999999",
	"enName":"22 El Badeya St., Heliopolis, Cairo"
},
		{	"profileId":"489551",
	"profileURL":"//www.yellowpages.com.eg/en/profile/arab-african-international-bank-_-aaib-_-atm/489551?b=164&k=19555&l=search",
	"arName":"ش الكابلات, المطرية, القاهرة",
	"lat":"30.113951",
	"lng":"31.297567999999998",
	"enName":"El Kablat St., El matareya, Cairo"
},
		{	"profileId":"579708",
	"profileURL":"//www.yellowpages.com.eg/en/profile/arab-african-international-bank-_-aaib-_-atm/579708?b=227&k=19555&l=search",
	"arName":"85 ش ترعة الزمر متفرع من ش الهرم, العمرانية الشرقية, الهرم, الجيزة",
	"lat":"30.009021000000001",
	"lng":"31.204787",
	"enName":"85 Teraet El Zomor St. Off Haram St., El Omraneya El Sharkeya, El haram, Giza"
},
		{	"profileId":"489775",
	"profileURL":"//www.yellowpages.com.eg/en/profile/arab-african-international-bank-_-aaib-_-atm/489775?b=121&k=19555&l=search",
	"arName":"59 ش عمر بن الخطاب, مصر الجديدة, القاهرة",
	"lat":"30.092099999999999",
	"lng":"31.3399",
	"enName":"59 Omar Ibn El Khattab St., Heliopolis, Cairo"
},
		{	"profileId":"315004",
	"profileURL":"//www.yellowpages.com.eg/en/profile/arab-african-international-bank-_-aaib-_-atm/315004?b=257&k=19555&l=search",
	"arName":"الغرقانة, خليج نبق, شرم الشيخ",
	"lat":"28.021766",
	"lng":"34.435378999999998",
	"enName":"El Gharqana, Nabq bay, Sharm el sheikh"
},
		{	"profileId":"229545",
	"profileURL":"//www.yellowpages.com.eg/en/profile/arab-african-international-bank-_-aaib-_-atm/229545?b=179&k=19555&l=search",
	"arName":"طريق القاهرة اسكندرية الصحراوى ميدان الرماية, الهرم, الجيزة",
	"lat":"29.993105",
	"lng":"31.125336000000001",
	"enName":"Cairo Alex Desert Rd. El Remaya Sq., El haram, Giza"
},
		{	"profileId":"314943",
	"profileURL":"//www.yellowpages.com.eg/en/profile/arab-african-international-bank-_-aaib-_-atm/314943?b=256&k=19555&l=search",
	"arName":"طريق الجيش, سان استيفانو, الاسكندرية",
	"lat":"31.245865999999999",
	"lng":"29.965812",
	"enName":"El Guish Rd., San stefano, Alexandria"
},
		{	"profileId":"229786",
	"profileURL":"//www.yellowpages.com.eg/en/profile/arab-african-international-bank-_-aaib-_-atm/229786?b=253&k=19555&l=search",
	"arName":"كم 32 - طريق سفاجا الغردقة, مكادى باى, الغردقة",
	"lat":"26.998685999999999",
	"lng":"33.903297999999999",
	"enName":"Km 32, Safaga Hurghada Rd., Makadi bay, Hurghada"
},
		{	"profileId":"169731",
	"profileURL":"//www.yellowpages.com.eg/en/profile/arab-african-international-bank-_-aaib-_-atm/169731?b=232&k=19555&l=search",
	"arName":"كم 46 - طريق السويس الغردقة, العين السخنة, العين السخنة",
	"lat":"29.672135000000001",
	"lng":"32.337214000000003",
	"enName":"Km 46, Suez Hurghada Rd., El ain el sokhna, El ain el sokhna"
},
		{	"profileId":"169733",
	"profileURL":"//www.yellowpages.com.eg/en/profile/arab-african-international-bank-_-aaib-_-atm/169733?b=176&k=19555&l=search",
	"arName":"مدينة مبارك الصناعية , قويسنا, المنوفية",
	"lat":"30.544425",
	"lng":"31.185927",
	"enName":"Mubarak Industrial City, Quwasnah, El monofeya"
},
		{	"profileId":"489774",
	"profileURL":"//www.yellowpages.com.eg/en/profile/arab-african-international-bank-_-aaib-_-atm/489774?b=139&k=19555&l=search",
	"arName":"محور جوزيف تيتو, النزهة الجديدة, القاهرة",
	"lat":"30.122266",
	"lng":"31.373270000000002",
	"enName":"Joseph Tito Spine, El nozha el gadida, Cairo"
},
		{	"profileId":"355112",
	"profileURL":"//www.yellowpages.com.eg/en/profile/arab-african-international-bank-_-aaib-_-atm/355112?b=94&k=19555&l=search",
	"arName":"مربع 1258ف - طريق الاوتوستراد, مساكن شيراتون, مصر الجديدة, القاهرة",
	"lat":"30.102922",
	"lng":"31.386609",
	"enName":"Square 1258f, Autostrad Rd., Sheraton Bldgs., Heliopolis, Cairo"
},
		{	"profileId":"229576",
	"profileURL":"//www.yellowpages.com.eg/en/profile/arab-african-international-bank-_-aaib-_-atm/229576?b=91&k=19555&l=search",
	"arName":"6 ش مينيس متفرع من ش بغداد, الكوربة, مصر الجديدة, القاهرة",
	"lat":"30.088985999999998",
	"lng":"31.324258",
	"enName":"6 Minis St. Off Baghdad St., El Korba, Heliopolis, Cairo"
},
		{	"profileId":"489772",
	"profileURL":"//www.yellowpages.com.eg/en/profile/arab-african-international-bank-_-aaib-_-atm/489772?b=165&k=19555&l=search",
	"arName":"., طريق القاهرة السويس, القاهرة",
	"lat":"",
	"lng":"",
	"enName":"., Cairo suez rd., Cairo"
},
		{	"profileId":"229691",
	"profileURL":"//www.yellowpages.com.eg/en/profile/arab-african-international-bank-_-aaib-_-atm/229691?b=181&k=19555&l=search",
	"arName":"1 ش اسماعيل ابو الفتوح ميدان السد العالى - ميدان فينى سابقا, الدقى, الجيزة",
	"lat":"30.042093000000001",
	"lng":"31.216549000000001",
	"enName":"1 Ismail Abou El Fotouh St. El Sad El Aaly Sq. - Veiny Sq. Previously, Dokki, Giza"
},
		{	"profileId":"229690",
	"profileURL":"//www.yellowpages.com.eg/en/profile/arab-african-international-bank-_-aaib-_-atm/229690?b=201&k=19555&l=search",
	"arName":"2 ش القدس الشريف تقاطع ش الحجاز, المهندسين, الجيزة",
	"lat":"30.054939000000001",
	"lng":"31.198073000000001",
	"enName":"2 El Qods El Sharif St. Intersection Of El Hegaz St., Mohandeseen, Giza"
},
		{	"profileId":"183804",
	"profileURL":"//www.yellowpages.com.eg/en/profile/arab-african-international-bank-_-aaib-_-atm/183804?b=109&k=19555&l=search",
	"arName":"ش عمر بن الخطاب متفرع من طريق النصر, مصر الجديدة, القاهرة",
	"lat":"30.072458000000001",
	"lng":"31.347916999999999",
	"enName":"Omar Ibn El Khattab St. Off El Nasr Rd., Heliopolis, Cairo"
},
		{	"profileId":"229572",
	"profileURL":"//www.yellowpages.com.eg/en/profile/arab-african-international-bank-_-aaib-_-atm/229572?b=157&k=19555&l=search",
	"arName":"70 ش عمر بن الخطاب ميدان الماظة, الماظة, مصر الجديدة, القاهرة",
	"lat":"30.086079000000002",
	"lng":"31.347541",
	"enName":"70 Omar Ibn El Khattab St. Almaza Sq., Almaza, Heliopolis, Cairo"
},
		{	"profileId":"314250",
	"profileURL":"//www.yellowpages.com.eg/en/profile/arab-african-international-bank-_-aaib-_-atm/314250?b=216&k=19555&l=search",
	"arName":"37 ش سوريا, المهندسين, الجيزة",
	"lat":"30.052928000000001",
	"lng":"31.196377999999999",
	"enName":"37 Syria St., Mohandeseen, Giza"
},
		{	"profileId":"314254",
	"profileURL":"//www.yellowpages.com.eg/en/profile/arab-african-international-bank-_-aaib-_-atm/314254?b=235&k=19555&l=search",
	"arName":"33 ش جامعة الدول العربية, المهندسين, الجيزة",
	"lat":"30.051186000000001",
	"lng":"31.199245000000001",
	"enName":"33 Gamaet El Dewal El Arabeya St., Mohandeseen, Giza"
},
		{	"profileId":"551664",
	"profileURL":"//www.yellowpages.com.eg/en/profile/arab-african-international-bank-_-aaib-_-atm/551664?b=103&k=19555&l=search",
	"arName":"23 ش منشية البكرى, منشية البكرى, مصر الجديدة, القاهرة",
	"lat":"30.089089000000001",
	"lng":"31.305183",
	"enName":"23 Mansheyet El Bakry St., Mansheyet El Bakry, Heliopolis, Cairo"
},
		{	"profileId":"169601",
	"profileURL":"//www.yellowpages.com.eg/en/profile/arab-african-international-bank-_-aaib-_-atm/169601?b=173&k=19555&l=search",
	"arName":"كم 105 - طريق اسكندرية مطروح الصحراوى - مارينا 3, مارينا, الساحل الشمالى",
	"lat":"30.825776000000001",
	"lng":"29.001836999999998",
	"enName":"Km 105, Alex Matrouh Desret Rd., Marina 3, Marina, North coast"
},
		{	"profileId":"169722",
	"profileURL":"//www.yellowpages.com.eg/en/profile/arab-african-international-bank-_-aaib-_-atm/169722?b=197&k=19555&l=search",
	"arName":"طريق السلام, خليج نعمة, شرم الشيخ",
	"lat":"27.918396999999999",
	"lng":"34.335568000000002",
	"enName":"El Salam Rd., Naama bay, Sharm el sheikh"
},
		{	"profileId":"229689",
	"profileURL":"//www.yellowpages.com.eg/en/profile/arab-african-international-bank-_-aaib-_-atm/229689?b=180&k=19555&l=search",
	"arName":"34 ش الثورة, المهندسين, الجيزة",
	"lat":"30.048303000000001",
	"lng":"31.208348999999998",
	"enName":"34 El Thawra St., Mohandeseen, Giza"
},
		{	"profileId":"504441",
	"profileURL":"//www.yellowpages.com.eg/en/profile/arab-african-international-bank-_-aaib-_-atm/504441?b=206&k=19555&l=search",
	"arName":"ش الشيراتون, الهضبة, الغردقة",
	"lat":"27.213822",
	"lng":"33.840038",
	"enName":"Sheraton Rd., El hadaba, Hurghada"
},
		{	"profileId":"169726",
	"profileURL":"//www.yellowpages.com.eg/en/profile/arab-african-international-bank-_-aaib-_-atm/169726?b=175&k=19555&l=search",
	"arName":"ش الشيراتون ميدان المحمدى - الممشى السياحى, الهضبة, الغردقة",
	"lat":"27.197306000000001",
	"lng":"33.844178999999997",
	"enName":"Sheraton Rd. El Mohamady Sq., Touristic Passage, El hadaba, Hurghada"
},
		{	"profileId":"537815",
	"profileURL":"//www.yellowpages.com.eg/en/profile/arab-african-international-bank-_-aaib-_-atm/537815?b=204&k=19555&l=search",
	"arName":"ش 26 يوليو, المهندسين, الجيزة",
	"lat":"30.061544999999999",
	"lng":"31.204895",
	"enName":"26th Of July St., Mohandeseen, Giza"
},
		{	"profileId":"459416",
	"profileURL":"//www.yellowpages.com.eg/en/profile/arab-african-international-bank-_-aaib-_-atm/459416?b=240&k=19555&l=search",
	"arName":"10 ش السودان, الدقى, الجيزة",
	"lat":"30.036456999999999",
	"lng":"31.197244999999999",
	"enName":"10 Sudan St., Dokki, Giza"
},
		{	"profileId":"393042",
	"profileURL":"//www.yellowpages.com.eg/en/profile/arab-african-international-bank-_-aaib-_-atm/393042?b=96&k=19555&l=search",
	"arName":"114 ش عمار بن ياسر, مصر الجديدة, القاهرة",
	"lat":"30.116515",
	"lng":"31.361948999999999",
	"enName":"114 Ammar Ibn Yasser St., Heliopolis, Cairo"
},
		{	"profileId":"526223",
	"profileURL":"//www.yellowpages.com.eg/en/profile/arab-african-international-bank-_-aaib-_-atm/526223?b=137&k=19555&l=search",
	"arName":"طريق المطار, مساكن شيراتون, مصر الجديدة, القاهرة",
	"lat":"30.122366",
	"lng":"31.398721999999999",
	"enName":"Airport Rd., Sheraton Bldgs., Heliopolis, Cairo"
},
		{	"profileId":"526224",
	"profileURL":"//www.yellowpages.com.eg/en/profile/arab-african-international-bank-_-aaib-_-atm/526224?b=118&k=19555&l=search",
	"arName":"المجاورة العاشرة - مدينة المعراج, زهراء المعادى, المعادى, القاهرة",
	"lat":"29.975559000000001",
	"lng":"31.315729000000001",
	"enName":"10th Neighbourhood, El Mearag City, Zahraa El Maadi, Maadi, Cairo"
},
		{	"profileId":"469346",
	"profileURL":"//www.yellowpages.com.eg/en/profile/arab-african-international-bank-_-aaib-_-atm/469346?b=218&k=19555&l=search",
	"arName":"كم 67 - طريق القصير مرسى علم, خليج كورايا, مرسى علم",
	"lat":"25.5990875",
	"lng":"34.607045599999999",
	"enName":"Km 67, Quseir Marsa Alam Rd., Corraya bay, Marsa alam"
},
		{	"profileId":"526221",
	"profileURL":"//www.yellowpages.com.eg/en/profile/arab-african-international-bank-_-aaib-_-atm/526221?b=261&k=19555&l=search",
	"arName":"كم 106 - طريق القاهرة اسكندرية الصحراوى, وادى النطرون, البحيرة",
	"lat":"30.394784999999999",
	"lng":"30.375862000000001",
	"enName":"Km 106, Cairo Alex Desert Rd., Wadi el natroun, El beheira"
},
		{	"profileId":"334199",
	"profileURL":"//www.yellowpages.com.eg/en/profile/arab-african-international-bank-_-aaib-_-atm/334199?b=238&k=19555&l=search",
	"arName":"كورنيش النيل, المنصورة, الدقهلية",
	"lat":"31.046762000000001",
	"lng":"31.368901000000001",
	"enName":"Corniche El Nil, El mansoura, El dakahleya"
},
		{	"profileId":"469344",
	"profileURL":"//www.yellowpages.com.eg/en/profile/arab-african-international-bank-_-aaib-_-atm/469344?b=260&k=19555&l=search",
	"arName":"كم 97 - طريق القصير مرسى علم - ابو دباب, خليج كورايا, مرسى علم",
	"lat":"25.345635999999999",
	"lng":"34.734851999999997",
	"enName":"Km 97, Quseir Marsa Alam Rd., Abou Dabbab, Corraya bay, Marsa alam"
},
		{	"profileId":"526227",
	"profileURL":"//www.yellowpages.com.eg/en/profile/arab-african-international-bank-_-aaib-_-atm/526227?b=244&k=19555&l=search",
	"arName":"طريق وصلة دهشور, الشيخ زايد, السادس من اكتوبر, الجيزة",
	"lat":"30.054167",
	"lng":"30.943759",
	"enName":"Waslet Dahshour Rd., El Sheikh Zayed, 6th of october, Giza"
},
		{	"profileId":"526228",
	"profileURL":"//www.yellowpages.com.eg/en/profile/arab-african-international-bank-_-aaib-_-atm/526228?b=225&k=19555&l=search",
	"arName":"ش الجلاء ميدان الجمهورية, طنطا, الغربية",
	"lat":"30.786888999999999",
	"lng":"31.001539999999999",
	"enName":"El Galaa St. El Gomhoureya Sq., Tanta, El gharbeya"
},
		{	"profileId":"526225",
	"profileURL":"//www.yellowpages.com.eg/en/profile/arab-african-international-bank-_-aaib-_-atm/526225?b=99&k=19555&l=search",
	"arName":"الطريق الدائرى, القطامية, القاهرة",
	"lat":"29.983523000000002",
	"lng":"31.366717000000001",
	"enName":"Ring Rd., El katameya, Cairo"
},
		{	"profileId":"229477",
	"profileURL":"//www.yellowpages.com.eg/en/profile/arab-african-international-bank-_-aaib-_-atm/229477?b=234&k=19555&l=search",
	"arName":"طريق رشيد, الطابية, الاسكندرية",
	"lat":"31.282543",
	"lng":"30.082825",
	"enName":"Rashid Rd., Tabiah, Alexandria"
},
		{	"profileId":"526226",
	"profileURL":"//www.yellowpages.com.eg/en/profile/arab-african-international-bank-_-aaib-_-atm/526226?b=162&k=19555&l=search",
	"arName":"بلوك 19 - ش مكرم عبيد, المنطقة السادسة, مدينة نصر, القاهرة",
	"lat":"30.065080999999999",
	"lng":"31.344360999999999",
	"enName":"Block 19, Makram Ebaid St., 6th Zone, Nasr city, Cairo"
},
		{	"profileId":"526229",
	"profileURL":"//www.yellowpages.com.eg/en/profile/arab-african-international-bank-_-aaib-_-atm/526229?b=207&k=19555&l=search",
	"arName":"16 ش البطل احمد عبد العزيز, المهندسين, الجيزة",
	"lat":"30.051943000000001",
	"lng":"31.207903000000002",
	"enName":"16 El Batal Ahmed Abdel Aziz St., Mohandeseen, Giza"
},
		{	"profileId":"526234",
	"profileURL":"//www.yellowpages.com.eg/en/profile/arab-african-international-bank-_-aaib-_-atm/526234?b=245&k=19555&l=search",
	"arName":"طريق القاهرة اسكندرية الصحراوى, الهرم, الجيزة",
	"lat":"29.987798000000002",
	"lng":"31.131744999999999",
	"enName":"Cairo Alex Desert Rd., El haram, Giza"
},
		{	"profileId":"526232",
	"profileURL":"//www.yellowpages.com.eg/en/profile/arab-african-international-bank-_-aaib-_-atm/526232?b=100&k=19555&l=search",
	"arName":"1019 كورنيش النيل, الملك الصالح, القاهرة",
	"lat":"30.018536000000001",
	"lng":"31.229485",
	"enName":"1019 Corniche El Nil, El malek el saleh, Cairo"
},
		{	"profileId":"526233",
	"profileURL":"//www.yellowpages.com.eg/en/profile/arab-african-international-bank-_-aaib-_-atm/526233?b=163&k=19555&l=search",
	"arName":"كم 19 - طريق مصر اسماعيلية الصحراوى, الحرفيين, القاهرة",
	"lat":"30.142776300000001",
	"lng":"31.404266100000001",
	"enName":"Km 19, Misr Ismaileya Desert Rd., El herafeyeen, Cairo"
},
		{	"profileId":"526238",
	"profileURL":"//www.yellowpages.com.eg/en/profile/arab-african-international-bank-_-aaib-_-atm/526238?b=262&k=19555&l=search",
	"arName":"581 طريق الحرية, جليم, الاسكندرية",
	"lat":"31.239118000000001",
	"lng":"29.963733999999999",
	"enName":"581 El Horreya Rd., Glim, Alexandria"
},
		{	"profileId":"526239",
	"profileURL":"//www.yellowpages.com.eg/en/profile/arab-african-international-bank-_-aaib-_-atm/526239?b=246&k=19555&l=search",
	"arName":"كم 23 - طريق اسكندرية القاهرة الصحراوى, مرغم, الاسكندرية",
	"lat":"31.084391",
	"lng":"29.847611000000001",
	"enName":"Km 23, Alex Cairo Desert Rd., Mirghem, Alexandria"
},
		{	"profileId":"526237",
	"profileURL":"//www.yellowpages.com.eg/en/profile/arab-african-international-bank-_-aaib-_-atm/526237?b=189&k=19555&l=search",
	"arName":"كم 33 - طريق اسكندرية القاهرة الصحراوى, العامرية, الاسكندرية",
	"lat":"31.012271999999999",
	"lng":"29.799030999999999",
	"enName":"Km 33, Alex Cairo Desert Rd., Amreya, Alexandria"
},
		{	"profileId":"229460",
	"profileURL":"//www.yellowpages.com.eg/en/profile/arab-african-international-bank-_-aaib-_-atm/229460?b=233&k=19555&l=search",
	"arName":"606 طريق الحرية, جليم, الاسكندرية",
	"lat":"31.240739000000001",
	"lng":"29.966048000000001",
	"enName":"606 El Horreya Rd., Glim, Alexandria"
},
		{	"profileId":"526231",
	"profileURL":"//www.yellowpages.com.eg/en/profile/arab-african-international-bank-_-aaib-_-atm/526231?b=208&k=19555&l=search",
	"arName":"532 طريق الحرية, فلمينج, الاسكندرية",
	"lat":"31.235278000000001",
	"lng":"29.959534999999999",
	"enName":"532 El Horreya Rd., Fleming, Alexandria"
},
		{	"profileId":"455399",
	"profileURL":"//www.yellowpages.com.eg/en/profile/arab-african-international-bank-_-aaib-_-atm/455399?b=148&k=19555&l=search",
	"arName":"منطقة المطاعم, مدينة الرحاب, القاهرة",
	"lat":"30.0588841",
	"lng":"31.489232399999999",
	"enName":"Food Court, Al rehab city, Cairo"
},
		{	"profileId":"169384",
	"profileURL":"//www.yellowpages.com.eg/en/profile/arab-african-international-bank-_-aaib-_-atm/169384?b=169&k=19555&l=search",
	"arName":"ش صلاح عامر متفرع من ش النيل, الجيزة, الجيزة",
	"lat":"30.024477999999998",
	"lng":"31.216881000000001",
	"enName":"Salah Amer St. Off El Nil St., Giza, Giza"
},
		{	"profileId":"169386",
	"profileURL":"//www.yellowpages.com.eg/en/profile/arab-african-international-bank-_-aaib-_-atm/169386?b=213&k=19555&l=search",
	"arName":"طريق القاهرة اسكندرية الصحراوى, طريق القاهرة الاسكندرية الصحرا, طريق القاهرة الاسكندرية الصحراوى, الجيزة",
	"lat":"29.986381000000002",
	"lng":"31.134391000000001",
	"enName":"Cairo Alex Desert Rd., Cairo alex desert rd., Giza"
},
		{	"profileId":"169385",
	"profileURL":"//www.yellowpages.com.eg/en/profile/arab-african-international-bank-_-aaib-_-atm/169385?b=192&k=19555&l=search",
	"arName":"136 ش ترسا, الهرم, الجيزة",
	"lat":"29.991436",
	"lng":"31.168130000000001",
	"enName":"136 Tersa St., El haram, Giza"
},
		{	"profileId":"314566",
	"profileURL":"//www.yellowpages.com.eg/en/profile/arab-african-international-bank-_-aaib-_-atm/314566?b=198&k=19555&l=search",
	"arName":"544 طريق الجيش, سيدى بشر, الاسكندرية",
	"lat":"31.261952999999998",
	"lng":"29.984124999999999",
	"enName":"544 El Guish Rd., Sidi beshr, Alexandria"
},
		{	"profileId":"169258",
	"profileURL":"//www.yellowpages.com.eg/en/profile/arab-african-international-bank-_-aaib-_-atm/169258?b=104&k=19555&l=search",
	"arName":"2 ش مجلس الشعب متفرع من ش قصر العينى, قصر العينى, القاهرة",
	"lat":"30.039899999999999",
	"lng":"31.235499999999998",
	"enName":"2 Magles El Shaab St. Off Kasr El Ainy St., Kasr el ainy, Cairo"
},
		{	"profileId":"433492",
	"profileURL":"//www.yellowpages.com.eg/en/profile/arab-african-international-bank-_-aaib-_-atm/433492?b=130&k=19555&l=search",
	"arName":"القطعة A - ش التسعين - مركز المدينة, التجمع الخامس, القاهرة الجديدة, القاهرة",
	"lat":"30.016922000000001",
	"lng":"31.412593999999999",
	"enName":"Plot A, El Tesaeen St., City Center, 5th Compound, New cairo, Cairo"
},
		{	"profileId":"474227",
	"profileURL":"//www.yellowpages.com.eg/en/profile/arab-african-international-bank-_-aaib-_-atm/474227?b=97&k=19555&l=search",
	"arName":"72 ش 9, المعادى, القاهرة",
	"lat":"29.973199099999999",
	"lng":"31.248866100000001",
	"enName":"72 Rd. 9, Maadi, Cairo"
},
		{	"profileId":"433495",
	"profileURL":"//www.yellowpages.com.eg/en/profile/arab-african-international-bank-_-aaib-_-atm/433495?b=160&k=19555&l=search",
	"arName":"القطعة 82 - ش اخناتون - الحى الاول, التجمع الخامس, القاهرة الجديدة, القاهرة",
	"lat":"30.003406999999999",
	"lng":"31.421278000000001",
	"enName":"Plot 82, Ekhnatoun St., 1St District, 5th Compound, New cairo, Cairo"
},
		{	"profileId":"169371",
	"profileURL":"//www.yellowpages.com.eg/en/profile/arab-african-international-bank-_-aaib-_-atm/169371?b=154&k=19555&l=search",
	"arName":"10 ش د. محمد حسين هيكل متفرع من ش عباس العقاد, المنطقة السادسة, مدينة نصر, القاهرة",
	"lat":"30.065859",
	"lng":"31.337885",
	"enName":"10 Dr. Mohamed Hussein Heikal St. Off Abbas El Akkad St., 6th Zone, Nasr city, Cairo"
},
		{	"profileId":"169370",
	"profileURL":"//www.yellowpages.com.eg/en/profile/arab-african-international-bank-_-aaib-_-atm/169370?b=142&k=19555&l=search",
	"arName":"ش يوسف عباس, مدينة نصر, القاهرة",
	"lat":"30.068809999999999",
	"lng":"31.318963",
	"enName":"Youssef Abbas St., Nasr city, Cairo"
},
		{	"profileId":"559514",
	"profileURL":"//www.yellowpages.com.eg/en/profile/arab-african-international-bank-_-aaib-_-atm/559514?b=149&k=19555&l=search",
	"arName":"70 ش عمر بن الخطاب ميدان الماظة, الماظة, مصر الجديدة, القاهرة",
	"lat":"30.091629000000001",
	"lng":"31.340941000000001",
	"enName":"70 Omar Ibn El Khattab St. Almaza Sq., Almaza, Heliopolis, Cairo"
},
		{	"profileId":"502859",
	"profileURL":"//www.yellowpages.com.eg/en/profile/arab-african-international-bank-_-aaib-_-atm/502859?b=247&k=19555&l=search",
	"arName":"امتداد محور 26 يوليو, السادس من اكتوبر, الجيزة",
	"lat":"29.995978000000001",
	"lng":"30.961306",
	"enName":"Extension Of 26th Of July Spine, 6th of october, Giza"
},
		{	"profileId":"169372",
	"profileURL":"//www.yellowpages.com.eg/en/profile/arab-african-international-bank-_-aaib-_-atm/169372?b=167&k=19555&l=search",
	"arName":"20 ش جامعة الدول العربية, المهندسين, الجيزة",
	"lat":"30.057296000000001",
	"lng":"31.205838",
	"enName":"20 Gamaet El Dewal El Arabeya St., Mohandeseen, Giza"
},
		{	"profileId":"169254",
	"profileURL":"//www.yellowpages.com.eg/en/profile/arab-african-international-bank-_-aaib-_-atm/169254?b=125&k=19555&l=search",
	"arName":"ش حسن الاكبر تقاطع ش الجمهورية, عابدين, القاهرة",
	"lat":"30.045134999999998",
	"lng":"31.244440000000001",
	"enName":"Hassan El Akbar St. Intersection Of El Gomhoureya St., Abdin, Cairo"
},
		{	"profileId":"169375",
	"profileURL":"//www.yellowpages.com.eg/en/profile/arab-african-international-bank-_-aaib-_-atm/169375?b=228&k=19555&l=search",
	"arName":"4 ش وزارة الزراعة, الدقى, الجيزة",
	"lat":"30.043154000000001",
	"lng":"31.210591999999998",
	"enName":"4 Wezaret El Zeraah St., Dokki, Giza"
},
		{	"profileId":"559631",
	"profileURL":"//www.yellowpages.com.eg/en/profile/arab-african-international-bank-_-aaib-_-atm/559631?b=122&k=19555&l=search",
	"arName":"32 ش الحجاز, ميدان المحكمة, مصر الجديدة, القاهرة",
	"lat":"30.104541999999999",
	"lng":"31.329481999999999",
	"enName":"32 El Hegaz St., El Mahkama Square, Heliopolis, Cairo"
},
		{	"profileId":"169374",
	"profileURL":"//www.yellowpages.com.eg/en/profile/arab-african-international-bank-_-aaib-_-atm/169374?b=212&k=19555&l=search",
	"arName":"87 ش التحرير, الدقى, الجيزة",
	"lat":"30.036656000000001",
	"lng":"31.205161",
	"enName":"87 El Tahrir St., Dokki, Giza"
},
		{	"profileId":"502855",
	"profileURL":"//www.yellowpages.com.eg/en/profile/arab-african-international-bank-_-aaib-_-atm/502855?b=224&k=19555&l=search",
	"arName":"ميدان الحصرى, الحى الثانى, السادس من اكتوبر, الجيزة",
	"lat":"29.971720999999999",
	"lng":"30.944832999999999",
	"enName":"El Hosary Sq., 2nd District, 6th of october, Giza"
},
		{	"profileId":"169377",
	"profileURL":"//www.yellowpages.com.eg/en/profile/arab-african-international-bank-_-aaib-_-atm/169377?b=168&k=19555&l=search",
	"arName":"35 ش الجيزة - ش مراد سابقا, الجيزة, الجيزة",
	"lat":"30.024183000000001",
	"lng":"31.216664000000002",
	"enName":"35 Giza St. - Mourad St. Previously, Giza, Giza"
},
		{	"profileId":"169255",
	"profileURL":"//www.yellowpages.com.eg/en/profile/arab-african-international-bank-_-aaib-_-atm/169255?b=141&k=19555&l=search",
	"arName":"16 ش رمسيس, وسط البلد, القاهرة",
	"lat":"30.056443000000002",
	"lng":"31.242201000000001",
	"enName":"16 Ramsis St., Downtown, Cairo"
},
		{	"profileId":"169376",
	"profileURL":"//www.yellowpages.com.eg/en/profile/arab-african-international-bank-_-aaib-_-atm/169376?b=249&k=19555&l=search",
	"arName":"ش 26 يوليو, المهندسين, الجيزة",
	"lat":"30.060998000000001",
	"lng":"31.204955999999999",
	"enName":"26th Of July St., Mohandeseen, Giza"
},
		{	"profileId":"169369",
	"profileURL":"//www.yellowpages.com.eg/en/profile/arab-african-international-bank-_-aaib-_-atm/169369?b=153&k=19555&l=search",
	"arName":"3 ش احمد الزمر - حى الزهور, الحى الثامن, مدينة نصر, القاهرة",
	"lat":"30.044917999999999",
	"lng":"31.344428000000001",
	"enName":"3 Ahmed El Zomor St., El Zohour District, 8th District, Nasr city, Cairo"
},
		{	"profileId":"229486",
	"profileURL":"//www.yellowpages.com.eg/en/profile/arab-african-international-bank-_-aaib-_-atm/229486?b=200&k=19555&l=search",
	"arName":"كم 82.5 - - قرية بدر, طريق اسكندرية مطروح الصحراوى, الساحل الشمالى",
	"lat":"30.822423000000001",
	"lng":"29.173003000000001",
	"enName":"Km 82.5, , Badr Village, Alex. matrouh desert rd., North coast"
},
		{	"profileId":"559626",
	"profileURL":"//www.yellowpages.com.eg/en/profile/arab-african-international-bank-_-aaib-_-atm/559626?b=266&k=19555&l=search",
	"arName":"طريق السلام, جاردن باى, شرم الشيخ",
	"lat":"27.916407",
	"lng":"34.348771999999997",
	"enName":"El Salam Rd., Garden bay, Sharm el sheikh"
},
		{	"profileId":"538826",
	"profileURL":"//www.yellowpages.com.eg/en/profile/arab-african-international-bank-_-aaib-_-atm/538826?b=98&k=19555&l=search",
	"arName":"4 ش الجلاء ميدان عبد المنعم رياض, وسط البلد, القاهرة",
	"lat":"30.050785000000001",
	"lng":"31.233629000000001",
	"enName":"4 El Galaa St. Abdel Moneim Riad Sq., Downtown, Cairo"
},
		{	"profileId":"229483",
	"profileURL":"//www.yellowpages.com.eg/en/profile/arab-african-international-bank-_-aaib-_-atm/229483?b=252&k=19555&l=search",
	"arName":"كم 34 - طريق اسكندرية مطروح الصحراوى, سيدى كرير, الساحل الشمالى",
	"lat":"31.015751999999999",
	"lng":"29.635407000000001",
	"enName":"Km 34, Alex Matrouh Desert Rd., Sidi kreir, North coast"
},
		{	"profileId":"571269",
	"profileURL":"//www.yellowpages.com.eg/en/profile/arab-african-international-bank-_-aaib-_-atm/571269?b=166&k=19555&l=search",
	"arName":"محور السادات, التجمع الاول, القاهرة الجديدة, القاهرة",
	"lat":"30.053051",
	"lng":"31.488731999999999",
	"enName":"El Sadat Spine, 1st Compound, New cairo, Cairo"
},
		{	"profileId":"425523",
	"profileURL":"//www.yellowpages.com.eg/en/profile/arab-african-international-bank-_-aaib-_-atm/425523?b=93&k=19555&l=search",
	"arName":"ش 250 ميدان المعادى جراند مول, المعادى الجديدة, المعادى, القاهرة",
	"lat":"29.965163",
	"lng":"31.270021",
	"enName":"Rd. 250 Maadi Grand Mall Sq., New Maadi, Maadi, Cairo"
},
		{	"profileId":"229704",
	"profileURL":"//www.yellowpages.com.eg/en/profile/arab-african-international-bank-_-aaib-_-atm/229704?b=92&k=19555&l=search",
	"arName":"9 ش البرازيل متفرع من ش 26 يوليو, الزمالك, القاهرة",
	"lat":"30.060993",
	"lng":"31.222671999999999",
	"enName":"9 Brazil St. Off 26th Of July St., Zamalek, Cairo"
},
		{	"profileId":"169712",
	"profileURL":"//www.yellowpages.com.eg/en/profile/arab-african-international-bank-_-aaib-_-atm/169712?b=230&k=19555&l=search",
	"arName":"البغدادى, الاقصر, الاقصر",
	"lat":"",
	"lng":"",
	"enName":"El Boughdady, LUXOR, Luxor, Luxor"
},
		{	"profileId":"169715",
	"profileURL":"//www.yellowpages.com.eg/en/profile/arab-african-international-bank-_-aaib-_-atm/169715?b=196&k=19555&l=search",
	"arName":"ش شرم ليزيه, هضبة ام السيد, شرم الشيخ",
	"lat":"27.860211",
	"lng":"34.316422000000003",
	"enName":"Sharm Elysees St., Umm el sid hill, Sharm el sheikh"
},
		{	"profileId":"169714",
	"profileURL":"//www.yellowpages.com.eg/en/profile/arab-african-international-bank-_-aaib-_-atm/169714?b=174&k=19555&l=search",
	"arName":"ش الفنار, هضبة ام السيد, شرم الشيخ",
	"lat":"27.855768999999999",
	"lng":"34.314196000000003",
	"enName":"El Fanar St., Umm el sid hill, Sharm el sheikh"
},
		{	"profileId":"169717",
	"profileURL":"//www.yellowpages.com.eg/en/profile/arab-african-international-bank-_-aaib-_-atm/169717?b=231&k=19555&l=search",
	"arName":"., خليج نبق, شرم الشيخ",
	"lat":"28.057790000000001",
	"lng":"34.435374000000003",
	"enName":"., Nabq bay, Sharm el sheikh"
},
		{	"profileId":"169718",
	"profileURL":"//www.yellowpages.com.eg/en/profile/arab-african-international-bank-_-aaib-_-atm/169718?b=251&k=19555&l=search",
	"arName":"1 طريق فور سيزونز بوليفارد, شاركس باى, شرم الشيخ",
	"lat":"27.956803000000001",
	"lng":"34.391925000000001",
	"enName":"1 Four Seasons Boulevard Rd., Shark's bay, Sharm el sheikh"
},
		{	"profileId":"169397",
	"profileURL":"//www.yellowpages.com.eg/en/profile/arab-african-international-bank-_-aaib-_-atm/169397?b=108&k=19555&l=search",
	"arName":"6 ش اسماعيل اباظة, لاظوغلى, القاهرة",
	"lat":"30.037731000000001",
	"lng":"31.235516000000001",
	"enName":"6 Ismail Abaza St., Lazoughly, Cairo"
},
		{	"profileId":"169398",
	"profileURL":"//www.yellowpages.com.eg/en/profile/arab-african-international-bank-_-aaib-_-atm/169398?b=128&k=19555&l=search",
	"arName":"22 ش طه حسين, الزمالك, القاهرة",
	"lat":"30.067713000000001",
	"lng":"31.219608000000001",
	"enName":"22 Taha Hussein St., Zamalek, Cairo"
},
		{	"profileId":"531971",
	"profileURL":"//www.yellowpages.com.eg/en/profile/arab-african-international-bank-_-aaib-_-atm/531971?b=187&k=19555&l=search",
	"arName":"63 أ ش الثروة المعدنية, حدائق الاهرام, الهرم, الجيزة",
	"lat":"29.981389",
	"lng":"31.109416",
	"enName":"63 A El Tharwa El Maadaneya St., Hadayek El Ahram, El haram, Giza"
}
	]
}, {	"arName":"ويسترن يونيون - البنك العربى الافريقى الدولى",
	"enName":"Western Union - Arab African International Bank",
	"hotline":"19555",
	"facebook":"http://www.facebook.com/groups/aaibofficialgroup/",
	"web":"http://www.aaib.com/",
	"arCategory":[
		"تحويل اموال"
	],
	"enCategories":[
		"Money Transfers"
	],
	"contacts":[
		{	"profileId":"560945",
	"profileURL":"//www.yellowpages.com.eg/en/profile/western-union-_-arab-african-international-bank/560945?b=267&k=19555&l=search",
	"arName":"القطعة 10056 - الشطر العاشر - مدينة المعراج, زهراء المعادى, المعادى, القاهرة",
	"lat":"29.974028000000001",
	"lng":"31.315314000000001",
	"enName":"Plot 10056, 10th Sector, El Mearag City, Zahraa El Maadi, Maadi, Cairo"
}
	]
}]}